{"prefectureCode":5,"data":[{"id":13457492686,"lat":38.9868261,"lon":140.4853415,"tags":{"addr:block_number":"7","addr:city":"湯沢市","addr:housenumber":"2","addr:neighbourhood":"秋ノ宮川井","addr:postcode":"019-0321","addr:province":"秋田県","amenity":"post_office","name":"秋ノ宮郵便局","name:en":"Akinomiya Post Office","name:es":"Oficina de Correos de Akinomiya","name:ja":"秋ノ宮郵便局","name:ja-Hira":"あきのみや ゆうびんきょく","name:pt":"Correio de Akinomiya","opening_hours":"Mo-Fr 09:00-17:00","operator":"日本郵便","operator:en":"Japan Post","operator:ja":"日本郵便","operator:short":"郵便局","operator:short:en":"JP","operator:short:ja":"郵便局","operator:wikidata":"Q11509260","phone":"+81-183-56-2018"},"type":"node","ver":1},{"id":13457492687,"lat":39.0055038,"lon":140.4619548,"tags":{"addr:block_number":"89","addr:city":"湯沢市","addr:housenumber":"2","addr:neighbourhood":"秋ノ宮山岸","addr:postcode":"019-0321","addr:province":"秋田県","amenity":"post_office","name":"西秋ノ宮簡易郵便局","name:en":"Nishiakinomiya Summary Post Office","name:es":"Oficina Simple de Correos de Nishiakinomiya","name:ja":"西秋ノ宮簡易郵便局","name:ja-Hira":"にしあきのみや かんいゆうびんきょく","opening_hours":"Mo-Fr 09:00-17:00","operator":"日本郵便","operator:en":"Japan Post","operator:ja":"日本郵便","operator:short":"郵便局","operator:short:en":"JP","operator:short:ja":"郵便局","operator:wikidata":"Q11509260","phone":"+81-183-55-2238"},"type":"node","ver":1},{"id":13457492685,"lat":38.9619076,"lon":140.5302003,"tags":{"addr:block_number":"50","addr:city":"湯沢市","addr:neighbourhood":"秋ノ宮湯ノ岱","addr:postcode":"019-0321","addr:province":"秋田県","amenity":"post_office","name":"湯ノ岱簡易郵便局","name:en":"Yunodai Summary Post Office","name:es":"Oficina Simple de Correos de Yunodai","name:ja":"湯ノ岱簡易郵便局","name:ja-Hira":"ゆのだい かんいゆうびんきょく","opening_hours":"Mo-Fr 09:00-17:00","operator":"日本郵便","operator:en":"Japan Post","operator:ja":"日本郵便","operator:short":"郵便局","operator:short:en":"JP","operator:short:ja":"郵便局","operator:wikidata":"Q11509260","phone":"+81-183-56-2232"},"type":"node","ver":1},{"id":13455572996,"lat":39.1360964,"lon":139.8849205,"tags":{"addr:block_number":"13","addr:city":"にかほ市","addr:housenumber":"47","addr:neighbourhood":"象潟町小砂川小田","addr:postcode":"018-0143","addr:province":"秋田県","amenity":"post_office","name":"上浜郵便局","name:en":"Kamihama Post Office","name:es":"Oficina de Correos de Kamihama","name:ja":"上浜郵便局","name:ja-Hira":"かみはま ゆうびんきょく","name:pt":"Correio de Kamihama","opening_hours":"Mo-Fr 09:00-17:00","operator":"日本郵便","operator:en":"Japan Post","operator:ja":"日本郵便","operator:short":"郵便局","operator:short:en":"JP","operator:short:ja":"郵便局","operator:wikidata":"Q11509260","phone":"+81-184-46-2260"},"type":"node","ver":1},{"id":13455572997,"lat":39.164931,"lon":139.9023625,"tags":{"addr:block_number":"4","addr:city":"にかほ市","addr:housenumber":"26","addr:neighbourhood":"象潟町洗釜砂山","addr:postcode":"018-0135","addr:province":"秋田県","amenity":"post_office","name":"洗釜簡易郵便局","name:en":"Araigama Summary Post Office","name:es":"Oficina Simple de Correos de Araigama","name:ja":"洗釜簡易郵便局","name:ja-Hira":"あらいがま かんいゆうびんきょく","opening_hours":"Mo-Fr 09:00-17:00","operator":"日本郵便","operator:en":"Japan Post","operator:ja":"日本郵便","operator:short":"郵便局","operator:short:en":"JP","operator:short:ja":"郵便局","operator:wikidata":"Q11509260","phone":"+81-184-46-2250"},"type":"node","ver":1},{"id":13455572998,"lat":39.204203,"lon":139.9013517,"tags":{"addr:block_number":"52","addr:city":"にかほ市","addr:housenumber":"4","addr:neighbourhood":"象潟町後田","addr:postcode":"018-0199","addr:province":"秋田県","amenity":"post_office","name":"象潟郵便局","name:en":"Kisakata Post Office","name:es":"Oficina de Correos de Kisakata","name:ja":"象潟郵便局","name:ja-Hira":"きさかた ゆうびんきょく","name:pt":"Correio de Kisakata","opening_hours":"Mo-Fr 09:00-17:00","operator":"日本郵便","operator:en":"Japan Post","operator:ja":"日本郵便","operator:short":"郵便局","operator:short:en":"JP","operator:short:ja":"郵便局","operator:wikidata":"Q11509260","phone":"+81-184-43-2870","wikidata":"Q97310739","wikipedia":"ja:象潟郵便局"},"type":"node","ver":1},{"id":13455572999,"lat":39.185995,"lon":139.9438845,"tags":{"addr:block_number":"13","addr:city":"にかほ市","addr:neighbourhood":"象潟町小滝北田","addr:postcode":"018-0153","addr:province":"秋田県","amenity":"post_office","name":"小滝郵便局","name:en":"Kotaki Post Office","name:es":"Oficina de Correos de Kotaki","name:ja":"小滝郵便局","name:ja-Hira":"こたき ゆうびんきょく","name:pt":"Correio de Kotaki","opening_hours":"Mo-Fr 09:00-17:00","operator":"日本郵便","operator:en":"Japan Post","operator:ja":"日本郵便","operator:short":"郵便局","operator:short:en":"JP","operator:short:ja":"郵便局","operator:wikidata":"Q11509260","phone":"+81-184-44-2010"},"type":"node","ver":1},{"id":13455573000,"lat":39.22955,"lon":139.9469087,"tags":{"addr:block_number":"146","addr:city":"にかほ市","addr:neighbourhood":"大竹前谷地","addr:postcode":"018-0322","addr:province":"秋田県","amenity":"post_office","name":"大竹簡易郵便局","name:en":"Otake Summary Post Office","name:es":"Oficina Simple de Correos de Otake","name:ja":"大竹簡易郵便局","name:ja-Hira":"おおたけ かんいゆうびんきょく","opening_hours":"Mo-Fr 09:00-17:00","operator":"日本郵便","operator:en":"Japan Post","operator:ja":"日本郵便","operator:short":"郵便局","operator:short:en":"JP","operator:short:ja":"郵便局","operator:wikidata":"Q11509260","phone":"+81-184-38-2947"},"type":"node","ver":1},{"id":11446528752,"lat":39.2268364,"lon":140.0254201,"tags":{"amenity":"post_box","operator":"日本郵便","operator:en":"Japan Post","operator:ja":"日本郵便","operator:short":"郵便局","operator:short:en":"JP","operator:short:ja":"郵便局","operator:wikidata":"Q11509260","ref":"18459"},"type":"node","ver":1},{"id":13455580103,"lat":39.2570999,"lon":139.9154975,"tags":{"addr:block_number":"105","addr:city":"にかほ市","addr:neighbourhood":"金浦金浦","addr:postcode":"018-0311","addr:province":"秋田県","amenity":"post_office","name":"金浦郵便局","name:en":"Konoura Post Office","name:es":"Oficina de Correos de Konoura","name:ja":"金浦郵便局","name:ja-Hira":"このうら ゆうびんきょく","name:pt":"Correio de Konoura","opening_hours":"Mo-Fr 09:00-17:00","operator":"日本郵便","operator:en":"Japan Post","operator:ja":"日本郵便","operator:short":"郵便局","operator:short:en":"JP","operator:short:ja":"郵便局","operator:wikidata":"Q11509260","phone":"+81-184-38-2222"},"type":"node","ver":1},{"id":13455580101,"lat":39.2445982,"lon":139.9563437,"tags":{"addr:block_number":"66","addr:city":"にかほ市","addr:neighbourhood":"中三地中ノ庭","addr:postcode":"018-0435","addr:province":"秋田県","amenity":"post_office","name":"小出郵便局","name:en":"Koide Post Office","name:es":"Oficina de Correos de Koide","name:ja":"小出郵便局","name:ja-Hira":"こいで ゆうびんきょく","name:pt":"Correio de Koide","opening_hours":"Mo-Fr 09:00-17:00","operator":"日本郵便","operator:en":"Japan Post","operator:ja":"日本郵便","operator:short":"郵便局","operator:short:en":"JP","operator:short:ja":"郵便局","operator:wikidata":"Q11509260","phone":"+81-184-38-2820"},"type":"node","ver":1},{"id":13455580102,"lat":39.2689886,"lon":139.9730295,"tags":{"addr:block_number":"112","addr:city":"にかほ市","addr:neighbourhood":"院内城前","addr:postcode":"018-0411","addr:province":"秋田県","amenity":"post_office","name":"由利院内郵便局","name:en":"Yuriinnai Post Office","name:es":"Oficina de Correos de Yuriinnai","name:ja":"由利院内郵便局","name:ja-Hira":"ゆりいんない ゆうびんきょく","name:pt":"Correio de Yuriinnai","opening_hours":"Mo-Fr 09:00-17:00","operator":"日本郵便","operator:en":"Japan Post","operator:ja":"日本郵便","operator:short":"郵便局","operator:short:en":"JP","operator:short:ja":"郵便局","operator:wikidata":"Q11509260","phone":"+81-184-36-2051"},"type":"node","ver":1},{"id":13955382702,"lat":39.2910456,"lon":139.9578394,"tags":{"amenity":"post_box"},"type":"node","ver":1},{"id":13455580104,"lat":39.2879873,"lon":139.9688648,"tags":{"addr:block_number":"57","addr:city":"にかほ市","addr:housenumber":"1","addr:neighbourhood":"平沢家妻","addr:postcode":"018-0499","addr:province":"秋田県","amenity":"post_office","name":"仁賀保郵便局","name:en":"Nikaho Post Office","name:es":"Oficina de Correos de Niokaho","name:ja":"仁賀保郵便局","name:ja-Hira":"にかほ ゆうびんきょく","name:pt":"Correio de Nikaho","opening_hours":"Mo-Fr 09:00-17:00","operator":"日本郵便","operator:en":"Japan Post","operator:ja":"日本郵便","operator:short":"郵便局","operator:short:en":"JP","operator:short:ja":"郵便局","operator:wikidata":"Q11509260","phone":"+81-184-37-3600"},"type":"node","ver":1},{"id":13457369114,"lat":39.2889353,"lon":140.0088024,"tags":{"addr:block_number":"3","addr:city":"由利本荘市","addr:housenumber":"2","addr:neighbourhood":"西目町出戸孫七山","addr:postcode":"018-0602","addr:province":"秋田県","amenity":"post_office","name":"孫七山簡易郵便局","name:en":"Magoshichiyama Summary Post Office","name:es":"Oficina Simple de Correos de Magoshichiyama","name:ja":"孫七山簡易郵便局","name:ja-Hira":"まごしちやま かんいゆうびんきょく","opening_hours":"Mo-Fr 09:00-17:00","operator":"日本郵便","operator:en":"Japan Post","operator:ja":"日本郵便","operator:short":"郵便局","operator:short:en":"JP","operator:short:ja":"郵便局","operator:wikidata":"Q11509260","phone":"+81-184-33-2301"},"type":"node","ver":1},{"id":5183029435,"lat":39.3285177,"lon":140.0700637,"tags":{"addr:block_number":"186","addr:city":"由利本荘市","addr:housenumber":"2","addr:neighbourhood":"東鮎川岡田","addr:postcode":"015-0362","addr:province":"秋田県","amenity":"post_office","name":"鮎川簡易郵便局","name:en":"Ayukawa Summary Post Office","name:es":"Oficina Simple de Correos de Ayukawa","name:ja":"鮎川簡易郵便局","name:ja-Hira":"あゆかわ かんいゆうびんきょく","opening_hours":"Mo-Fr 09:00-17:00","operator":"日本郵便","operator:en":"Japan Post","operator:ja":"日本郵便","operator:short":"郵便局","operator:short:en":"JP","operator:short:ja":"郵便局","operator:wikidata":"Q11509260","phone":"+81-184-53-3326"},"type":"node","ver":2},{"id":5182705622,"lat":39.3461042,"lon":140.0154159,"tags":{"addr:block_number":"1","addr:city":"由利本荘市","addr:housenumber":"6","addr:neighbourhood":"西目町沼田新道下","addr:postcode":"018-0604","addr:province":"秋田県","amenity":"post_office","name":"西目郵便局","name:en":"Nishime Post Office","name:es":"Oficina de Correos de Nishime","name:ja":"西目郵便局","name:ja-Hira":"にしめ ゆうびんきょく","name:pt":"Correio de Nishime","opening_hours":"Mo-Fr 09:00-17:00","operator":"日本郵便","operator:en":"Japan Post","operator:ja":"日本郵便","operator:short":"郵便局","operator:short:en":"JP","operator:short:ja":"郵便局","operator:wikidata":"Q11509260","phone":"+81-184-33-2025","wikidata":"Q97311015","wikipedia":"ja:西目郵便局 (秋田県)"},"type":"node","ver":3},{"id":1872810209,"lat":39.3473771,"lon":140.0181536,"tags":{"amenity":"post_box","source":"image,2012-07-23"},"type":"node","ver":2},{"id":1347635856,"lat":39.3686439,"lon":140.0168407,"tags":{"amenity":"post_box"},"type":"node","ver":1},{"id":13457369115,"lat":39.3685175,"lon":140.0168395,"tags":{"addr:block_number":"1","addr:city":"由利本荘市","addr:housenumber":"42","addr:neighbourhood":"西目町海士剥御月森","addr:postcode":"018-0601","addr:province":"秋田県","amenity":"post_office","name":"海士剥簡易郵便局","name:en":"Amahagi Summary Post Office","name:es":"Oficina Simple de Correos de Amahagui","name:ja":"海士剥簡易郵便局","name:ja-Hira":"あまはぎ かんいゆうびんきょく","opening_hours":"Mo-Fr 09:00-17:00","operator":"日本郵便","operator:en":"Japan Post","operator:ja":"日本郵便","operator:short":"郵便局","operator:short:en":"JP","operator:short:ja":"郵便局","operator:wikidata":"Q11509260","phone":"+81-184-33-2355"},"type":"node","ver":1},{"id":5183029438,"lat":39.3510133,"lon":140.0595256,"tags":{"addr:block_number":"14","addr:city":"由利本荘市","addr:housenumber":"8","addr:neighbourhood":"玉ノ池落シ","addr:postcode":"015-0044","addr:province":"秋田県","amenity":"post_office","name":"玉ノ池簡易郵便局","name:en":"Tamanoike Summary Post Office","name:es":"Oficina Simple de Correos de Tamanoike","name:ja":"玉ノ池簡易郵便局","name:ja-Hira":"たまのいけ かんいゆうびんきょく","opening_hours":"Mo-Fr 09:00-17:00","operator":"日本郵便","operator:en":"Japan Post","operator:ja":"日本郵便","operator:short":"郵便局","operator:short:en":"JP","operator:short:ja":"郵便局","operator:wikidata":"Q11509260","phone":"+81-184-24-0414"},"type":"node","ver":2},{"id":12873158145,"lat":39.3507605,"lon":140.0597391,"tags":{"amenity":"post_office","name":"子吉簡易郵便局","operator":"日本郵便","operator:en":"Japan Post","operator:ja":"日本郵便","operator:short":"郵便局","operator:short:en":"JP","operator:short:ja":"郵便局","operator:wikidata":"Q11509260"},"type":"node","ver":1},{"id":5170821422,"lat":39.3599197,"lon":140.0775194,"tags":{"addr:block_number":"73","addr:city":"由利本荘市","addr:housenumber":"4","addr:neighbourhood":"三条三条谷地","addr:postcode":"015-0067","addr:province":"秋田県","amenity":"post_office","name":"羽後小友郵便局","name:en":"Ugo Otomo Post Office","name:es":"Oficina de Correos de Ugo Otomo","name:ja":"羽後小友郵便局","name:ja-Hira":"うご おとも ゆうびんきょく","name:pt":"Correio de Ugo Otomo","opening_hours":"Mo-Fr 09:00-17:00","operator":"日本郵便","operator:en":"Japan Post","operator:ja":"日本郵便","operator:short":"郵便局","operator:short:en":"JP","operator:short:ja":"郵便局","operator:wikidata":"Q11509260","phone":"+81-184-22-6982"},"type":"node","ver":2},{"id":5175968454,"lat":39.3704507,"lon":140.0477586,"tags":{"addr:block_number":"3","addr:city":"由利本荘市","addr:housenumber":"1","addr:neighbourhood":"薬師堂堤下","addr:postcode":"015-0041","addr:province":"秋田県","amenity":"post_office","name":"子吉郵便局","name:en":"Koyoshi Post Office","name:es":"Oficina de Correos de Koyoshi","name:ja":"子吉郵便局","name:ja-Hira":"こよし ゆうびんきょ","name:pt":"Correio de Koyoshi","opening_hours":"Mo-Fr 09:00-17:00","operator":"日本郵便","operator:en":"Japan Post","operator:ja":"日本郵便","operator:short":"郵便局","operator:short:en":"JP","operator:short:ja":"郵便局","operator:wikidata":"Q11509260","phone":"+81-184-22-6983"},"type":"node","ver":3},{"id":5175966737,"lat":39.3817591,"lon":140.0441607,"tags":{"amenity":"post_box"},"type":"node","ver":1},{"id":10614961756,"lat":39.3888615,"lon":140.0429291,"tags":{"amenity":"post_box","operator":"日本郵便","operator:en":"Japan Post","operator:ja":"日本郵便","operator:wikidata":"Q11509260","short_name":"郵便局","short_name:en":"JP","short_name:ja":"郵便局"},"type":"node","ver":1},{"id":10614961758,"lat":39.3883473,"lon":140.0430057,"tags":{"amenity":"post_box","operator":"日本郵便","operator:en":"Japan Post","operator:ja":"日本郵便","operator:wikidata":"Q11509260","short_name":"郵便局","short_name:en":"JP","short_name:ja":"郵便局"},"type":"node","ver":1},{"id":13457369117,"lat":39.3885795,"lon":140.0428826,"tags":{"addr:block_number":"43","addr:city":"由利本荘市","addr:housenumber":"1","addr:neighbourhood":"給人町","addr:postcode":"015-8799","addr:province":"秋田県","amenity":"post_office","name":"本荘郵便局","name:en":"Honjo Post Office","name:es":"Oficina de Correos de Honjo","name:ja":"本荘郵便局","name:ja-Hira":"ほんじょう ゆうびんきょく","name:pt":"Correio de Honjo","opening_hours":"Mo-Fr 09:00-17:00","operator":"日本郵便","operator:en":"Japan Post","operator:ja":"日本郵便","operator:short":"郵便局","operator:short:en":"JP","operator:short:ja":"郵便局","operator:wikidata":"Q11509260","phone":"+81-800-0800-111","wikidata":"Q11520783","wikipedia":"ja:本荘郵便局"},"type":"node","ver":1},{"id":10614961754,"lat":39.3857498,"lon":140.0531016,"tags":{"amenity":"post_box","operator":"日本郵便","operator:en":"Japan Post","operator:ja":"日本郵便","operator:wikidata":"Q11509260","short_name":"郵便局","short_name:en":"JP","short_name:ja":"郵便局"},"type":"node","ver":1},{"id":13457369116,"lat":39.3856433,"lon":140.0530584,"tags":{"addr:block_number":"18","addr:city":"由利本荘市","addr:housenumber":"3","addr:neighbourhood":"東町","addr:postcode":"015-0076","addr:province":"秋田県","amenity":"post_office","name":"本荘駅前郵便局","name:en":"Honjo Ekimae Post Office","name:es":"Oficina de Correos de Honjo Ekimae","name:ja":"本荘駅前郵便局","name:ja-Hira":"ほんじょう えきまえ ゆうびんきょく","name:pt":"Correio de Honjo Ekimae","opening_hours":"Mo-Fr 09:00-17:00","operator":"日本郵便","operator:en":"Japan Post","operator:ja":"日本郵便","operator:short":"郵便局","operator:short:en":"JP","operator:short:ja":"郵便局","operator:wikidata":"Q11509260","phone":"+81-184-22-6980","short_name":"郵便局","short_name:en":"JP","short_name:ja":"郵便局"},"type":"node","ver":1},{"id":1872020813,"lat":39.3868875,"lon":140.0573943,"tags":{"amenity":"post_box","source":"image,2012-07-23"},"type":"node","ver":3},{"id":13457369119,"lat":39.4045659,"lon":140.0316519,"tags":{"addr:block_number":"6","addr:city":"由利本荘市","addr:housenumber":"17","addr:neighbourhood":"石脇田尻野","addr:postcode":"015-0013","addr:province":"秋田県","amenity":"post_office","name":"本荘竜巻簡易郵便局","name:en":"Honjo Tatsumaki Summary Post Office","name:es":"Oficina Simple de Correos de Honjo Tatsumaki","name:ja":"本荘竜巻簡易郵便局","name:ja-Hira":"ほんじょう たつまき かんいゆうびんきょく","opening_hours":"Mo-Fr 09:00-17:00","operator":"日本郵便","operator:en":"Japan Post","operator:ja":"日本郵便","operator:short":"郵便局","operator:short:en":"JP","operator:short:ja":"郵便局","operator:wikidata":"Q11509260","phone":"+81-184-24-3166"},"type":"node","ver":1},{"id":10614957542,"lat":39.3908182,"lon":140.0514079,"tags":{"amenity":"post_box","operator":"日本郵便","operator:en":"Japan Post","operator:ja":"日本郵便","operator:short":"郵便局","operator:short:en":"JP","operator:short:ja":"郵便局","operator:wikidata":"Q11509260","short_name":"郵便局","short_name:en":"JP","short_name:ja":"郵便局"},"type":"node","ver":2},{"id":13457369118,"lat":39.3957796,"lon":140.0515023,"tags":{"addr:block_number":"292","addr:city":"由利本荘市","addr:neighbourhood":"石脇字石脇","addr:postcode":"015-0011","addr:province":"秋田県","amenity":"post_office","name":"石脇郵便局","name:en":"Ishiwaki Post Office","name:es":"Oficina de Correos de Ishiwaki","name:ja":"石脇郵便局","name:ja-Hira":"いしわき ゆうびんきょく","name:pt":"Correio de Ishiwaki","opening_hours":"Mo-Fr 09:00-17:00","operator":"日本郵便","operator:en":"Japan Post","operator:ja":"日本郵便","operator:short":"郵便局","operator:short:en":"JP","operator:short:ja":"郵便局","operator:wikidata":"Q11509260","phone":"+81-184-22-6981"},"type":"node","ver":1},{"id":13457369120,"lat":39.4166176,"lon":140.0719945,"tags":{"addr:block_number":"471","addr:city":"由利本荘市","addr:neighbourhood":"内越平岡","addr:postcode":"015-0024","addr:province":"秋田県","amenity":"post_office","name":"北内越郵便局","name:en":"Kitautetsu Post Office","name:es":"Oficina de Correos de Kitautetsu","name:ja":"北内越郵便局","name:ja-Hira":"きたうてつ ゆうびんきょく","name:pt":"Correio de Kitautetsu","opening_hours":"Mo-Fr 09:00-17:00","operator":"日本郵便","operator:en":"Japan Post","operator:ja":"日本郵便","operator:short":"郵便局","operator:short:en":"JP","operator:short:ja":"郵便局","operator:wikidata":"Q11509260","phone":"+81-184-22-6984"},"type":"node","ver":1},{"id":10543530471,"lat":39.4434262,"lon":140.0777932,"tags":{"amenity":"post_box","operator":"日本郵便","operator:en":"Japan Post","operator:ja":"日本郵便","operator:short":"郵便局","operator:short:en":"JP","operator:short:ja":"郵便局","operator:wikidata":"Q11509260","short_name":"郵便局","short_name:en":"JP","short_name:ja":"郵便局"},"type":"node","ver":2},{"id":10614959933,"lat":39.4963879,"lon":140.0458786,"tags":{"amenity":"post_box","operator":"日本郵便","operator:en":"Japan Post","operator:ja":"日本郵便","operator:wikidata":"Q11509260","short_name":"郵便局","short_name:en":"JP","short_name:ja":"郵便局"},"type":"node","ver":1},{"id":13457369125,"lat":39.496313,"lon":140.0459059,"tags":{"addr:block_number":"60","addr:city":"由利本荘市","addr:neighbourhood":"字松ヶ崎町","addr:postcode":"015-0032","addr:province":"秋田県","addr:quarter":"松ヶ崎","amenity":"post_office","name":"松ケ崎郵便局","name:en":"Matsugasaki Post Office","name:es":"Oficina de Correos de Matsugasaki","name:ja":"松ケ崎郵便局","name:ja-Hira":"まつがさき ゆうびんきょく","name:pt":"Correio de Matsugasaki","opening_hours":"Mo-Fr 09:00-17:00","operator":"日本郵便","operator:en":"Japan Post","operator:ja":"日本郵便","operator:short":"郵便局","operator:short:en":"JP","operator:short:ja":"郵便局","operator:wikidata":"Q11509260","phone":"+81-184-28-2360","short_name":"郵便局","short_name:en":"JP","short_name:ja":"郵便局","wikidata":"Q97196601","wikipedia":"ja:松ケ崎郵便局"},"type":"node","ver":1},{"id":13457369124,"lat":39.5006342,"lon":140.0812103,"tags":{"addr:block_number":"4","addr:city":"由利本荘市","addr:neighbourhood":"岩城亀田大町肴町","addr:postcode":"018-1218","addr:province":"秋田県","amenity":"post_office","name":"亀田郵便局","name:en":"Kameda Post Office","name:es":"Oficina de Correos de Kameda","name:ja":"亀田郵便局","name:ja-Hira":"かめだ ゆうびんきょく","name:pt":"Correio de Kameda","opening_hours":"Mo-Fr 09:00-17:00","operator":"日本郵便","operator:en":"Japan Post","operator:ja":"日本郵便","operator:short":"郵便局","operator:short:en":"JP","operator:short:ja":"郵便局","operator:wikidata":"Q11509260","phone":"+81-184-72-2360"},"type":"node","ver":1},{"id":11446662163,"lat":39.5423299,"lon":140.0530292,"tags":{"amenity":"post_box","operator":"日本郵便","operator:en":"Japan Post","operator:ja":"日本郵便","operator:short":"郵便局","operator:short:en":"JP","operator:short:ja":"郵便局","operator:wikidata":"Q11509260","ref":"18309"},"type":"node","ver":1},{"id":13457369126,"lat":39.5542815,"lon":140.0567244,"tags":{"addr:block_number":"150","addr:city":"由利本荘市","addr:housenumber":"19","addr:neighbourhood":"岩城内道川烏森","addr:postcode":"018-1399","addr:province":"秋田県","amenity":"post_office","name":"岩城郵便局","name:en":"Iwaki Post Office","name:es":"Oficina de Correos de Iwaki","name:ja":"岩城郵便局","name:ja-Hira":"いわき ゆうびんきょく","name:pt":"Correio de Iwaki","opening_hours":"Mo-Fr 09:00-17:00","operator":"日本郵便","operator:en":"Japan Post","operator:ja":"日本郵便","operator:short":"郵便局","operator:short:en":"JP","operator:short:ja":"郵便局","operator:wikidata":"Q11509260","phone":"+81-184-73-2105","wikidata":"Q97196172","wikipedia":"ja:岩城郵便局 (秋田県)"},"type":"node","ver":1},{"id":5185418838,"lat":39.5776335,"lon":140.0598127,"tags":{"addr:block_number":"97","addr:city":"由利本荘市","addr:housenumber":"1","addr:neighbourhood":"岩城勝手前砂沢","addr:postcode":"018-1302","addr:province":"秋田県","amenity":"post_office","name":"新谷簡易郵便局","name:en":"Araya Summary Post Office","name:es":"Oficina Simple de Correos de Araya","name:ja":"新谷簡易郵便局","name:ja-Hira":"あらや かんいゆうびんきょく","opening_hours":"Mo-Fr 09:00-17:00","operator":"日本郵便","operator:en":"Japan Post","operator:ja":"日本郵便","operator:short":"郵便局","operator:short:en":"JP","operator:short:ja":"郵便局","operator:wikidata":"Q11509260","phone":"+81-184-73-3070"},"type":"node","ver":2},{"id":10653906829,"lat":39.6139206,"lon":140.0644199,"tags":{"amenity":"post_box","operator":"日本郵便","operator:en":"Japan Post","operator:ja":"日本郵便","operator:wikidata":"Q11509260","short_name":"郵便局","short_name:en":"JP","short_name:ja":"郵便局"},"type":"node","ver":1},{"id":13472890085,"lat":39.613913,"lon":140.0642899,"tags":{"addr:block_number":"1","addr:city":"秋田市","addr:housenumber":"74","addr:neighbourhood":"下浜羽川下野","addr:postcode":"010-1599","addr:province":"秋田県","amenity":"post_office","name":"下浜郵便局","name:en":"Shimohama Post Office","name:es":"Oficina de Correos de Shimohama","name:ja":"下浜郵便局","name:ja-Hira":"しもはま ゆうびんきょく","name:pt":"Correio de Shimohama","opening_hours":"Mo-Fr 09:00-17:00","operator":"日本郵便","operator:en":"Japan Post","operator:ja":"日本郵便","operator:short":"郵便局","operator:short:en":"JP","operator:short:ja":"郵便局","operator:wikidata":"Q11509260","phone":"+81-18-879-2160","short_name":"郵便局","short_name:en":"JP","short_name:ja":"郵便局","wikidata":"Q11361120","wikipedia":"ja:下浜郵便局"},"type":"node","ver":1},{"id":10653906815,"lat":39.6669314,"lon":140.0658526,"tags":{"addr:block_number":"88","addr:city":"秋田市","addr:housenumber":"6","addr:neighbourhood":"浜田自在山","addr:postcode":"010-1654","addr:province":"秋田県","amenity":"post_office","name":"浜田簡易郵便局","name:en":"Hamada Summary Post Office","name:es":"Oficina Simple de Correos de Hamada","name:ja":"浜田簡易郵便局","name:ja-Hira":"はまだ かんいゆうびんきょく","opening_hours":"Mo-Fr 09:00-17:00","operator":"日本郵便","operator:en":"Japan Post","operator:ja":"日本郵便","operator:short":"郵便局","operator:short:en":"JP","operator:short:ja":"郵便局","operator:wikidata":"Q11509260","phone":"+81-18-853-7817","short_name":"郵便局","short_name:en":"JP","short_name:ja":"郵便局"},"type":"node","ver":2},{"id":10653906816,"lat":39.6670307,"lon":140.0659855,"tags":{"amenity":"post_box","operator":"日本郵便","operator:en":"Japan Post","operator:ja":"日本郵便","operator:wikidata":"Q11509260","short_name":"郵便局","short_name:en":"JP","short_name:ja":"郵便局"},"type":"node","ver":1},{"id":9394429617,"lat":39.6767957,"lon":140.085855,"tags":{"addr:block_number":"13","addr:city":"秋田市","addr:housenumber":"31","addr:neighbourhood":"新屋扇町","addr:postcode":"010-1637","addr:province":"秋田県","addr:street":"秋田市新屋扇町","amenity":"post_office","name":"新屋駅前郵便局","name:en":"Araya Ekimae Post Office","name:es":"Oficina de Correos de Araya Ekimae","name:ja":"新屋駅前郵便局","name:ja-Hira":"あらや えきまえ ゆうびんきょく","name:pt":"Correio de Araya Ekimae","opening_hours":"Mo-Fr 09:00-17:00","operator":"日本郵便","operator:en":"Japan Post","operator:ja":"日本郵便","operator:short":"郵便局","operator:short:en":"JP","operator:short:ja":"郵便局","operator:wikidata":"Q11509260","phone":"+81-18-828-4200","website":"https://map.japanpost.jp/p/search/dtl/300186276000/"},"type":"node","ver":2},{"id":13472890098,"lat":39.6839306,"lon":140.0842591,"tags":{"addr:block_number":"22","addr:city":"秋田市","addr:housenumber":"38","addr:neighbourhood":"新屋元町","addr:postcode":"010-1631","addr:province":"秋田県","amenity":"post_office","name":"新屋郵便局","name:en":"Araya Post Office","name:es":"Oficina de Correos de Araya","name:ja":"新屋郵便局","name:ja-Hira":"あらや ゆうびんきょく","name:pt":"Correio de Araya","opening_hours":"Mo-Fr 09:00-17:00","operator":"日本郵便","operator:en":"Japan Post","operator:ja":"日本郵便","operator:short":"郵便局","operator:short:en":"JP","operator:short:ja":"郵便局","operator:wikidata":"Q11509260","phone":"+81-18-828-4324","wikidata":"Q11501986","wikipedia":"ja:新屋郵便局"},"type":"node","ver":1},{"id":5581728764,"lat":39.6995192,"lon":140.0809861,"tags":{"addr:block_number":"6","addr:city":"秋田市","addr:housenumber":"5","addr:neighbourhood":"新屋松美町","addr:postcode":"010-1604","addr:province":"秋田県","amenity":"post_office","name":"秋田割山郵便局","name:en":"Akita Wariyama Post Office","name:es":"Oficina de Correos de Akita Wariyama","name:ja":"秋田割山郵便局","name:ja-Hira":"あきた わりやま ゆうびんきょく","name:pt":"Correio de Akita Wariyama","opening_hours":"Mo-Fr 09:00-17:00","operator":"日本郵便","operator:en":"Japan Post","operator:ja":"日本郵便","operator:short":"郵便局","operator:short:en":"JP","operator:short:ja":"郵便局","operator:wikidata":"Q11509260","phone":"+81-18-823-9525"},"type":"node","ver":2},{"id":11005698581,"lat":39.6994691,"lon":140.086863,"tags":{"amenity":"post_box","operator":"日本郵便","operator:en":"Japan Post","operator:ja":"日本郵便","operator:wikidata":"Q11509260","ref":"010290","short_name":"郵便局","short_name:en":"JP","short_name:ja":"郵便局"},"type":"node","ver":1},{"id":13472890099,"lat":39.7143589,"lon":140.0812827,"tags":{"addr:block_number":"170","addr:city":"秋田市","addr:housenumber":"44","addr:neighbourhood":"川尻町大川反","addr:postcode":"010-0941","addr:province":"秋田県","amenity":"post_office","name":"大川反簡易郵便局","name:en":"Okawabata Summary Post Office","name:es":"Oficina Simple de Correos de Okawabata","name:ja":"大川反簡易郵便局","name:ja-Hira":"おおかわばた かんいゆうびんきょく","opening_hours":"Mo-Fr 09:00-17:00","operator":"日本郵便","operator:en":"Japan Post","operator:ja":"日本郵便","operator:short":"郵便局","operator:short:en":"JP","operator:short:ja":"郵便局","operator:wikidata":"Q11509260","phone":"+81-18-823-3917"},"type":"node","ver":1},{"id":13472913413,"lat":39.7357407,"lon":140.0887528,"tags":{"addr:block_number":"15","addr:city":"秋田市","addr:housenumber":"7","addr:neighbourhood":"寺内堂ノ沢1丁目","addr:postcode":"011-0902","addr:province":"秋田県","amenity":"post_office","name":"秋田寺内郵便局","name:en":"Akita Terauchi Post Office","name:es":"Oficina de Correos de Akita Terauchi","name:ja":"秋田寺内郵便局","name:ja-Hira":"あきた てらうち ゆうびんきょく","name:pt":"Correio de Akita Terauchi","opening_hours":"Mo-Fr 09:00-17:00","operator":"日本郵便","operator:en":"Japan Post","operator:ja":"日本郵便","operator:short":"郵便局","operator:short:en":"JP","operator:short:ja":"郵便局","operator:wikidata":"Q11509260","phone":"+81-18-846-7248"},"type":"node","ver":1},{"id":13472913415,"lat":39.7501623,"lon":140.0731963,"tags":{"addr:block_number":"5","addr:city":"秋田市","addr:housenumber":"13","addr:neighbourhood":"土崎港中央2丁目","addr:postcode":"011-0946","addr:province":"秋田県","amenity":"post_office","name":"土崎港郵便局","name:en":"Tsuchizaki Minato Post Office","name:es":"Oficina de Correos de Tsuchizaki Minato","name:ja":"土崎港郵便局","name:ja-Hira":"つちざき みなと ゆうびんきょく","name:pt":"Correio de Tsuchizaki Minato","opening_hours":"Mo-Fr 09:00-17:00","operator":"日本郵便","operator:en":"Japan Post","operator:ja":"日本郵便","operator:short":"郵便局","operator:short:en":"JP","operator:short:ja":"郵便局","operator:wikidata":"Q11509260","phone":"+81-18-857-0280","short_name":"郵便局","short_name:en":"JP","short_name:ja":"郵便局"},"type":"node","ver":1},{"id":13472913416,"lat":39.7555581,"lon":140.0690774,"tags":{"addr:block_number":"6","addr:city":"秋田市","addr:housenumber":"10","addr:neighbourhood":"土崎港中央3丁目","addr:postcode":"011-0946","addr:province":"秋田県","amenity":"post_office","name":"土崎郵便局","name:en":"Tsuchizaki Post Office","name:es":"Oficina de Correos de Tsuchizaki","name:ja":"土崎郵便局","name:ja-Hira":"つちざき ゆうびんきょく","name:pt":"Correio de Tsuchizaki","opening_hours":"Mo-Fr 09:00-17:00","operator":"日本郵便","operator:en":"Japan Post","operator:ja":"日本郵便","operator:short":"郵便局","operator:short:en":"JP","operator:short:ja":"郵便局","operator:wikidata":"Q11509260","phone":"+81-18-845-1203","wikidata":"Q11423433","wikipedia":"ja:土崎郵便局"},"type":"node","ver":1},{"id":5289408034,"lat":39.7495721,"lon":140.0817332,"tags":{"amenity":"post_box","operator":"日本郵便","operator:en":"Japan Post","operator:ja":"日本郵便","operator:short":"郵便局","operator:short:en":"JP","operator:short:ja":"郵便局","operator:wikidata":"Q11509260","short_name:en":"JP"},"type":"node","ver":5},{"id":13472913414,"lat":39.7473693,"lon":140.0857071,"tags":{"addr:block_number":"8","addr:city":"秋田市","addr:housenumber":"20","addr:neighbourhood":"将軍野南4丁目","addr:postcode":"011-0936","addr:province":"秋田県","amenity":"post_office","name":"秋田将軍野郵便局","name:en":"Akita Shogunno Post Office","name:es":"Oficina de Correos de Akita Shogunno","name:ja":"秋田将軍野郵便局","name:ja-Hira":"あきた しょうぐんの ゆうびんきょく","name:pt":"Correio de Akita Shogunno","opening_hours":"Mo-Fr 09:00-17:00","operator":"日本郵便","operator:en":"Japan Post","operator:ja":"日本郵便","operator:short":"郵便局","operator:short:en":"JP","operator:short:ja":"郵便局","operator:wikidata":"Q11509260","phone":"+81-18-857-0380"},"type":"node","ver":1},{"id":7863589675,"lat":39.7585462,"lon":140.0734954,"tags":{"amenity":"post_box"},"type":"node","ver":1},{"id":11005765768,"lat":39.7580197,"lon":140.0767866,"tags":{"amenity":"post_box","operator":"日本郵便","operator:en":"Japan Post","operator:ja":"日本郵便","operator:short":"郵便局","operator:short:en":"JP","operator:short:ja":"郵便局","operator:wikidata":"Q11509260","ref":"011901","short_name":"郵便局","short_name:en":"JP","short_name:ja":"郵便局"},"type":"node","ver":2},{"id":13472913422,"lat":39.7587127,"lon":140.0844905,"tags":{"addr:block_number":"8","addr:city":"秋田市","addr:housenumber":"28","addr:neighbourhood":"将軍野東1丁目","addr:postcode":"011-0931","addr:province":"秋田県","amenity":"post_office","name":"土崎東郵便局","name:en":"Tsuchizakihigashi Post Office","name:es":"Oficina de Correos de Tsuchizakihigashi","name:ja":"土崎東郵便局","name:ja-Hira":"つちざきひがし ゆうびんきょく","name:pt":"Correio de Tsuchizakihigashi","opening_hours":"Mo-Fr 09:00-17:00","operator":"日本郵便","operator:en":"Japan Post","operator:ja":"日本郵便","operator:short":"郵便局","operator:short:en":"JP","operator:short:ja":"郵便局","operator:wikidata":"Q11509260","phone":"+81-18-857-0580"},"type":"node","ver":1},{"id":13472913421,"lat":39.7674249,"lon":140.0793306,"tags":{"addr:block_number":"2","addr:city":"秋田市","addr:housenumber":"1","addr:neighbourhood":"港北松野町","addr:postcode":"011-0926","addr:province":"秋田県","amenity":"post_office","name":"土崎港北簡易郵便局","name:en":"Tsuchizaki Kohoku Summary Post Office","name:es":"Oficina Simple de Correos de Tsuchizaki Kohoku","name:ja":"土崎港北簡易郵便局","name:ja-Hira":"つちざき こうほく かんいゆうびんきょく","opening_hours":"Mo-Fr 09:00-17:00","operator":"日本郵便","operator:en":"Japan Post","operator:ja":"日本郵便","operator:short":"郵便局","operator:short:en":"JP","operator:short:ja":"郵便局","operator:wikidata":"Q11509260","phone":"+81-18-845-2147"},"type":"node","ver":1},{"id":9811858216,"lat":39.769317,"lon":140.0851108,"tags":{"amenity":"post_box","operator":"日本郵便","operator:en":"Japan Post","operator:ja":"日本郵便","operator:wikidata":"Q11509260","short_name:en":"JP"},"type":"node","ver":1},{"id":13472913417,"lat":39.7709502,"lon":140.0696555,"tags":{"addr:block_number":"8","addr:city":"秋田市","addr:housenumber":"56","addr:neighbourhood":"土崎港北7丁目","addr:postcode":"011-0941","addr:province":"秋田県","amenity":"post_office","name":"飯島郵便局","name:en":"Iijima Post Office","name:es":"Oficina de Correos de Iijima","name:ja":"飯島郵便局","name:ja-Hira":"いいじま ゆうびんきょく","name:pt":"Correio de Iijima","opening_hours":"Mo-Fr 09:00-17:00","operator":"日本郵便","operator:en":"Japan Post","operator:ja":"日本郵便","operator:short":"郵便局","operator:short:en":"JP","operator:short:ja":"郵便局","operator:wikidata":"Q11509260","phone":"+81-18-857-0480"},"type":"node","ver":1},{"id":5291090844,"lat":39.7794848,"lon":140.0682787,"tags":{"amenity":"post_office","name":"飯島駅前簡易郵便局"},"type":"node","ver":2},{"id":5504784359,"lat":39.8085253,"lon":140.0559175,"tags":{"addr:block_number":"273","addr:city":"秋田市","addr:neighbourhood":"金足追分海老穴","addr:postcode":"010-0199","addr:province":"秋田県","amenity":"post_office","name":"追分郵便局","name:en":"Oiwake Post Office","name:es":"Oficina de Correos de Oiwake","name:ja":"追分郵便局","name:ja-Hira":"おいわけ ゆうびんきょく","name:pt":"Correio de Oiwake","opening_hours":"Mo-Fr 09:00-17:00","operator":"日本郵便","operator:en":"Japan Post","operator:ja":"日本郵便","operator:short":"郵便局","operator:short:en":"JP","operator:short:ja":"郵便局","operator:wikidata":"Q11509260","phone":"+81-18-873-2511","wikidata":"Q11639238","wikipedia":"ja:追分郵便局 (秋田県)"},"type":"node","ver":4},{"id":13472913419,"lat":39.7982153,"lon":140.0779862,"tags":{"addr:block_number":"101","addr:city":"秋田市","addr:housenumber":"4","addr:neighbourhood":"下新城笠岡笠岡","addr:postcode":"010-0145","addr:province":"秋田県","amenity":"post_office","name":"下新城簡易郵便局","name:en":"Shimoshinjo Summary Post Office","name:es":"Oficina Simple de Correos de Shimoshinjo","name:ja":"下新城簡易郵便局","name:ja-Hira":"しもしんじょう かんいゆうびんきょく","opening_hours":"Mo-Fr 09:00-17:00","operator":"日本郵便","operator:en":"Japan Post","operator:ja":"日本郵便","operator:short":"郵便局","operator:short:en":"JP","operator:short:ja":"郵便局","operator:wikidata":"Q11509260","phone":"+81-18-873-3190","short_name":"郵便局","short_name:en":"JP","short_name:ja":"郵便局"},"type":"node","ver":1},{"id":5500286621,"lat":39.8436522,"lon":140.0216289,"tags":{"addr:block_number":"258","addr:city":"潟上市","addr:housenumber":"3","addr:neighbourhood":"天王北野","addr:postcode":"010-0201","addr:province":"秋田県","amenity":"post_office","name":"出戸浜簡易郵便局","name:en":"Detohama Summary Post Office","name:es":"Oficina Simple de Correos de Detohama","name:ja":"出戸浜簡易郵便局","name:ja-Hira":"でとはま かんいゆうびんきょく","opening_hours":"Mo-Fr 09:00-17:00","operator":"日本郵便","operator:en":"Japan Post","operator:ja":"日本郵便","operator:short":"郵便局","operator:short:en":"JP","operator:short:ja":"郵便局","operator:wikidata":"Q11509260","phone":"+81-18-878-3332"},"type":"node","ver":3},{"id":5504775248,"lat":39.8175728,"lon":140.0465941,"tags":{"addr:block_number":"129","addr:city":"潟上市","addr:housenumber":"8","addr:neighbourhood":"天王上北野","addr:postcode":"010-0101","addr:province":"秋田県","amenity":"post_office","name":"上北野簡易郵便局","name:en":"Kamikitano Summary Post Office","name:es":"Oficina Simple de Correos de Kamikitano","name:ja":"上北野簡易郵便局","name:ja-Hira":"かみきたの かんいゆうびんきょく","opening_hours":"Mo-Fr 09:00-17:00","operator":"日本郵便","operator:en":"Japan Post","operator:ja":"日本郵便","operator:short":"郵便局","operator:short:en":"JP","operator:short:ja":"郵便局","operator:wikidata":"Q11509260","phone":"+81-18-873-4738"},"type":"node","ver":3},{"id":13472913418,"lat":39.815686,"lon":140.0870592,"tags":{"addr:block_number":"167","addr:city":"秋田市","addr:housenumber":"1","addr:neighbourhood":"金足片田鴪坂","addr:postcode":"010-0123","addr:province":"秋田県","amenity":"post_office","name":"金足片田簡易郵便局","name:en":"Kanaashi Katada Summary Post Office","name:es":"Oficina Simple de Correos de Kanaashi Katada","name:ja":"金足片田簡易郵便局","name:ja-Hira":"かなあし かただ かんいゆうびんきょく","opening_hours":"Mo-Fr 09:00-17:00","operator":"日本郵便","operator:en":"Japan Post","operator:ja":"日本郵便","operator:short":"郵便局","operator:short:en":"JP","operator:short:ja":"郵便局","operator:wikidata":"Q11509260","phone":"+81-18-873-7710","short_name":"郵便局","short_name:en":"JP","short_name:ja":"郵便局"},"type":"node","ver":1},{"id":9811860984,"lat":39.8191725,"lon":140.0860468,"tags":{"amenity":"post_box","operator":"日本郵便","operator:en":"Japan Post","operator:ja":"日本郵便","operator:wikidata":"Q11509260","short_name:en":"JP"},"type":"node","ver":1},{"id":9811860971,"lat":39.826864,"lon":140.0785678,"tags":{"amenity":"post_box","operator":"日本郵便","operator:en":"Japan Post","operator:ja":"日本郵便","operator:wikidata":"Q11509260","short_name:en":"JP"},"type":"node","ver":1},{"id":9811860951,"lat":39.848894,"lon":140.0667734,"tags":{"amenity":"post_box","operator":"日本郵便","operator:en":"Japan Post","operator:ja":"日本郵便","operator:wikidata":"Q11509260","short_name:en":"JP"},"type":"node","ver":1},{"id":1211888776,"lat":39.1042399,"lon":140.2899356,"tags":{"addr:block_number":"15","addr:city":"由利本荘市","addr:housenumber":"1","addr:neighbourhood":"鳥海町上笹子町","addr:postcode":"015-0799","addr:province":"秋田県","amenity":"post_office","name":"笹子郵便局","name:en":"Jinego Post Office","name:es":"Oficina de Correos de Jinego","name:ja":"笹子郵便局","name:ja-Hira":"じねご ゆうびんきょく","name:ja_rm":"Jinego Yūbinkyoku","name:pt":"Correio de Jinego","opening_hours":"Mo-Fr 09:00-17:00","operator":"日本郵便","operator:en":"Japan Post","operator:ja":"日本郵便","operator:short":"郵便局","operator:short:en":"JP","operator:short:ja":"郵便局","operator:wikidata":"Q11509260","phone":"+81-184-59-2353"},"type":"node","ver":9},{"id":1336868753,"lat":39.108123,"lon":140.2908749,"tags":{"amenity":"post_box"},"type":"node","ver":2},{"id":1347675410,"lat":39.1049658,"lon":140.2909176,"tags":{"amenity":"post_box"},"type":"node","ver":1},{"id":1336868743,"lat":39.1149244,"lon":140.2884159,"tags":{"amenity":"post_box"},"type":"node","ver":1},{"id":1336868735,"lat":39.1238778,"lon":140.2808956,"tags":{"amenity":"post_box"},"type":"node","ver":1},{"id":1211889821,"lat":39.1491807,"lon":140.1720989,"tags":{"addr:block_number":"35","addr:city":"由利本荘市","addr:housenumber":"2","addr:neighbourhood":"鳥海町中直根中山","addr:postcode":"015-0514","addr:province":"秋田県","amenity":"post_office","name":"直根郵便局","name:en":"Hitane Post Office","name:es":"Oficina de Correos de Hitane","name:ja":"直根郵便局","name:ja-Hira":"ひたね ゆうびんきょく","name:pt":"Correio de Hitane","opening_hours":"Mo-Fr 09:00-17:00","operator":"日本郵便","operator:en":"Japan Post","operator:ja":"日本郵便","operator:short":"郵便局","operator:short:en":"JP","operator:short:ja":"郵便局","operator:wikidata":"Q11509260","phone":"+81-184-58-2360"},"type":"node","ver":7},{"id":1347675393,"lat":39.1616954,"lon":140.1616119,"tags":{"amenity":"post_box"},"type":"node","ver":1},{"id":1336835556,"lat":39.2252577,"lon":140.1388502,"tags":{"amenity":"post_box"},"type":"node","ver":2},{"id":1211888854,"lat":39.2284937,"lon":140.1335881,"tags":{"addr:block_number":"100","addr:city":"由利本荘市","addr:housenumber":"2","addr:neighbourhood":"矢島町田中町","addr:postcode":"015-0499","addr:province":"秋田県","amenity":"post_office","name":"矢島郵便局","name:en":"Yashima Post Office","name:es":"Oficina de Correos de Yashima","name:ja":"矢島郵便局","name:ja-Hira":"やしまゆうびんきょく","name:ja_rm":"Yashima Yubinkyoku","name:pt":"Correio de Yashima","opening_hours":"Mo-Fr 09:00-17:00","operator":"日本郵便","operator:en":"Japan Post","operator:ja":"日本郵便","operator:short":"郵便局","operator:short:en":"JP","operator:short:ja":"郵便局","operator:wikidata":"Q11509260","phone":"+81-184-56-2405","wikidata":"Q97311007","wikipedia":"ja:矢島郵便局"},"type":"node","ver":8},{"id":1872304050,"lat":39.2301856,"lon":140.1388957,"tags":{"amenity":"post_box","source":"image;Bing,2011-07-20"},"type":"node","ver":2},{"id":1211888825,"lat":39.1930153,"lon":140.1924452,"tags":{"addr:block_number":"9","addr:city":"由利本荘市","addr:housenumber":"4","addr:neighbourhood":"鳥海町伏見久保","addr:postcode":"015-0599","addr:province":"秋田県","amenity":"post_office","name":"鳥海郵便局","name:en":"Chokai Post Office","name:es":"Oficina de Correos de Chokai","name:ja":"鳥海郵便局","name:ja-Hira":"ちょうかい ゆうびんきょく","name:pt":"Correio de Chokai","opening_hours":"Mo-Fr 09:00-17:00","operator":"日本郵便","operator:en":"Japan Post","operator:ja":"日本郵便","operator:short":"郵便局","operator:short:en":"JP","operator:short:ja":"郵便局","operator:wikidata":"Q11509260","phone":"+81-184-57-2310"},"type":"node","ver":9},{"id":1336852130,"lat":39.1940031,"lon":140.1902285,"tags":{"amenity":"post_box"},"type":"node","ver":2},{"id":1336852141,"lat":39.1951475,"lon":140.1910004,"tags":{"amenity":"post_box"},"type":"node","ver":1},{"id":1336852126,"lat":39.2039139,"lon":140.1905234,"tags":{"amenity":"post_box"},"type":"node","ver":2},{"id":1336841256,"lat":39.2294524,"lon":140.146,"tags":{"amenity":"post_box"},"type":"node","ver":1},{"id":1336852127,"lat":39.2136866,"lon":140.1883343,"tags":{"amenity":"post_box"},"type":"node","ver":1},{"id":1333458252,"lat":39.132153,"lon":140.2749851,"tags":{"amenity":"post_box"},"type":"node","ver":1},{"id":13457492688,"lat":39.0504164,"lon":140.4195133,"tags":{"addr:block_number":"119","addr:city":"湯沢市","addr:housenumber":"3","addr:neighbourhood":"下院内常盤町","addr:postcode":"019-0112","addr:province":"秋田県","amenity":"post_office","name":"院内郵便局","name:en":"Innai Post Office","name:es":"Oficina de Correos de Innai","name:ja":"院内郵便局","name:ja-Hira":"いんない ゆうびんきょく","name:pt":"Correio de Innai","opening_hours":"Mo-Fr 09:00-17:00","operator":"日本郵便","operator:en":"Japan Post","operator:ja":"日本郵便","operator:short":"郵便局","operator:short:en":"JP","operator:short:ja":"郵便局","operator:wikidata":"Q11509260","phone":"+81-183-52-2259"},"type":"node","ver":1},{"id":13457492689,"lat":39.064171,"lon":140.4550153,"tags":{"addr:block_number":"85","addr:city":"湯沢市","addr:housenumber":"1","addr:neighbourhood":"小野東堺","addr:postcode":"019-0299","addr:province":"秋田県","amenity":"post_office","name":"横堀郵便局","name:en":"Yokobori Post Office","name:es":"Oficina de Correos de Yokobori","name:ja":"横堀郵便局","name:ja-Hira":"よこぼり ゆうびんきょく","name:pt":"Correio de Yokobori","opening_hours":"Mo-Fr 09:00-17:00","operator":"日本郵便","operator:en":"Japan Post","operator:ja":"日本郵便","operator:short":"郵便局","operator:short:en":"JP","operator:short:ja":"郵便局","operator:wikidata":"Q11509260","phone":"+81-183-52-2460"},"type":"node","ver":1},{"id":13810990233,"lat":39.0647673,"lon":140.4604125,"tags":{"amenity":"post_box","operator":"日本郵便","operator:en":"Japan Post","operator:ja":"日本郵便","operator:short":"郵便局","operator:short:en":"JP","operator:short:ja":"郵便局","operator:wikidata":"Q11509260"},"type":"node","ver":1},{"id":13457492690,"lat":39.078869,"lon":140.464024,"tags":{"addr:block_number":"122","addr:city":"湯沢市","addr:housenumber":"1","addr:neighbourhood":"小野東水口","addr:postcode":"019-0205","addr:province":"秋田県","amenity":"post_office","name":"羽後小野簡易郵便局","name:en":"Ugo Ono Summary Post Office","name:es":"Oficina Simple de Correos de Ugo Ono","name:ja":"羽後小野簡易郵便局","name:ja-Hira":"うご おの かんいゆうびんきょく","opening_hours":"Mo-Fr 09:00-17:00","operator":"日本郵便","operator:en":"Japan Post","operator:ja":"日本郵便","operator:short":"郵便局","operator:short:en":"JP","operator:short:ja":"郵便局","operator:wikidata":"Q11509260","phone":"+81-183-52-2502"},"type":"node","ver":1},{"id":13457492698,"lat":39.0913424,"lon":140.4780714,"tags":{"addr:block_number":"62","addr:city":"湯沢市","addr:housenumber":"3","addr:neighbourhood":"相川須川","addr:postcode":"019-0402","addr:province":"秋田県","amenity":"post_office","name":"須川郵便局","name:en":"Sukawa Post Office","name:es":"Oficina de Correos de Sukawa","name:ja":"須川郵便局","name:ja-Hira":"すかわ ゆうびんきょく","name:pt":"Correio de Sukawa","opening_hours":"Mo-Fr 09:00-17:00","operator":"日本郵便","operator:en":"Japan Post","operator:ja":"日本郵便","operator:short":"郵便局","operator:short:en":"JP","operator:short:ja":"郵便局","operator:wikidata":"Q11509260","phone":"+81-183-79-2555"},"type":"node","ver":1},{"id":13457492699,"lat":39.1112657,"lon":140.4799343,"tags":{"addr:block_number":"13","addr:city":"湯沢市","addr:neighbourhood":"上関上関","addr:postcode":"012-0864","addr:province":"秋田県","amenity":"post_office","name":"湯沢上関簡易郵便局","name:en":"Yuzawa Kamiseki Summary Post Office","name:es":"Oficina Simple de Correos de Yuzawa","name:ja":"湯沢上関簡易郵便局","name:ja-Hira":"ゆざわ かみせき かんいゆうびんきょく","opening_hours":"Mo-Fr 09:00-17:00","operator":"日本郵便","operator:en":"Japan Post","operator:ja":"日本郵便","operator:short":"郵便局","operator:short:en":"JP","operator:short:ja":"郵便局","operator:wikidata":"Q11509260","phone":"+81-183-79-3150"},"type":"node","ver":1},{"id":13455572995,"lat":39.1639699,"lon":140.3170498,"tags":{"addr:block_number":"66","addr:city":"羽後町","addr:county":"雄勝郡","addr:housenumber":"8","addr:neighbourhood":"中仙道堀内","addr:postcode":"012-1352","addr:province":"秋田県","amenity":"post_office","name":"仙道郵便局","name:en":"Sendo Post Office","name:es":"Oficina de Correos de Sendo","name:ja":"仙道郵便局","name:ja-Hira":"せんどう ゆうびんきょく","name:pt":"Correio de Sendo","opening_hours":"Mo-Fr 09:00-17:00","operator":"日本郵便","operator:en":"Japan Post","operator:ja":"日本郵便","operator:short":"郵便局","operator:short:en":"JP","operator:short:ja":"郵便局","operator:wikidata":"Q11509260","phone":"+81-183-68-2200"},"type":"node","ver":1},{"id":13455572994,"lat":39.205302,"lon":140.3122123,"tags":{"addr:block_number":"71","addr:city":"羽後町","addr:county":"雄勝郡","addr:housenumber":"2","addr:neighbourhood":"田代梺","addr:postcode":"012-1299","addr:province":"秋田県","amenity":"post_office","name":"田代郵便局","name:en":"Tashiro Post Office","name:es":"Oficina de Correos de Tashiro","name:ja":"田代郵便局","name:ja-Hira":"たしろ ゆうびんきょく","name:pt":"Correio de Tashiro","opening_hours":"Mo-Fr 09:00-17:00","operator":"日本郵便","operator:en":"Japan Post","operator:ja":"日本郵便","operator:short":"郵便局","operator:short:en":"JP","operator:short:ja":"郵便局","operator:wikidata":"Q11509260","phone":"+81-183-67-2350"},"type":"node","ver":1},{"id":13455572990,"lat":39.1924773,"lon":140.3799668,"tags":{"addr:block_number":"1","addr:city":"羽後町","addr:county":"雄勝郡","addr:housenumber":"3","addr:neighbourhood":"南元西","addr:postcode":"012-1100","addr:province":"秋田県","amenity":"post_office","name":"元西郵便局","name:en":"Motonishi Post Office","name:es":"Oficina de Correos de Motonishi","name:ja":"元西郵便局","name:ja-Hira":"もとにし ゆうびんきょく","name:pt":"Correio de Motonishi","opening_hours":"Mo-Fr 09:00-17:00","operator":"日本郵便","operator:en":"Japan Post","operator:ja":"日本郵便","operator:short":"郵便局","operator:short:en":"JP","operator:short:ja":"郵便局","operator:wikidata":"Q11509260","phone":"+81-183-62-1080"},"type":"node","ver":1},{"id":7184711158,"lat":39.1999965,"lon":140.4008472,"tags":{"addr:block_number":"63","addr:city":"羽後町","addr:county":"雄勝郡","addr:neighbourhood":"西馬音内宮廻","addr:postcode":"012-1199","addr:province":"秋田県","amenity":"post_office","name":"西馬音内郵便局","name:en":"Nishimonai Post Office","name:es":"Oficina de Correos de Nishimonai","name:ja":"西馬音内郵便局","name:ja-Hira":"にしもない ゆうびんきょく","name:pt":"Correio de Nishimonai","opening_hours":"Mo-Fr 09:00-17:00","operator":"日本郵便","operator:en":"Japan Post","operator:ja":"日本郵便","operator:short":"郵便局","operator:short:en":"JP","operator:short:ja":"郵便局","operator:wikidata":"Q11509260","phone":"+81-183-62-2093"},"type":"node","ver":2},{"id":7260288764,"lat":39.1494941,"lon":140.4412474,"tags":{"addr:block_number":"82","addr:city":"湯沢市","addr:neighbourhood":"松岡外堀","addr:postcode":"012-0061","addr:province":"秋田県","amenity":"post_office","name":"湯沢松岡簡易郵便局","name:en":"Yuzawa Matsuoka Summary Post Office","name:es":"Oficina Simple de Correos de Yuzawa Matsuoka","name:ja":"湯沢松岡簡易郵便局","name:ja-Hira":"ゆざわ まつおか かんいゆうびんきょく","opening_hours":"Mo-Fr 09:00-17:00","operator":"日本郵便","operator:en":"Japan Post","operator:ja":"日本郵便","operator:short":"郵便局","operator:short:en":"JP","operator:short:ja":"郵便局","operator:wikidata":"Q11509260","phone":"+81-183-73-3011"},"type":"node","ver":2},{"id":13457507601,"lat":39.1523415,"lon":140.4587928,"tags":{"addr:block_number":"36","addr:city":"湯沢市","addr:housenumber":"2","addr:neighbourhood":"山田中屋敷","addr:postcode":"012-0055","addr:province":"秋田県","amenity":"post_office","name":"羽後山田郵便局","name:en":"Ugo Yamada Post Office","name:es":"Oficina de Correos de Ugo Yamada","name:ja":"羽後山田郵便局","name:ja-Hira":"うご やまだ ゆうびんきょく","name:pt":"Correio de Ugo Yamada","opening_hours":"Mo-Fr 09:00-17:00","operator":"日本郵便","operator:en":"Japan Post","operator:ja":"日本郵便","operator:short":"郵便局","operator:short:en":"JP","operator:short:ja":"郵便局","operator:wikidata":"Q11509260","phone":"+81-183-73-5223"},"type":"node","ver":1},{"id":13457492700,"lat":39.1348194,"lon":140.4881155,"tags":{"addr:block_number":"39","addr:city":"湯沢市","addr:housenumber":"4","addr:neighbourhood":"関口関口","addr:postcode":"012-0862","addr:province":"秋田県","amenity":"post_office","name":"三関郵便局","name:en":"Mitsuseki Post Office","name:es":"Oficina de Correos de Mitsuseki","name:ja":"三関郵便局","name:ja-Hira":"みつせき ゆうびんきょく","name:pt":"Correio de Mitsuseki","opening_hours":"Mo-Fr 09:00-17:00","operator":"日本郵便","operator:en":"Japan Post","operator:ja":"日本郵便","operator:short":"郵便局","operator:short:en":"JP","operator:short:ja":"郵便局","operator:wikidata":"Q11509260","phone":"+81-183-73-5221"},"type":"node","ver":1},{"id":5203695536,"lat":39.1578374,"lon":140.4919891,"tags":{"addr:block_number":"5","addr:city":"湯沢市","addr:housenumber":"2","addr:neighbourhood":"田町2丁目","addr:postcode":"012-0844","addr:province":"秋田県","amenity":"post_office","name":"湯沢田町郵便局","name:en":"Yuzawa Tamachi Post Office","name:es":"Oficina de Correos de Yuzawa Tamachi","name:ja":"湯沢田町郵便局","name:ja-Hira":"ゆざわ たまち ゆうびんきょく","name:pt":"Correio de Yuzawa Tamachi","opening_hours":"Mo-Fr 09:00-17:00","operator":"日本郵便","operator:en":"Japan Post","operator:ja":"日本郵便","operator:short":"郵便局","operator:short:en":"JP","operator:short:ja":"郵便局","operator:wikidata":"Q11509260","phone":"+81-183-73-5225"},"type":"node","ver":2},{"id":5199457622,"lat":39.1642297,"lon":140.4855985,"tags":{"addr:block_number":"7","addr:city":"湯沢市","addr:housenumber":"15","addr:neighbourhood":"西新町","addr:postcode":"012-0034","addr:province":"秋田県","amenity":"post_office","name":"湯沢清水町郵便局","name:en":"Yuzawa Shimizucho Post Office","name:es":"Oficina de Correos de Yuzawa Shimizucho","name:ja":"湯沢清水町郵便局","name:ja-Hira":"ゆざわ しみずちょう ゆうびんきょく","name:pt":"Correio de Yuzawa Shimizucho","opening_hours":"Mo-Fr 09:00-17:00","operator":"日本郵便","operator:en":"Japan Post","operator:ja":"日本郵便","operator:short":"郵便局","operator:short:en":"JP","operator:short:ja":"郵便局","operator:wikidata":"Q11509260","phone":"+81-183-73-7119"},"type":"node","ver":2},{"id":5199886423,"lat":39.162488,"lon":140.4893781,"tags":{"addr:block_number":"1","addr:city":"湯沢市","addr:housenumber":"36","addr:neighbourhood":"材木町1丁目","addr:postcode":"012-8799","addr:province":"秋田県","amenity":"post_office","name":"湯沢郵便局","name:en":"Yuzawa Post Office","name:es":"Oficina de Correos de Yuzawa","name:ja":"湯沢郵便局","name:ja-Hira":"ゆざわ ゆうびんきょく","name:pt":"Correio de Yuzawa","opening_hours":"Mo-Fr 09:00-17:00","operator":"日本郵便","operator:en":"Japan Post","operator:ja":"日本郵便","operator:short":"郵便局","operator:short:en":"JP","operator:short:ja":"郵便局","operator:wikidata":"Q11509260","phone":"+81-800-0800-111","wikidata":"Q11563650","wikipedia":"ja:湯沢郵便局"},"type":"node","ver":5},{"id":11767889899,"lat":39.1637678,"lon":140.4950326,"tags":{"amenity":"post_box"},"type":"node","ver":1},{"id":11767961917,"lat":39.1655725,"lon":140.4915869,"tags":{"amenity":"post_box"},"type":"node","ver":1},{"id":13457507602,"lat":39.1669077,"lon":140.492367,"tags":{"addr:block_number":"2","addr:city":"湯沢市","addr:housenumber":"35","addr:neighbourhood":"柳町2丁目","addr:postcode":"012-0826","addr:province":"秋田県","amenity":"post_office","name":"湯沢前森町郵便局","name:en":"Yuzawa Maemorimachi Post Office","name:es":"Oficina de Correos de Yuzawa Maemorimachi","name:ja":"湯沢前森町郵便局","name:ja-Hira":"ゆざわ まえもりまち ゆうびんきょく","name:pt":"Correio de Yuzawa Maemorimachi","opening_hours":"Mo-Fr 09:00-17:00","operator":"日本郵便","operator:en":"Japan Post","operator:ja":"日本郵便","operator:short":"郵便局","operator:short:en":"JP","operator:short:ja":"郵便局","operator:wikidata":"Q11509260","phone":"+81-183-73-5220"},"type":"node","ver":1},{"id":5203690633,"lat":39.1646487,"lon":140.5032381,"tags":{"addr:block_number":"207","addr:city":"湯沢市","addr:housenumber":"5","addr:neighbourhood":"裏門1丁目","addr:postcode":"012-0824","addr:province":"秋田県","amenity":"post_office","name":"湯沢湯の原簡易郵便局","name:en":"Yuzawa Yunohara Summary Post Office","name:es":"Oficina Simple de Correos de Yuzawa Yunohara","name:ja":"湯沢湯の原簡易郵便局","name:ja-Hira":"ゆざわ ゆのはら かんいゆうびんきょく","opening_hours":"Mo-Fr 09:00-17:00","operator":"日本郵便","operator:en":"Japan Post","operator:ja":"日本郵便","operator:short":"郵便局","operator:short:en":"JP","operator:short:ja":"郵便局","operator:wikidata":"Q11509260","phone":"+81-183-72-6635"},"type":"node","ver":2},{"id":7184719021,"lat":39.1998406,"lon":140.408804,"tags":{"amenity":"post_office","name":"川原田簡易郵便局"},"type":"node","ver":1},{"id":7185936745,"lat":39.1989023,"lon":140.4265368,"tags":{"amenity":"post_office","name":"杉宮簡易郵便局"},"type":"node","ver":1},{"id":10550643225,"lat":39.1949782,"lon":140.4384291,"tags":{"amenity":"post_box","operator":"日本郵便","operator:en":"Japan Post","operator:ja":"日本郵便","operator:wikidata":"Q11509260","short_name":"郵便局","short_name:en":"JP","short_name:ja":"郵便局"},"type":"node","ver":1},{"id":13455572991,"lat":39.195033,"lon":140.4385884,"tags":{"addr:block_number":"3","addr:city":"羽後町","addr:county":"雄勝郡","addr:housenumber":"3","addr:neighbourhood":"貝沢拾三本塚","addr:postcode":"012-1123","addr:province":"秋田県","amenity":"post_office","name":"三輪郵便局","name:en":"Miwa Post Office","name:es":"Oficina de Correos de Miwa","name:ja":"三輪郵便局","name:ja-Hira":"みわ ゆうびんきょく","name:pt":"Correio de Miwa","opening_hours":"Mo-Fr 09:00-17:00","operator":"日本郵便","operator:en":"Japan Post","operator:ja":"日本郵便","operator:short":"郵便局","operator:short:en":"JP","operator:short:ja":"郵便局","operator:wikidata":"Q11509260","phone":"+81-183-62-1081","short_name":"郵便局","short_name:en":"JP","short_name:ja":"郵便局"},"type":"node","ver":1},{"id":10550623906,"lat":39.2230104,"lon":140.4111925,"tags":{"amenity":"post_box","operator":"日本郵便","operator:en":"Japan Post","operator:ja":"日本郵便","operator:wikidata":"Q11509260","short_name":"郵便局","short_name:en":"JP","short_name:ja":"郵便局"},"type":"node","ver":1},{"id":13455572992,"lat":39.2230559,"lon":140.4111406,"tags":{"addr:block_number":"29","addr:city":"羽後町","addr:county":"雄勝郡","addr:housenumber":"3","addr:neighbourhood":"足田古堤下","addr:postcode":"012-1115","addr:province":"秋田県","amenity":"post_office","name":"新成簡易郵便局","name:en":"Niinari Summary Post Office","name:es":"Oficina Simple de Correos de Niinari","name:ja":"新成簡易郵便局","name:ja-Hira":"にいなり かんいゆうびんきょく","opening_hours":"Mo-Fr 09:00-17:00","operator":"日本郵便","operator:en":"Japan Post","operator:ja":"日本郵便","operator:short":"郵便局","operator:short:en":"JP","operator:short:ja":"郵便局","operator:wikidata":"Q11509260","phone":"+81-183-62-3130","short_name":"郵便局","short_name:en":"JP","short_name:ja":"郵便局"},"type":"node","ver":1},{"id":10550643218,"lat":39.2300841,"lon":140.4488086,"tags":{"amenity":"post_box","operator":"日本郵便","operator:en":"Japan Post","operator:ja":"日本郵便","operator:wikidata":"Q11509260","short_name":"郵便局","short_name:en":"JP","short_name:ja":"郵便局"},"type":"node","ver":1},{"id":11890801543,"lat":39.2301176,"lon":140.4488606,"tags":{"addr:block_number":"1","addr:city":"横手市","addr:housenumber":"9","addr:neighbourhood":"十文字町睦合宿屋布","addr:postcode":"019-0514","addr:province":"秋田県","amenity":"post_office","name":"睦合簡易郵便局","name:en":"Mutsuai Summary Post Office","name:es":"Oficina Simple de Correos de Mutsuai","name:ja":"睦合簡易郵便局","name:ja-Hira":"むつあい かんいゆうびんきょく","opening_hours":"Mo-Fr 09:00-17:00","operator":"日本郵便","operator:en":"Japan Post","operator:ja":"日本郵便","operator:short":"郵便局","operator:short:en":"JP","operator:short:ja":"郵便局","operator:wikidata":"Q11509260","phone":"+81-182-44-3877"},"type":"node","ver":2},{"id":13457507603,"lat":39.1875456,"lon":140.4640697,"tags":{"addr:block_number":"123","addr:city":"湯沢市","addr:neighbourhood":"金谷樋口","addr:postcode":"012-0005","addr:province":"秋田県","amenity":"post_office","name":"幡野簡易郵便局","name:en":"Hatano Summary Post Office","name:es":"Oficina Simple de Correos de Hatano","name:ja":"幡野簡易郵便局","name:ja-Hira":"はたの かんいゆうびんきょく","opening_hours":"Mo-Fr 09:00-17:00","operator":"日本郵便","operator:en":"Japan Post","operator:ja":"日本郵便","operator:short":"郵便局","operator:short:en":"JP","operator:short:ja":"郵便局","operator:wikidata":"Q11509260","phone":"+81-183-73-0830"},"type":"node","ver":1},{"id":13457507604,"lat":39.1897851,"lon":140.4813666,"tags":{"addr:block_number":"107","addr:city":"湯沢市","addr:housenumber":"5","addr:neighbourhood":"森嶽ノ下","addr:postcode":"012-0011","addr:province":"秋田県","amenity":"post_office","name":"湯沢弁天郵便局","name:en":"Yuzawa Benten Post Office","name:es":"Oficina de Correos de Yuzawa Benten","name:ja":"湯沢弁天郵便局","name:ja-Hira":"ゆざわ べんてん ゆうびんきょく","name:pt":"Correio de Yuzawa Benten","opening_hours":"Mo-Fr 09:00-17:00","operator":"日本郵便","operator:en":"Japan Post","operator:ja":"日本郵便","operator:short":"郵便局","operator:short:en":"JP","operator:short:ja":"郵便局","operator:wikidata":"Q11509260","phone":"+81-183-73-5222"},"type":"node","ver":1},{"id":5201472143,"lat":39.2033215,"lon":140.5079758,"tags":{"addr:block_number":"210","addr:city":"湯沢市","addr:housenumber":"1","addr:neighbourhood":"岩崎岩崎","addr:postcode":"012-0801","addr:province":"秋田県","amenity":"post_office","name":"岩崎郵便局","name:en":"Iwasaki Post Office","name:es":"Oficina de Correos de Iwasaki","name:ja":"岩崎郵便局","name:ja-Hira":"いわさき ゆうびんきょく","name:pt":"Correio de Iwasaki","opening_hours":"Mo-Fr 09:00-17:00","operator":"日本郵便","operator:en":"Japan Post","operator:ja":"日本郵便","operator:short":"郵便局","operator:short:en":"JP","operator:short:ja":"郵便局","operator:wikidata":"Q11509260","phone":"+81-183-73-5224"},"type":"node","ver":3},{"id":11473140178,"lat":39.2262264,"lon":140.4684435,"tags":{"amenity":"post_box"},"type":"node","ver":1},{"id":13459628190,"lat":39.2317292,"lon":140.471491,"tags":{"addr:block_number":"55","addr:city":"横手市","addr:housenumber":"2","addr:neighbourhood":"十文字町植田植田","addr:postcode":"019-0513","addr:province":"秋田県","amenity":"post_office","name":"羽後植田郵便局","name:en":"Ugo Ueda Post Office","name:es":"Oficina de Correos de Ugo Ueda","name:ja":"羽後植田郵便局","name:ja-Hira":"うご うえだ ゆうびんきょく","name:pt":"Correio de Ugo Ueda","opening_hours":"Mo-Fr 09:00-17:00","operator":"日本郵便","operator:en":"Japan Post","operator:ja":"日本郵便","operator:short":"郵便局","operator:short:en":"JP","operator:short:ja":"郵便局","operator:wikidata":"Q11509260","phone":"+81-182-44-3350","short_name":"郵便局","short_name:en":"JP","short_name:ja":"郵便局"},"type":"node","ver":1},{"id":1349168794,"lat":39.267367,"lon":140.1132167,"tags":{"amenity":"post_box"},"type":"node","ver":1},{"id":3611520415,"lat":39.2680442,"lon":140.1110404,"tags":{"addr:block_number":"26","addr:city":"由利本荘市","addr:neighbourhood":"吉沢吉沢後田","addr:postcode":"015-0324","addr:province":"秋田県","amenity":"post_office","name":"吉沢簡易郵便局","name:en":"Yoshizawa Summary Post Office","name:es":"Oficina Simple de Correos de Yoshizawa","name:ja":"吉沢簡易郵便局","name:ja-Hira":"よしざわ かんいゆうびんきょく","opening_hours":"Mo-Fr 09:00-17:00","operator":"日本郵便","operator:en":"Japan Post","operator:ja":"日本郵便","operator:short":"郵便局","operator:short:en":"JP","operator:short:ja":"郵便局","operator:wikidata":"Q11509260","phone":"+81-184-53-3935"},"type":"node","ver":2},{"id":1349713427,"lat":39.2771805,"lon":140.1150088,"tags":{"amenity":"post_box"},"type":"node","ver":1},{"id":3611520413,"lat":39.2815056,"lon":140.1145496,"tags":{"addr:block_number":"55","addr:city":"由利本荘市","addr:housenumber":"3","addr:neighbourhood":"山本下野","addr:postcode":"015-0333","addr:province":"秋田県","amenity":"post_office","name":"西滝沢郵便局","name:en":"Nishitakizawa Post Office","name:es":"Oficina de Correos de Nishitakizawa","name:ja":"西滝沢郵便局","name:ja-Hira":"にしたきざわ ゆうびんきょく","name:pt":"Correio de Nishitakizawa","opening_hours":"Mo-Fr 09:00-17:00","operator":"日本郵便","operator:en":"Japan Post","operator:ja":"日本郵便","operator:short":"郵便局","operator:short:en":"JP","operator:short:ja":"郵便局","operator:wikidata":"Q11509260","phone":"+81-184-53-3061"},"type":"node","ver":2},{"id":1349168676,"lat":39.2861303,"lon":140.1098789,"tags":{"amenity":"post_box"},"type":"node","ver":2},{"id":5183029243,"lat":39.3163885,"lon":140.103264,"tags":{"addr:block_number":"37","addr:city":"由利本荘市","addr:housenumber":"1","addr:neighbourhood":"前郷堤下いかり","addr:postcode":"015-0399","addr:province":"秋田県","amenity":"post_office","name":"由利郵便局","name:en":"Yuri Post Office","name:es":"Oficina de Correos de Yuri","name:ja":"由利郵便局","name:ja-Hira":"ゆり ゆうびんきょく","name:pt":"Correio de Yuri","opening_hours":"Mo-Fr 09:00-17:00","operator":"日本郵便","operator:en":"Japan Post","operator:ja":"日本郵便","operator:short":"郵便局","operator:short:en":"JP","operator:short:ja":"郵便局","operator:wikidata":"Q11509260","phone":"+81-184-53-4060","wikidata":"Q97310877","wikipedia":"ja:由利郵便局"},"type":"node","ver":3},{"id":13457369109,"lat":39.2681678,"lon":140.2605548,"tags":{"addr:block_number":"50","addr:city":"由利本荘市","addr:neighbourhood":"東由利田代沖田","addr:postcode":"015-0232","addr:province":"秋田県","amenity":"post_office","name":"住吉簡易郵便局","name:en":"Sumiyoshi Summary Post Office","name:es":"Oficina Simple de Correos de Sumiyoshi","name:ja":"住吉簡易郵便局","name:ja-Hira":"すみよし かんいゆうびんきょく","opening_hours":"Mo-Fr 09:00-17:00","operator":"日本郵便","operator:en":"Japan Post","operator:ja":"日本郵便","operator:short":"郵便局","operator:short:en":"JP","operator:short:ja":"郵便局","operator:wikidata":"Q11509260","phone":"+81-184-69-3012"},"type":"node","ver":1},{"id":13457369111,"lat":39.3103846,"lon":140.2285507,"tags":{"addr:block_number":"6","addr:city":"由利本荘市","addr:housenumber":"2","addr:neighbourhood":"東由利宿宮ノ下","addr:postcode":"015-0241","addr:province":"秋田県","amenity":"post_office","name":"宿郵便局","name:en":"Shuku Post Office","name:es":"Oficina de Correos de Shuku","name:ja":"宿郵便局","name:ja-Hira":"しゅく ゆうびんきょく","name:pt":"Correio de Shuku","opening_hours":"Mo-Fr 09:00-17:00","operator":"日本郵便","operator:en":"Japan Post","operator:ja":"日本郵便","operator:short":"郵便局","operator:short:en":"JP","operator:short:ja":"郵便局","operator:wikidata":"Q11509260","phone":"+81-184-69-2034"},"type":"node","ver":1},{"id":13457369110,"lat":39.2875005,"lon":140.2829783,"tags":{"addr:block_number":"30","addr:city":"由利本荘市","addr:neighbourhood":"東由利舘合舘前","addr:postcode":"015-0221","addr:province":"秋田県","amenity":"post_office","name":"玉米郵便局","name:en":"Tomai Post Office","name:es":"Oficina de Correos de Tomai","name:ja":"玉米郵便局","name:ja-Hira":"とうまい ゆうびんきょく","name:pt":"Correio de Tomai","opening_hours":"Mo-Fr 09:00-17:00","operator":"日本郵便","operator:en":"Japan Post","operator:ja":"日本郵便","operator:short":"郵便局","operator:short:en":"JP","operator:short:ja":"郵便局","operator:wikidata":"Q11509260","phone":"+81-184-69-2510"},"type":"node","ver":1},{"id":5181215935,"lat":39.3022287,"lon":140.284202,"tags":{"addr:block_number":"4","addr:city":"由利本荘市","addr:housenumber":"4","addr:neighbourhood":"東由利老方四ツ眼","addr:postcode":"015-0299","addr:province":"秋田県","amenity":"post_office","name":"老方郵便局","name:en":"Oikata Post Office","name:es":"Oficina de Correos de Oikata","name:ja":"老方郵便局","name:ja-Hira":"おいかた ゆうびんきょく","name:pt":"Correio de Oikata","opening_hours":"Mo-Fr 09:00-17:00","operator":"日本郵便","operator:en":"Japan Post","operator:ja":"日本郵便","operator:short":"郵便局","operator:short:en":"JP","operator:short:ja":"郵便局","operator:wikidata":"Q11509260","phone":"+81-184-69-2002"},"type":"node","ver":2},{"id":8977359669,"lat":39.3147833,"lon":140.2629111,"tags":{"amenity":"post_office","name":"蔵簡易郵便局"},"type":"node","ver":1},{"id":13457369113,"lat":39.3473354,"lon":140.0936233,"tags":{"addr:block_number":"31","addr:city":"由利本荘市","addr:neighbourhood":"上野上野","addr:postcode":"015-0094","addr:province":"秋田県","amenity":"post_office","name":"上野簡易郵便局","name:en":"Uwano Summary Post Office","name:es":"Oficina Simple de Correos de Uwano","name:ja":"上野簡易郵便局","name:ja-Hira":"うわの かんいゆうびんきょく","opening_hours":"Mo-Fr 09:00-17:00","operator":"日本郵便","operator:en":"Japan Post","operator:ja":"日本郵便","operator:short":"郵便局","operator:short:en":"JP","operator:short:ja":"郵便局","operator:wikidata":"Q11509260","phone":"+81-184-29-2526"},"type":"node","ver":1},{"id":13457369112,"lat":39.3388185,"lon":140.125119,"tags":{"addr:block_number":"111","addr:city":"由利本荘市","addr:housenumber":"7","addr:neighbourhood":"館六角","addr:postcode":"015-0086","addr:province":"秋田県","amenity":"post_office","name":"石沢郵便局","name:en":"Ishizawa Post Office","name:es":"Oficina de Correos de Ishizawa","name:ja":"石沢郵便局","name:ja-Hira":"いしざわ ゆうびんきょく","name:pt":"Correio de Ishizawa","opening_hours":"Mo-Fr 09:00-17:00","operator":"日本郵便","operator:en":"Japan Post","operator:ja":"日本郵便","operator:short":"郵便局","operator:short:en":"JP","operator:short:ja":"郵便局","operator:wikidata":"Q11509260","phone":"+81-184-29-2122"},"type":"node","ver":1},{"id":13457369123,"lat":39.4379524,"lon":140.216675,"tags":{"addr:block_number":"107","addr:city":"由利本荘市","addr:neighbourhood":"中田代朴沢","addr:postcode":"018-0999","addr:province":"秋田県","amenity":"post_office","name":"中田代郵便局","name:en":"Nakatashiro Post Office","name:es":"Oficina de Correos de Nakatashiro","name:ja":"中田代郵便局","name:ja-Hira":"なかたしろ ゆうびんきょく","name:pt":"Correio de Nakatashiro","opening_hours":"Mo-Fr 09:00-17:00","operator":"日本郵便","operator:en":"Japan Post","operator:ja":"日本郵便","operator:short":"郵便局","operator:short:en":"JP","operator:short:ja":"郵便局","operator:wikidata":"Q11509260","phone":"+81-184-67-2050"},"type":"node","ver":1},{"id":10550623901,"lat":39.2350678,"lon":140.3971258,"tags":{"amenity":"post_box","operator":"日本郵便","operator:en":"Japan Post","operator:ja":"日本郵便","operator:wikidata":"Q11509260","short_name":"郵便局","short_name:en":"JP","short_name:ja":"郵便局"},"type":"node","ver":1},{"id":13455572993,"lat":39.2352712,"lon":140.3970232,"tags":{"addr:block_number":"54","addr:city":"羽後町","addr:county":"雄勝郡","addr:housenumber":"3","addr:neighbourhood":"堀内二本杉","addr:postcode":"012-1144","addr:province":"秋田県","amenity":"post_office","name":"羽後新町郵便局","name:en":"Ugo Shimmachi Post Office","name:es":"Oficina de Correos de Ugo Shimmachi","name:ja":"羽後新町郵便局","name:ja-Hira":"うごしんまち ゆうびんきょく","name:pt":"Correio de Ugo Shimmachi","opening_hours":"Mo-Fr 09:00-17:00","operator":"日本郵便","operator:en":"Japan Post","operator:ja":"日本郵便","operator:short":"郵便局","operator:short:en":"JP","operator:short:ja":"郵便局","operator:wikidata":"Q11509260","phone":"+81-183-62-1082","short_name":"郵便局","short_name:en":"JP","short_name:ja":"郵便局"},"type":"node","ver":1},{"id":10550643247,"lat":39.2732043,"lon":140.3831786,"tags":{"amenity":"post_box","operator":"日本郵便","operator:en":"Japan Post","operator:ja":"日本郵便","operator:wikidata":"Q11509260","short_name":"郵便局","short_name:en":"JP","short_name:ja":"郵便局"},"type":"node","ver":1},{"id":13459628191,"lat":39.2733603,"lon":140.3832162,"tags":{"addr:block_number":"140","addr:city":"横手市","addr:housenumber":"2","addr:neighbourhood":"雄物川町大沢大沢","addr:postcode":"013-0218","addr:province":"秋田県","amenity":"post_office","name":"雄物川大沢郵便局","name:en":"Omonogawa Osawa Post Office","name:es":"Oficina de Correos de Omonogawa Osawa","name:ja":"雄物川大沢郵便局","name:ja-Hira":"おものがわ おおさわ ゆうびんきょく","opening_hours":"Mo-Fr 09:00-17:00","operator":"日本郵便","operator:en":"Japan Post","operator:ja":"日本郵便","operator:short":"郵便局","operator:short:en":"JP","operator:short:ja":"郵便局","operator:wikidata":"Q11509260","phone":"+81-182-22-3210"},"type":"node","ver":1},{"id":10550643230,"lat":39.2727558,"lon":140.4110648,"tags":{"addr:block_number":"7","addr:city":"横手市","addr:neighbourhood":"雄物川町柏木後田","addr:postcode":"013-0214","addr:province":"秋田県","amenity":"post_office","name":"福地簡易郵便局","name:en":"Fukuchi Summary Post Office","name:es":"Oficina Simple de Correos de Fukuchi","name:ja":"福地簡易郵便局","name:ja-Hira":"ふくち かんいゆうびんきょく","opening_hours":"Mo-Fr 09:00-17:00","operator":"日本郵便","operator:en":"Japan Post","operator:ja":"日本郵便","operator:short":"郵便局","operator:short:en":"JP","operator:short:ja":"郵便局","operator:wikidata":"Q11509260","phone":"+81-182-22-2525","short_name":"郵便局","short_name:en":"JP","short_name:ja":"郵便局"},"type":"node","ver":2},{"id":10550643245,"lat":39.2727493,"lon":140.4109919,"tags":{"amenity":"post_box","operator":"日本郵便","operator:en":"Japan Post","operator:ja":"日本郵便","operator:wikidata":"Q11509260","short_name":"郵便局","short_name:en":"JP","short_name:ja":"郵便局"},"type":"node","ver":1},{"id":10550643249,"lat":39.2777993,"lon":140.4288836,"tags":{"amenity":"post_box","operator":"日本郵便","operator:en":"Japan Post","operator:ja":"日本郵便","operator:wikidata":"Q11509260","short_name":"郵便局","short_name:en":"JP","short_name:ja":"郵便局"},"type":"node","ver":1},{"id":13459628192,"lat":39.2778133,"lon":140.4290232,"tags":{"addr:block_number":"1","addr:city":"横手市","addr:housenumber":"6","addr:neighbourhood":"雄物川町造山栗林","addr:postcode":"013-0212","addr:province":"秋田県","amenity":"post_office","name":"里見郵便局","name:en":"Satomi Post Office","name:es":"Oficina de Correos de Satomi","name:ja":"里見郵便局","name:ja-Hira":"さとみ ゆうびんきょく","name:pt":"Correio de Satomi","opening_hours":"Mo-Fr 09:00-17:00","operator":"日本郵便","operator:en":"Japan Post","operator:ja":"日本郵便","operator:short":"郵便局","operator:short:en":"JP","operator:short:ja":"郵便局","operator:wikidata":"Q11509260","phone":"+81-182-22-3230","short_name":"郵便局","short_name:en":"JP","short_name:ja":"郵便局"},"type":"node","ver":1},{"id":11160328273,"lat":39.270144,"lon":140.4610348,"tags":{"amenity":"post_box"},"type":"node","ver":1},{"id":11160328240,"lat":39.2646586,"lon":140.4881145,"tags":{"amenity":"post_box"},"type":"node","ver":1},{"id":11160328260,"lat":39.2622154,"lon":140.4885361,"tags":{"amenity":"post_box"},"type":"node","ver":1},{"id":11160328261,"lat":39.2625091,"lon":140.4863334,"tags":{"amenity":"post_box"},"type":"node","ver":1},{"id":13459628189,"lat":39.2627136,"lon":140.4862863,"tags":{"addr:block_number":"198","addr:city":"横手市","addr:housenumber":"1","addr:neighbourhood":"平鹿町浅舞浅舞","addr:postcode":"013-0199","addr:province":"秋田県","amenity":"post_office","name":"平鹿郵便局","name:en":"Hiraka Post Office","name:es":"Oficina de Correos de Hiraka","name:ja":"平鹿郵便局","name:ja-Hira":"ひらか ゆうびんきょく","name:pt":"Correio de Hiraka","opening_hours":"Mo-Fr 09:00-17:00","operator":"日本郵便","operator:en":"Japan Post","operator:ja":"日本郵便","operator:short":"郵便局","operator:short:en":"JP","operator:short:ja":"郵便局","operator:wikidata":"Q11509260","phone":"+81-182-24-1300","short_name":"郵便局","short_name:en":"JP","short_name:ja":"郵便局"},"type":"node","ver":1},{"id":12452584727,"lat":39.2636826,"lon":140.4915172,"tags":{"amenity":"post_box","operator":"日本郵便","operator:en":"Japan Post","operator:ja":"日本郵便","operator:short":"郵便局","operator:short:en":"JP","operator:short:ja":"郵便局","operator:wikidata":"Q11509260"},"type":"node","ver":1},{"id":11085647360,"lat":39.2663586,"lon":140.4880239,"tags":{"amenity":"post_box"},"type":"node","ver":2},{"id":11160328236,"lat":39.2663446,"lon":140.490783,"tags":{"amenity":"post_box"},"type":"node","ver":1},{"id":11160328296,"lat":39.2909532,"lon":140.4277242,"tags":{"amenity":"post_box"},"type":"node","ver":2},{"id":11361038083,"lat":39.2871315,"lon":140.428566,"tags":{"amenity":"post_box"},"type":"node","ver":1},{"id":10550643253,"lat":39.2939677,"lon":140.4313317,"tags":{"amenity":"post_box","operator":"日本郵便","operator:en":"Japan Post","operator:ja":"日本郵便","operator:wikidata":"Q11509260","short_name":"郵便局","short_name:en":"JP","short_name:ja":"郵便局"},"type":"node","ver":1},{"id":13459628193,"lat":39.2940575,"lon":140.4312113,"tags":{"addr:block_number":"60","addr:city":"横手市","addr:housenumber":"3","addr:neighbourhood":"雄物川町沼館小谷地","addr:postcode":"013-0299","addr:province":"秋田県","amenity":"post_office","name":"雄物川郵便局","name:en":"Omonogawa Post Office","name:es":"Oficina de Correos de Omonogawa","name:ja":"雄物川郵便局","name:ja-Hira":"おものがわ ゆうびんきょく","name:pt":"Correio de Omonogawa","opening_hours":"Mo-Fr 09:00-17:00","operator":"日本郵便","operator:en":"Japan Post","operator:ja":"日本郵便","operator:short":"郵便局","operator:short:en":"JP","operator:short:ja":"郵便局","operator:wikidata":"Q11509260","phone":"+81-182-22-3200","short_name":"郵便局","short_name:en":"JP","short_name:ja":"郵便局"},"type":"node","ver":1},{"id":11424008119,"lat":39.3221343,"lon":140.4382052,"tags":{"amenity":"post_box"},"type":"node","ver":1},{"id":13459628194,"lat":39.322169,"lon":140.4384709,"tags":{"addr:block_number":"194","addr:city":"横手市","addr:housenumber":"1","addr:neighbourhood":"上薄井","addr:postcode":"013-0481","addr:province":"秋田県","addr:quarter":"雄物川町薄井","amenity":"post_office","name":"館合郵便局","name:en":"Tateai Post Office","name:es":"Oficina de Correos de Tateai","name:ja":"館合郵便局","name:ja-Hira":"たてあい ゆうびんきょく","name:pt":"Correio de Tateai","opening_hours":"Mo-Fr 09:00-17:00","operator":"日本郵便","operator:en":"Japan Post","operator:ja":"日本郵便","operator:short":"郵便局","operator:short:en":"JP","operator:short:ja":"郵便局","operator:wikidata":"Q11509260","phone":"+81-182-23-1300"},"type":"node","ver":1},{"id":11844449068,"lat":39.3326915,"lon":140.4843133,"tags":{"amenity":"post_box"},"type":"node","ver":1},{"id":13459628198,"lat":39.3330492,"lon":140.4882922,"tags":{"addr:block_number":"94","addr:city":"横手市","addr:housenumber":"9","addr:neighbourhood":"大雄田根森東","addr:postcode":"013-0325","addr:province":"秋田県","amenity":"post_office","name":"田根森郵便局","name:en":"Tanemori Post Office","name:es":"Oficina de Correos de Tanemori","name:ja":"田根森郵便局","name:ja-Hira":"たねもり ゆうびんきょく","name:pt":"Correio de Tanemori","opening_hours":"Mo-Fr 09:00-17:00","operator":"日本郵便","operator:en":"Japan Post","operator:ja":"日本郵便","operator:short":"郵便局","operator:short:en":"JP","operator:short:ja":"郵便局","operator:wikidata":"Q11509260","phone":"+81-182-52-2510","short_name":"郵便局","short_name:en":"JP","short_name:ja":"郵便局"},"type":"node","ver":1},{"id":13459628195,"lat":39.3549329,"lon":140.381889,"tags":{"addr:block_number":"27","addr:city":"横手市","addr:housenumber":"5","addr:neighbourhood":"大森町八沢木太田","addr:postcode":"013-0561","addr:province":"秋田県","amenity":"post_office","name":"八沢木郵便局","name:en":"Yasawagi Post Office","name:es":"Oficina de Correos de Yasawagui","name:ja":"八沢木郵便局","name:ja-Hira":"やさわぎ ゆうびんきょく","name:pt":"Correio de Yasawagi","opening_hours":"Mo-Fr 09:00-17:00","operator":"日本郵便","operator:en":"Japan Post","operator:ja":"日本郵便","operator:short":"郵便局","operator:short:en":"JP","operator:short:ja":"郵便局","operator:wikidata":"Q11509260","phone":"+81-182-26-3280"},"type":"node","ver":1},{"id":13461790795,"lat":39.4297429,"lon":140.3587339,"tags":{"addr:block_number":"35","addr:city":"大仙市","addr:housenumber":"1","addr:neighbourhood":"南外湯ノ又","addr:postcode":"019-1999","addr:province":"秋田県","amenity":"post_office","name":"外小友郵便局","name:en":"Sotootomo Post Office","name:es":"Oficina de Correos de Sotootomo","name:ja":"外小友郵便局","name:ja-Hira":"そとおとも ゆうびんきょく","name:pt":"Correio de Sotootomo","opening_hours":"Mo-Fr 09:00-17:00","operator":"日本郵便","operator:en":"Japan Post","operator:ja":"日本郵便","operator:short":"郵便局","operator:short:en":"JP","operator:short:ja":"郵便局","operator:wikidata":"Q11509260","phone":"+81-187-74-2100"},"type":"node","ver":1},{"id":11160424769,"lat":39.3459304,"lon":140.4153265,"tags":{"amenity":"post_box"},"type":"node","ver":1},{"id":11420118594,"lat":39.3426286,"lon":140.427661,"tags":{"amenity":"post_box"},"type":"node","ver":1},{"id":11160424761,"lat":39.3449012,"lon":140.4271551,"tags":{"amenity":"post_box"},"type":"node","ver":1},{"id":13459628196,"lat":39.3446242,"lon":140.4271906,"tags":{"addr:block_number":"215","addr:city":"横手市","addr:neighbourhood":"大森町大森","addr:postcode":"013-0599","addr:province":"秋田県","amenity":"post_office","name":"大森郵便局","name:en":"Omori Post Office","name:es":"Oficina de Correos de Omori","name:ja":"大森郵便局","name:ja-Hira":"おおもり ゆうびんきょく","name:pt":"Correio de Omori","opening_hours":"Mo-Fr 09:00-17:00","operator":"日本郵便","operator:en":"Japan Post","operator:ja":"日本郵便","operator:short":"郵便局","operator:short:en":"JP","operator:short:ja":"郵便局","operator:wikidata":"Q11509260","phone":"+81-182-26-3260","short_name":"郵便局","short_name:en":"JP","short_name:ja":"郵便局"},"type":"node","ver":1},{"id":11160424731,"lat":39.3410493,"lon":140.455934,"tags":{"amenity":"post_box"},"type":"node","ver":1},{"id":13459628197,"lat":39.3408496,"lon":140.4560091,"tags":{"addr:block_number":"232","addr:city":"横手市","addr:neighbourhood":"大雄南阿気","addr:postcode":"013-0422","addr:province":"秋田県","amenity":"post_office","name":"阿気郵便局","name:en":"Age Post Office","name:es":"Oficina de Correos de Ague","name:ja":"阿気郵便局","name:ja-Hira":"あげ ゆうびんきょく","name:pt":"Correio de Age","opening_hours":"Mo-Fr 09:00-17:00","operator":"日本郵便","operator:en":"Japan Post","operator:ja":"日本郵便","operator:short":"郵便局","operator:short:en":"JP","operator:short:ja":"郵便局","operator:wikidata":"Q11509260","phone":"+81-182-52-2520","short_name":"郵便局","short_name:en":"JP","short_name:ja":"郵便局"},"type":"node","ver":1},{"id":11412514876,"lat":39.3761292,"lon":140.4471785,"tags":{"amenity":"post_box"},"type":"node","ver":1},{"id":13459628199,"lat":39.3760913,"lon":140.4473273,"tags":{"addr:block_number":"124","addr:city":"横手市","addr:housenumber":"5","addr:neighbourhood":"大森町袴形南越前林","addr:postcode":"013-0502","addr:province":"秋田県","amenity":"post_office","name":"川西郵便局","name:en":"Kawanishi Post Office","name:es":"Oficina de Correos de Kawanishi","name:ja":"川西郵便局","name:ja-Hira":"かわにし ゆうびんきょく","name:pt":"Correio de Kawanishi","opening_hours":"Mo-Fr 09:00-17:00","operator":"日本郵便","operator:en":"Japan Post","operator:ja":"日本郵便","operator:short":"郵便局","operator:short:en":"JP","operator:short:ja":"郵便局","operator:wikidata":"Q11509260","phone":"+81-182-26-3270"},"type":"node","ver":1},{"id":11510948583,"lat":39.3551126,"lon":140.5014251,"tags":{"amenity":"post_box"},"type":"node","ver":1},{"id":10236684228,"lat":39.3668328,"lon":140.4956947,"tags":{"amenity":"post_box","operator":"日本郵便","operator:en":"Japan Post","operator:ja":"日本郵便","operator:wikidata":"Q11509260","short_name:en":"JP"},"type":"node","ver":1},{"id":13459628200,"lat":39.3667996,"lon":140.4956212,"tags":{"addr:block_number":"97","addr:city":"横手市","addr:housenumber":"3","addr:neighbourhood":"黒川悪戸谷地","addr:postcode":"013-0826","addr:province":"秋田県","amenity":"post_office","name":"横手黒川郵便局","name:en":"Yokote Kurokawa Post Office","name:es":"Oficina de Correos de Yokote Kurokawa","name:ja":"横手黒川郵便局","name:ja-Hira":"よこて くろかわ ゆうびんきょく","name:pt":"Correio de Yokote Kurokawa","opening_hours":"Mo-Fr 09:00-17:00","operator":"日本郵便","operator:en":"Japan Post","operator:ja":"日本郵便","operator:short":"郵便局","operator:short:en":"JP","operator:short:ja":"郵便局","operator:wikidata":"Q11509260","phone":"+81-182-38-2300","short_name":"郵便局","short_name:en":"JP","short_name:ja":"郵便局"},"type":"node","ver":1},{"id":13461790797,"lat":39.4281509,"lon":140.4541432,"tags":{"addr:block_number":"108","addr:city":"大仙市","addr:neighbourhood":"内小友荒町","addr:postcode":"014-0073","addr:province":"秋田県","amenity":"post_office","name":"内小友郵便局","name:en":"Uchiotomo Post Office","name:es":"Oficina de Correos de Uchiotomo","name:ja":"内小友郵便局","name:ja-Hira":"うちおとも ゆうびんきょく","name:pt":"Correio de Uchiotomo","opening_hours":"Mo-Fr 09:00-17:00","operator":"日本郵便","operator:en":"Japan Post","operator:ja":"日本郵便","operator:short":"郵便局","operator:short:en":"JP","operator:short:ja":"郵便局","operator:wikidata":"Q11509260","phone":"+81-187-68-2100"},"type":"node","ver":1},{"id":10236675796,"lat":39.4063889,"lon":140.4808534,"tags":{"amenity":"post_box","operator":"日本郵便","operator:en":"Japan Post","operator:ja":"日本郵便","operator:short":"郵便局","operator:short:en":"JP","operator:short:ja":"郵便局","operator:wikidata":"Q11509260","short_name:en":"JP"},"type":"node","ver":2},{"id":11949926410,"lat":39.4041166,"lon":140.480588,"tags":{"amenity":"post_box"},"type":"node","ver":1},{"id":13461790798,"lat":39.4064658,"lon":140.4806725,"tags":{"addr:block_number":"23","addr:city":"大仙市","addr:housenumber":"5","addr:neighbourhood":"角間川町西中上町","addr:postcode":"014-1413","addr:province":"秋田県","amenity":"post_office","name":"角間川郵便局","name:en":"Kakumagawa Post Office","name:es":"Oficina de Correos de Kakumagawa","name:ja":"角間川郵便局","name:ja-Hira":"かくまがわ ゆうびんきょく","name:pt":"Correio de Kakumagawa","opening_hours":"Mo-Fr 09:00-17:00","operator":"日本郵便","operator:en":"Japan Post","operator:ja":"日本郵便","operator:short":"郵便局","operator:short:en":"JP","operator:short:ja":"郵便局","operator:wikidata":"Q11509260","phone":"+81-187-65-2200","short_name:en":"JP"},"type":"node","ver":1},{"id":13461790799,"lat":39.4111645,"lon":140.4894888,"tags":{"addr:block_number":"53","addr:city":"大仙市","addr:housenumber":"2","addr:neighbourhood":"藤木上野中","addr:postcode":"014-1412","addr:province":"秋田県","amenity":"post_office","name":"藤木簡易郵便局","name:en":"Fujiki Summary Post Office","name:es":"Oficina Simple de Correos de Fujiki","name:ja":"藤木簡易郵便局","name:ja-Hira":"ふじき かんいゆうびんきょく","opening_hours":"Mo-Fr 09:00-17:00","operator":"日本郵便","operator:en":"Japan Post","operator:ja":"日本郵便","operator:short":"郵便局","operator:short:en":"JP","operator:short:ja":"郵便局","operator:wikidata":"Q11509260","phone":"+81-187-61-3135","short_name:en":"JP"},"type":"node","ver":1},{"id":10236675788,"lat":39.4111137,"lon":140.4895869,"tags":{"amenity":"post_box","operator":"日本郵便","operator:en":"Japan Post","operator:ja":"日本郵便","operator:wikidata":"Q11509260","short_name:en":"JP"},"type":"node","ver":1},{"id":10236668595,"lat":39.4365984,"lon":140.4820926,"tags":{"amenity":"post_box","operator":"日本郵便","operator:en":"Japan Post","operator:ja":"日本郵便","operator:wikidata":"Q11509260","short_name:en":"JP"},"type":"node","ver":1},{"id":13461790800,"lat":39.4366251,"lon":140.4819387,"tags":{"addr:block_number":"112","addr:city":"大仙市","addr:housenumber":"1","addr:neighbourhood":"飯田家ノ前","addr:postcode":"014-0067","addr:province":"秋田県","amenity":"post_office","name":"大曲川目簡易郵便局","name:en":"Omagari Kawame Summary Post Office","name:es":"Oficina Simple de Correos de Omagari Kawame","name:ja":"大曲川目簡易郵便局","name:ja-Hira":"おおまがり かわめ かんいゆうびんきょく","opening_hours":"Mo-Fr 09:00-17:00","operator":"日本郵便","operator:en":"Japan Post","operator:ja":"日本郵便","operator:short":"郵便局","operator:short:en":"JP","operator:short:ja":"郵便局","operator:wikidata":"Q11509260","phone":"+81-187-63-1881","short_name:en":"JP"},"type":"node","ver":1},{"id":5487617253,"lat":39.0649553,"lon":140.5297295,"tags":{"addr:block_number":"154","addr:city":"湯沢市","addr:housenumber":"2","addr:neighbourhood":"高松八乙女","addr:postcode":"019-0404","addr:province":"秋田県","amenity":"post_office","name":"高松簡易郵便局","name:en":"Takamatsu Summary Post Office","name:es":"Oficina Simple de Correos de Takamatsu","name:ja":"高松簡易郵便局","name:ja-Hira":"たかまつ かんいゆうびんきょく","opening_hours":"Mo-Fr 09:00-17:00","operator":"日本郵便","operator:en":"Japan Post","operator:ja":"日本郵便","operator:short":"郵便局","operator:short:en":"JP","operator:short:ja":"郵便局","operator:wikidata":"Q11509260","phone":"+81-183-79-2777"},"type":"node","ver":2},{"id":11409671459,"lat":39.0743841,"lon":140.586892,"tags":{"amenity":"post_box","operator":"日本郵便","operator:en":"Japan Post","operator:ja":"日本郵便","operator:short":"郵便局","operator:short:en":"JP","operator:short:ja":"郵便局","operator:wikidata":"Q11509260","ref":"150015"},"type":"node","ver":1},{"id":11409671462,"lat":39.074476,"lon":140.5866835,"tags":{"addr:block_number":"66","addr:city":"湯沢市","addr:housenumber":"1","addr:neighbourhood":"字沢梨台","addr:postcode":"012-0183","addr:province":"秋田県","addr:quarter":"皆瀬","amenity":"post_office","name":"皆瀬郵便局","name:en":"Minase Post Office","name:es":"Oficina de Correos de Minase","name:ja":"Minase Post Office","name:ja-Hira":"みなせゆうびんきょく","name:pt":"Correio de Minase","opening_hours":"Mo-Fr 09:00-17:00","operator":"日本郵便","operator:en":"Japan Post","operator:ja":"日本郵便","operator:short":"郵便局","operator:short:en":"JP","operator:short:ja":"郵便局","operator:wikidata":"Q11509260","phone":"+81-183-46-2202"},"type":"node","ver":2},{"id":13457492692,"lat":39.1271274,"lon":140.5603568,"tags":{"addr:block_number":"135","addr:city":"湯沢市","addr:neighbourhood":"三梨町京政","addr:postcode":"012-0106","addr:province":"秋田県","amenity":"post_office","name":"宮田簡易郵便局","name:en":"Miyata Summary Post Office","name:es":"Oficina Simple de Correos de Miyata","name:ja":"宮田簡易郵便局","name:ja-Hira":"みやた かんいゆうびんきょく","opening_hours":"Mo-Fr 09:00-17:00","operator":"日本郵便","operator:en":"Japan Post","operator:ja":"日本郵便","operator:short":"郵便局","operator:short:en":"JP","operator:short:ja":"郵便局","operator:wikidata":"Q11509260","phone":"+81-183-42-3103"},"type":"node","ver":1},{"id":11409619843,"lat":39.1040046,"lon":140.5824226,"tags":{"amenity":"post_box","operator":"日本郵便","operator:en":"Japan Post","operator:ja":"日本郵便","operator:short":"郵便局","operator:short:en":"JP","operator:short:ja":"郵便局","operator:wikidata":"Q11509260","ref":"150003"},"type":"node","ver":1},{"id":13457492691,"lat":39.1039972,"lon":140.5821453,"tags":{"addr:block_number":"199","addr:city":"湯沢市","addr:housenumber":"1","addr:neighbourhood":"字稲庭","addr:postcode":"012-0107","addr:province":"秋田県","addr:quarter":"稲庭町","amenity":"post_office","name":"稲庭郵便局","name:en":"Inaniwa Post Office","name:es":"Oficina de Correos de Inaniwa","name:ja":"稲庭郵便局","name:ja-Hira":"いなにわ ゆうびんきょく","name:pt":"Correio de Inaniwa","opening_hours":"Mo-Fr 09:00-17:00","operator":"日本郵便","operator:en":"Japan Post","operator:ja":"日本郵便","operator:short":"郵便局","operator:short:en":"JP","operator:short:ja":"郵便局","operator:wikidata":"Q11509260","phone":"+81-183-43-2302"},"type":"node","ver":1},{"id":13457492696,"lat":39.167136,"lon":140.5604352,"tags":{"addr:block_number":"23","addr:city":"湯沢市","addr:neighbourhood":"駒形町八面清水田","addr:postcode":"012-0104","addr:province":"秋田県","amenity":"post_office","name":"駒形郵便局","name:en":"Komagata Post Office","name:es":"Oficina de Correos de Komagata","name:ja":"駒形郵便局","name:ja-Hira":"こまがた ゆうびんきょく","name:pt":"Correio de Komagata","opening_hours":"Mo-Fr 09:00-17:00","operator":"日本郵便","operator:en":"Japan Post","operator:ja":"日本郵便","operator:short":"郵便局","operator:short:en":"JP","operator:short:ja":"郵便局","operator:wikidata":"Q11509260","phone":"+81-183-42-2590"},"type":"node","ver":1},{"id":13457492693,"lat":39.134622,"lon":140.5748264,"tags":{"addr:block_number":"141","addr:city":"湯沢市","addr:housenumber":"3","addr:neighbourhood":"三梨町菻田","addr:postcode":"012-0106","addr:province":"秋田県","amenity":"post_office","name":"三梨簡易郵便局","name:en":"Mitsunashi Summary Post Office","name:es":"Oficina Simple de Correos de Mitsunashi","name:ja":"三梨簡易郵便局","name:ja-Hira":"みつなし かんいゆうびんきょく","opening_hours":"Mo-Fr 09:00-17:00","operator":"日本郵便","operator:en":"Japan Post","operator:ja":"日本郵便","operator:short":"郵便局","operator:short:en":"JP","operator:short:ja":"郵便局","operator:wikidata":"Q11509260","phone":"+81-183-42-5262"},"type":"node","ver":1},{"id":13457492694,"lat":39.1481761,"lon":140.5643439,"tags":{"addr:block_number":"3","addr:city":"湯沢市","addr:housenumber":"1","addr:neighbourhood":"川連町大舘","addr:postcode":"012-0105","addr:province":"秋田県","amenity":"post_office","name":"稲川大舘簡易郵便局","name:en":"Inakawa Odate Summary Post Office","name:es":"Oficina Simple de Correos de Inakawa Odate","name:ja":"稲川大舘簡易郵便局","name:ja-Hira":"いなかわ おおだて かんいゆうびんきょく","opening_hours":"Mo-Fr 09:00-17:00","operator":"日本郵便","operator:en":"Japan Post","operator:ja":"日本郵便","operator:short":"郵便局","operator:short:en":"JP","operator:short:ja":"郵便局","operator:wikidata":"Q11509260","phone":"+81-183-42-4119"},"type":"node","ver":1},{"id":13457492695,"lat":39.1525131,"lon":140.5679517,"tags":{"addr:block_number":"35","addr:city":"湯沢市","addr:housenumber":"15","addr:neighbourhood":"川連町平城下","addr:postcode":"012-0199","addr:province":"秋田県","amenity":"post_office","name":"稲川郵便局","name:en":"Inakawa Post Office","name:es":"Oficina de Correos de Inakawa","name:ja":"稲川郵便局","name:ja-Hira":"いなかわ ゆうびんきょく","name:pt":"Correio de Inakawa","opening_hours":"Mo-Fr 09:00-17:00","operator":"日本郵便","operator:en":"Japan Post","operator:ja":"日本郵便","operator:short":"郵便局","operator:short:en":"JP","operator:short:ja":"郵便局","operator:wikidata":"Q11509260","phone":"+81-183-42-2040"},"type":"node","ver":1},{"id":13457492697,"lat":39.1767551,"lon":140.5728329,"tags":{"addr:block_number":"26","addr:city":"湯沢市","addr:housenumber":"1","addr:neighbourhood":"駒形町東福寺張山","addr:postcode":"012-0104","addr:province":"秋田県","amenity":"post_office","name":"東福寺簡易郵便局","name:en":"Tofukuji Summary Post Office","name:es":"Oficina Simple de Correos de Tofukuji","name:ja":"東福寺簡易郵便局","name:ja-Hira":"とうふくじ かんいゆうびんきょく","opening_hours":"Mo-Fr 09:00-17:00","operator":"日本郵便","operator:en":"Japan Post","operator:ja":"日本郵便","operator:short":"郵便局","operator:short:en":"JP","operator:short:ja":"郵便局","operator:wikidata":"Q11509260","phone":"+81-183-42-3102"},"type":"node","ver":1},{"id":11818697398,"lat":39.1887828,"lon":140.5413,"tags":{"amenity":"post_box"},"type":"node","ver":1},{"id":12246215169,"lat":39.2008292,"lon":140.5422577,"tags":{"amenity":"post_box","operator":"日本郵便","operator:en":"Japan Post","operator:ja":"日本郵便","operator:short":"郵便局","operator:short:en":"JP","operator:short:ja":"郵便局","operator:wikidata":"Q11509260"},"type":"node","ver":1},{"id":12246225923,"lat":39.2036152,"lon":140.54587,"tags":{"amenity":"post_box","operator":"日本郵便","operator:en":"Japan Post","operator:ja":"日本郵便","operator:short":"郵便局","operator:short:en":"JP","operator:short:ja":"郵便局","operator:wikidata":"Q11509260"},"type":"node","ver":1},{"id":13459628186,"lat":39.2049542,"lon":140.5437116,"tags":{"addr:block_number":"72","addr:city":"横手市","addr:housenumber":"7","addr:neighbourhood":"増田町増田本町","addr:postcode":"019-0701","addr:province":"秋田県","amenity":"post_office","name":"増田郵便局","name:en":"Masuda Post Office","name:es":"Oficina de Correos de Masuda","name:ja":"増田郵便局","name:ja-Hira":"ますだ ゆうびんきょく","name:pt":"Correio de Masuda","opening_hours":"Mo-Fr 09:00-17:00","operator":"日本郵便","operator:en":"Japan Post","operator:ja":"日本郵便","operator:short":"郵便局","operator:short:en":"JP","operator:short:ja":"郵便局","operator:wikidata":"Q11509260","phone":"+81-182-45-2460"},"type":"node","ver":1},{"id":13459628188,"lat":39.2290041,"lon":140.5151371,"tags":{"addr:block_number":"8","addr:city":"横手市","addr:housenumber":"10","addr:neighbourhood":"十文字町十五野新田増田道東","addr:postcode":"019-0518","addr:province":"秋田県","amenity":"post_office","name":"三重簡易郵便局","name:en":"Mie Summary Post Office","name:es":"Oficina Simple de Correos de Mie","name:ja":"三重簡易郵便局","name:ja-Hira":"みえ かんいゆうびんきょく","opening_hours":"Mo-Fr 09:00-17:00","operator":"日本郵便","operator:en":"Japan Post","operator:ja":"日本郵便","operator:short":"郵便局","operator:short:en":"JP","operator:short:ja":"郵便局","operator:wikidata":"Q11509260","phone":"+81-182-42-2600"},"type":"node","ver":1},{"id":11513215595,"lat":39.2228357,"lon":140.5232822,"tags":{"amenity":"post_box"},"type":"node","ver":1},{"id":12261020912,"lat":39.220316,"lon":140.5255179,"tags":{"amenity":"post_box","operator":"日本郵便","operator:en":"Japan Post","operator:ja":"日本郵便","operator:short":"郵便局","operator:short:en":"JP","operator:short:ja":"郵便局","operator:wikidata":"Q11509260"},"type":"node","ver":1},{"id":13459628187,"lat":39.2231072,"lon":140.525262,"tags":{"addr:block_number":"54","addr:city":"横手市","addr:neighbourhood":"十文字町曙町","addr:postcode":"019-0599","addr:province":"秋田県","amenity":"post_office","name":"十文字郵便局","name:en":"Jumonji Post Office","name:es":"Oficina de Correos de Jumonji","name:ja":"十文字郵便局","name:ja-Hira":"じゅうもんじ ゆうびんきょく","name:pt":"Correio de Jumonji","opening_hours":"Mo-Fr 09:00-17:00","operator":"日本郵便","operator:en":"Japan Post","operator:ja":"日本郵便","operator:short":"郵便局","operator:short:en":"JP","operator:short:ja":"郵便局","operator:wikidata":"Q11509260","phone":"+81-182-42-1591","short_name":"郵便局","short_name:en":"JP","short_name:ja":"郵便局"},"type":"node","ver":1},{"id":11609869845,"lat":39.228404,"lon":140.557466,"tags":{"amenity":"post_box"},"type":"node","ver":1},{"id":11645211604,"lat":39.2063939,"lon":140.5698525,"tags":{"amenity":"post_box"},"type":"node","ver":1},{"id":13459628185,"lat":39.2063277,"lon":140.5698803,"tags":{"addr:block_number":"48","addr:city":"横手市","addr:housenumber":"2","addr:neighbourhood":"増田町増田平鹿向","addr:postcode":"019-0701","addr:province":"秋田県","amenity":"post_office","name":"真人郵便局","name:en":"Mato Post Office","name:es":"Oficina de Correos de Mato","name:ja":"真人郵便局","name:ja-Hira":"まと ゆうびんきょく","name:pt":"Correio de Mato","opening_hours":"Mo-Fr 09:00-17:00","operator":"日本郵便","operator:en":"Japan Post","operator:ja":"日本郵便","operator:short":"郵便局","operator:short:en":"JP","operator:short:ja":"郵便局","operator:wikidata":"Q11509260","phone":"+81-182-45-291"},"type":"node","ver":1},{"id":13459628184,"lat":39.2002929,"lon":140.5905779,"tags":{"addr:block_number":"103","addr:city":"横手市","addr:housenumber":"3","addr:neighbourhood":"増田町吉野村ノ前","addr:postcode":"019-0703","addr:province":"秋田県","amenity":"post_office","name":"吉野簡易郵便局","name:en":"Yoshino Summary Post Office","name:es":"Oficina Simple de Correos de Yoshino","name:ja":"吉野簡易郵便局","name:ja-Hira":"よしの かんいゆうびんきょく","opening_hours":"Mo-Fr 09:00-17:00","operator":"日本郵便","operator:en":"Japan Post","operator:ja":"日本郵便","operator:short":"郵便局","operator:short:en":"JP","operator:short:ja":"郵便局","operator:wikidata":"Q11509260","phone":"+81-182-45-4809"},"type":"node","ver":1},{"id":12875171355,"lat":39.179785,"lon":140.6486036,"tags":{"amenity":"post_box"},"type":"node","ver":1},{"id":13457507605,"lat":39.1799011,"lon":140.6474963,"tags":{"addr:block_number":"1","addr:city":"東成瀬村","addr:county":"雄勝郡","addr:housenumber":"1","addr:neighbourhood":"田子内宮田","addr:postcode":"019-0801","addr:province":"秋田県","amenity":"post_office","name":"東成瀬郵便局","name:en":"Higashinaruse Post Office","name:es":"Oficina de Correos de Higashinaruse","name:ja":"東成瀬郵便局","name:ja-Hira":"ひがしなるせ ゆうびんきょく","name:pt":"Correio de Higashinaruse","opening_hours":"Mo-Fr 09:00-17:00","operator":"日本郵便","operator:en":"Japan Post","operator:ja":"日本郵便","operator:short":"郵便局","operator:short:en":"JP","operator:short:ja":"郵便局","operator:wikidata":"Q11509260","phone":"+81-182-47-2300"},"type":"node","ver":1},{"id":13457507606,"lat":39.1766353,"lon":140.7010165,"tags":{"addr:block_number":"72","addr:city":"東成瀬村","addr:county":"雄勝郡","addr:neighbourhood":"岩井川東村","addr:postcode":"019-0802","addr:province":"秋田県","amenity":"post_office","name":"椿川簡易郵便局","name:en":"Tsubakikawa Summary Post Office","name:es":"Oficina Simple de Correos de Tsubakikawa","name:ja":"椿川簡易郵便局","name:ja-Hira":"つばきかわ かんいゆうびんきょく","opening_hours":"Mo-Fr 09:00-17:00","operator":"日本郵便","operator:en":"Japan Post","operator:ja":"日本郵便","operator:short":"郵便局","operator:short:en":"JP","operator:short:ja":"郵便局","operator:wikidata":"Q11509260","phone":"+81-182-47-2334"},"type":"node","ver":1},{"id":2173084154,"lat":39.2448545,"lon":140.5320399,"tags":{"addr:block_number":"81","addr:city":"横手市","addr:neighbourhood":"平鹿町醍醐醍醐","addr:postcode":"013-0102","addr:province":"秋田県","amenity":"post_office","name":"醍醐郵便局","name:en":"Daigo Post Office","name:es":"Oficina de Correos de Daigo","name:ja":"醍醐郵便局","name:ja-Hira":"だいごゆうびんきょく","name:pt":"Correio de Daigo","opening_hours":"Mo-Fr 09:00-17:00","operator":"日本郵便","operator:en":"Japan Post","operator:ja":"日本郵便","operator:short":"郵便局","operator:short:en":"JP","operator:short:ja":"郵便局","operator:wikidata":"Q11509260","phone":"+81-182-25-4020","source":"bing"},"type":"node","ver":5},{"id":10554079386,"lat":39.2782442,"lon":140.5581025,"tags":{"amenity":"post_box","operator":"日本郵便","operator:en":"Japan Post","operator:ja":"日本郵便","operator:wikidata":"Q11509260","short_name":"郵便局","short_name:en":"JP","short_name:ja":"郵便局"},"type":"node","ver":1},{"id":13459670911,"lat":39.2782202,"lon":140.5582003,"tags":{"addr:block_number":"192","addr:city":"横手市","addr:housenumber":"1","addr:neighbourhood":"大屋新町新町","addr:postcode":"013-0051","addr:province":"秋田県","amenity":"post_office","name":"横手栄郵便局","name:en":"Yokote Sakae Post Office","name:es":"Oficina de Correos de Yokote Sakae","name:ja":"横手栄郵便局","name:ja-Hira":"よこて さかえ ゆうびんきょく","name:pt":"Correio de Yokote Sakae","opening_hours":"Mo-Fr 09:00-17:00","operator":"日本郵便","operator:en":"Japan Post","operator:ja":"日本郵便","operator:short":"郵便局","operator:short:en":"JP","operator:short:ja":"郵便局","operator:wikidata":"Q11509260","phone":"+81-182-33-8240","short_name":"郵便局","short_name:en":"JP","short_name:ja":"郵便局"},"type":"node","ver":1},{"id":12182133514,"lat":39.2979399,"lon":140.5535906,"tags":{"amenity":"post_box","operator":"日本郵便","operator:en":"Japan Post","operator:ja":"日本郵便","operator:short":"郵便局","operator:short:en":"JP","operator:short:ja":"郵便局","operator:wikidata":"Q11509260"},"type":"node","ver":1},{"id":10554079381,"lat":39.3052198,"lon":140.5462352,"tags":{"amenity":"post_box","operator":"日本郵便","operator:en":"Japan Post","operator:ja":"日本郵便","operator:wikidata":"Q11509260","short_name":"郵便局","short_name:en":"JP","short_name:ja":"郵便局"},"type":"node","ver":1},{"id":13459670909,"lat":39.3053985,"lon":140.5461089,"tags":{"addr:block_number":"41","addr:city":"横手市","addr:neighbourhood":"赤坂後野","addr:postcode":"013-0064","addr:province":"秋田県","amenity":"post_office","name":"横手赤坂簡易郵便局","name:en":"Yokote Akasaka Summary Post Office","name:es":"Oficina Simple de Correos de Yokote Akasaka","name:ja":"横手赤坂簡易郵便局","name:ja-Hira":"よこて あかさか かんいゆうびんきょく","opening_hours":"Mo-Fr 09:00-17:00","operator":"日本郵便","operator:en":"Japan Post","operator:ja":"日本郵便","operator:short":"郵便局","operator:short:en":"JP","operator:short:ja":"郵便局","operator:wikidata":"Q11509260","phone":"+81-182-32-7557"},"type":"node","ver":1},{"id":11158601238,"lat":39.3114877,"lon":140.5528469,"tags":{"amenity":"post_box"},"type":"node","ver":1},{"id":2995771331,"lat":39.3107538,"lon":140.560837,"tags":{"amenity":"post_box","source":"image,2014-06;Bing,2011-11-17;GSI/KIBAN"},"type":"node","ver":2},{"id":13459670901,"lat":39.3153813,"lon":140.5187668,"tags":{"addr:block_number":"2","addr:city":"横手市","addr:housenumber":"3","addr:neighbourhood":"猪岡長瀞","addr:postcode":"013-0065","addr:province":"秋田県","amenity":"post_office","name":"旭郵便局","name:en":"Asahi Post Office","name:es":"Oficina de Correos de Asahi","name:ja":"旭郵便局","name:ja-Hira":"あさひ ゆうびんきょく","name:pt":"Correio de Asahi","opening_hours":"Mo-Fr 09:00-17:00","operator":"日本郵便","operator:en":"Japan Post","operator:ja":"日本郵便","operator:short":"郵便局","operator:short:en":"JP","operator:short:ja":"郵便局","operator:wikidata":"Q11509260","phone":"+81-182-33-8200"},"type":"node","ver":1},{"id":12189768492,"lat":39.3123056,"lon":140.5494782,"tags":{"amenity":"post_box","operator":"日本郵便","operator:en":"Japan Post","operator:ja":"日本郵便","operator:short":"郵便局","operator:short:en":"JP","operator:short:ja":"郵便局","operator:wikidata":"Q11509260"},"type":"node","ver":1},{"id":2161972710,"lat":39.3160451,"lon":140.5589573,"tags":{"amenity":"post_box","operator":"日本郵便","operator:en":"Japan Post","operator:ja":"日本郵便","operator:wikidata":"Q11509260","short_name":"郵便局","short_name:en":"JP","short_name:ja":"郵便局"},"type":"node","ver":2},