{"prefectureCode":25,"data":[{"id":1422941427,"lat":34.813001,"lon":136.036092,"tags":{"KSJ2:ADS":"信楽町多羅尾1918","KSJ2:AdminArea":"滋賀県栗東市","amenity":"post_office","name":"多羅尾簡易郵便局","note":"National-Land Numerical Information (Public Facility) 2006, MLIT Japan","note:ja":"国土数値情報（公共施設データ）平成19年　国土交通省","operator":"日本郵便","operator:en":"Japan Post","operator:ja":"日本郵便","operator:short":"郵便局","operator:short:en":"JP","operator:short:ja":"郵便局","operator:wikidata":"Q11509260","source":"KSJ2","source_ref":"http://nlftp.mlit.go.jp/ksj/jpgis/datalist/KsjTmplt-P02-v2_0.html"},"type":"node","ver":2},{"id":4967295921,"lat":34.8115399,"lon":136.0360048,"tags":{"addr:block_number":"1918","addr:city":"甲賀市","addr:postcode":"529-1821","addr:province":"滋賀県","addr:quarter":"信楽町多羅尾","amenity":"post_office","name":"多羅尾簡易郵便局","name:en":"Tarao Summary Post Office","name:ja":"多羅尾簡易郵便局","name:ja-Hira":"たらお かんいゆうびんきょく","opening_hours":"Mo-Fr 09:00-17:00","operator":"日本郵便","operator:en":"Japan Post","operator:ja":"日本郵便","operator:short":"郵便局","operator:short:en":"JP","operator:short:ja":"郵便局","operator:wikidata":"Q11509260","phone":"+81-748-85-0370"},"type":"node","ver":2},{"id":1422941792,"lat":34.952455,"lon":135.894956,"tags":{"addr:block_number":"15","addr:city":"大津市","addr:housenumber":"1","addr:neighbourhood":"2丁目","addr:postcode":"520-0867","addr:province":"滋賀県","addr:quarter":"大平","amenity":"post_office","name":"大津大平郵便局","name:en":"Otsu Ohira Post Office","name:ja":"大津大平郵便局","name:ja-Hira":"おおつ おおひら ゆうびんきょく","note":"National-Land Numerical Information (Public Facility) 2006, MLIT Japan","note:ja":"国土数値情報（公共施設データ）平成19年　国土交通省","opening_hours":"Mo-Fr 09:00-17:00","operator":"日本郵便","operator:en":"Japan Post","operator:ja":"日本郵便","operator:short":"郵便局","operator:short:en":"JP","operator:short:ja":"郵便局","operator:wikidata":"Q11509260","phone":"+81-77-533-1045","source":"KSJ2","source_ref":"http://nlftp.mlit.go.jp/ksj/jpgis/datalist/KsjTmplt-P02-v2_0.html"},"type":"node","ver":2},{"id":1422941746,"lat":34.96812,"lon":135.894095,"tags":{"addr:block_number":"17","addr:city":"大津市","addr:housenumber":"22","addr:neighbourhood":"1丁目","addr:postcode":"520-0844","addr:province":"滋賀県","addr:quarter":"国分","amenity":"post_office","name":"大津国分簡易郵便局","name:en":"Otsu Kokubu Summary Post Office","name:ja":"大津国分簡易郵便局","name:ja-Hira":"おおつ こくぶ かんいゆうびんきょく","note":"National-Land Numerical Information (Public Facility) 2006, MLIT Japan","note:ja":"国土数値情報（公共施設データ）平成19年　国土交通省","opening_hours":"Mo-Fr 09:00-17:00","operator":"日本郵便","operator:en":"Japan Post","operator:ja":"日本郵便","operator:short":"郵便局","operator:short:en":"JP","operator:short:ja":"郵便局","operator:wikidata":"Q11509260","phone":"+81-77-537-0748","source":"KSJ2","source_ref":"http://nlftp.mlit.go.jp/ksj/jpgis/datalist/KsjTmplt-P02-v2_0.html"},"type":"node","ver":2},{"id":12508699755,"lat":34.9843186,"lon":135.8881734,"tags":{"addr:block_number":"6","addr:city":"大津市","addr:housenumber":"35","addr:postcode":"520-0846","addr:province":"滋賀県","addr:quarter":"富士見台","amenity":"post_office","name":"大津富士見台郵便局","name:en":"Otsu Fujimidai Post Office","name:ja":"大津富士見台郵便局","name:ja-Hira":"おおつ ふじみだい ゆうびんきょく","opening_hours":"Mo-Fr 09:00-17:00","operator":"日本郵便","operator:en":"Japan Post","operator:ja":"日本郵便","operator:short":"郵便局","operator:short:en":"JP","operator:short:ja":"郵便局","operator:wikidata":"Q11509260","phone":"+81-77-534-4375"},"type":"node","ver":1},{"id":1422942057,"lat":34.9926814,"lon":135.8365987,"tags":{"addr:block_number":"13","addr:city":"大津市","addr:housenumber":"10","addr:postcode":"520-0064","addr:province":"滋賀県","addr:quarter":"追分町","amenity":"post_office","name":"大津藤尾簡易郵便局","name:en":"Otsu Fujio Summary Post Office","name:ja":"大津藤尾簡易郵便局","name:ja-Hira":"おおつ ふじお かんいゆうびんきょく","note":"National-Land Numerical Information (Public Facility) 2006, MLIT Japan","note:ja":"国土数値情報（公共施設データ）平成19年　国土交通省","opening_hours":"Mo-Fr 09:00-17:00","operator":"日本郵便","operator:en":"Japan Post","operator:ja":"日本郵便","operator:short":"郵便局","operator:short:en":"JP","operator:short:ja":"郵便局","operator:wikidata":"Q11509260","phone":"+81-77-521-2530","source":"KSJ2","source_ref":"http://nlftp.mlit.go.jp/ksj/jpgis/datalist/KsjTmplt-P02-v2_0.html"},"type":"node","ver":4},{"id":10225707455,"lat":34.992705,"lon":135.8366112,"tags":{"amenity":"post_box"},"type":"node","ver":2},{"id":12508699751,"lat":35.030846,"lon":135.8313056,"tags":{"addr:block_number":"35","addr:city":"大津市","addr:housenumber":"10","addr:neighbourhood":"1丁目","addr:postcode":"520-0016","addr:province":"滋賀県","addr:quarter":"比叡平","amenity":"post_office","name":"大津比叡平簡易郵便局","name:en":"Otsu Hieidaira Summary Post Office","name:ja":"大津比叡平簡易郵便局","name:ja-Hira":"おおつ ひえいだいら かんいゆうびんきょく","opening_hours":"Mo-Fr 09:00-17:00","operator":"日本郵便","operator:en":"Japan Post","operator:ja":"日本郵便","operator:short":"郵便局","operator:short:en":"JP","operator:short:ja":"郵便局","operator:wikidata":"Q11509260","phone":"+81-77-529-1512"},"type":"node","ver":1},{"id":3698123622,"lat":34.9944106,"lon":135.8531787,"tags":{"amenity":"post_box"},"type":"node","ver":2},{"id":1422942154,"lat":35.0047878,"lon":135.8635504,"tags":{"addr:block_number":"4","addr:city":"大津市","addr:housenumber":"32","addr:postcode":"520-0057","addr:province":"滋賀県","addr:quarter":"御幸町","amenity":"post_office","name":"大津駅前郵便局","name:en":"Otsu Ekimae Post Office","name:ja":"大津駅前郵便局","name:ja-Hira":"おおつ えきまえ ゆうびんきょく","note":"National-Land Numerical Information (Public Facility) 2006, MLIT Japan","note:ja":"国土数値情報（公共施設データ）平成19年　国土交通省","opening_hours":"Mo-Fr 09:00-17:00","operator":"日本郵便","operator:en":"Japan Post","operator:ja":"日本郵便","operator:short":"郵便局","operator:short:en":"JP","operator:short:ja":"郵便局","operator:wikidata":"Q11509260","phone":"+81-77-524-9603","source":"KSJ2","source_ref":"http://nlftp.mlit.go.jp/ksj/jpgis/datalist/KsjTmplt-P02-v2_0.html"},"type":"node","ver":3},{"id":5870323415,"lat":35.0047603,"lon":135.8636274,"tags":{"amenity":"post_box"},"type":"node","ver":1},{"id":13447265173,"lat":35.0047596,"lon":135.8679819,"tags":{"amenity":"post_box"},"type":"node","ver":1},{"id":13447424958,"lat":35.0035522,"lon":135.8640365,"tags":{"amenity":"post_box"},"type":"node","ver":1},{"id":13447447746,"lat":35.0054424,"lon":135.8674406,"tags":{"amenity":"post_box"},"type":"node","ver":1},{"id":1422941669,"lat":35.006699,"lon":135.861959,"tags":{"addr:block_number":"1","addr:city":"大津市","addr:housenumber":"23","addr:neighbourhood":"1丁目","addr:postcode":"520-0044","addr:province":"滋賀県","addr:quarter":"京町","amenity":"post_office","name":"大津京町郵便局","name:en":"Otsu Kyomachi Post Office","name:ja":"大津京町郵便局","name:ja-Hira":"おおつ きょうまち ゆうびんきょく","note":"National-Land Numerical Information (Public Facility) 2006, MLIT Japan","note:ja":"国土数値情報（公共施設データ）平成19年　国土交通省","opening_hours":"Mo-Fr 09:00-17:00","operator":"日本郵便","operator:en":"Japan Post","operator:ja":"日本郵便","operator:short":"郵便局","operator:short:en":"JP","operator:short:ja":"郵便局","operator:wikidata":"Q11509260","phone":"+81-77-524-9607","source":"KSJ2","source_ref":"http://nlftp.mlit.go.jp/ksj/jpgis/datalist/KsjTmplt-P02-v2_0.html"},"type":"node","ver":2},{"id":1422942152,"lat":35.0113638,"lon":135.8584819,"tags":{"addr:block_number":"5","addr:city":"大津市","addr:housenumber":"15","addr:neighbourhood":"3丁目","addr:postcode":"520-0046","addr:province":"滋賀県","addr:quarter":"長等","amenity":"post_office","name":"大津長等郵便局","name:en":"Otsu Nagara Post Office","name:ja":"大津長等郵便局","name:ja-Hira":"おおつ ながら ゆうびんきょく","note":"National-Land Numerical Information (Public Facility) 2006, MLIT Japan","note:ja":"国土数値情報（公共施設データ）平成19年　国土交通省","opening_hours":"Mo-Fr 09:00-17:00","operator":"日本郵便","operator:en":"Japan Post","operator:ja":"日本郵便","operator:short":"郵便局","operator:short:en":"JP","operator:short:ja":"郵便局","operator:wikidata":"Q11509260","phone":"+81-77-524-9602","source":"KSJ2","source_ref":"http://nlftp.mlit.go.jp/ksj/jpgis/datalist/KsjTmplt-P02-v2_0.html"},"type":"node","ver":4},{"id":5870458871,"lat":35.0078733,"lon":135.8623536,"tags":{"amenity":"post_box"},"type":"node","ver":1},{"id":5870497308,"lat":35.0114006,"lon":135.8582984,"tags":{"amenity":"post_box"},"type":"node","ver":1},{"id":12486245453,"lat":35.0126084,"lon":135.8573641,"tags":{"amenity":"post_box","operator":"日本郵便","post_box:type":"lamp"},"type":"node","ver":1},{"id":12730527884,"lat":35.0122629,"lon":135.8612566,"tags":{"amenity":"post_box","operator":"日本郵便","post_box:type":"lamp"},"type":"node","ver":1},{"id":1422943630,"lat":35.012044,"lon":135.863412,"tags":{"addr:block_number":"1","addr:city":"大津市","addr:housenumber":"1","addr:neighbourhood":"4丁目","addr:postcode":"520-0047","addr:province":"滋賀県","addr:quarter":"浜大津","amenity":"post_office","level":"0","name":"浜大津郵便局","name:en":"Hamaotsu Post Office","name:ja":"浜大津郵便局","name:ja-Hira":"はまおおつ ゆうびんきょく","note":"National-Land Numerical Information (Public Facility) 2006, MLIT Japan","note:ja":"国土数値情報（公共施設データ）平成19年　国土交通省","opening_hours":"Mo-Fr 09:00-17:00","operator":"日本郵便","operator:en":"Japan Post","operator:ja":"日本郵便","operator:short":"郵便局","operator:short:en":"JP","operator:short:ja":"郵便局","operator:wikidata":"Q11509260","phone":"+81-77-523-0070","source":"KSJ2","source_ref":"http://nlftp.mlit.go.jp/ksj/jpgis/datalist/KsjTmplt-P02-v2_0.html"},"type":"node","ver":2},{"id":1422942052,"lat":34.999465,"lon":135.881841,"tags":{"addr:block_number":"10","addr:city":"大津市","addr:housenumber":"19","addr:neighbourhood":"2丁目","addr:postcode":"520-0088","addr:province":"滋賀県","addr:quarter":"馬場","amenity":"post_office","name":"大津膳所駅前郵便局","name:en":"Otsu Zeze-Ekimae Post Office","name:ja":"大津膳所駅前郵便局","name:ja-Hira":"おおつ ぜぜえきまえ ゆうびんきょく","note":"National-Land Numerical Information (Public Facility) 2006, MLIT Japan","note:ja":"国土数値情報（公共施設データ）平成19年　国土交通省","opening_hours":"Mo-Fr 09:00-17:00","operator":"日本郵便","operator:en":"Japan Post","operator:ja":"日本郵便","operator:short":"郵便局","operator:short:en":"JP","operator:short:ja":"郵便局","operator:wikidata":"Q11509260","phone":"+81-77-524-9606","source":"KSJ2","source_ref":"http://nlftp.mlit.go.jp/ksj/jpgis/datalist/KsjTmplt-P02-v2_0.html"},"type":"node","ver":2},{"id":12508699753,"lat":34.9981023,"lon":135.8763893,"tags":{"addr:block_number":"9","addr:city":"大津市","addr:housenumber":"10","addr:neighbourhood":"2丁目","addr:postcode":"520-0804","addr:province":"滋賀県","addr:quarter":"本宮","amenity":"post_office","name":"大津本宮郵便局","name:en":"Otsu Motomiya Post Office","name:ja":"大津本宮郵便局","name:ja-Hira":"おおつ もとみや ゆうびんきょく","opening_hours":"Mo-Fr 09:00-17:00","operator":"日本郵便","operator:en":"Japan Post","operator:ja":"日本郵便","operator:short":"郵便局","operator:short:en":"JP","operator:short:ja":"郵便局","operator:wikidata":"Q11509260","phone":"+81-77-524-9612"},"type":"node","ver":1},{"id":1422941667,"lat":34.988457,"lon":135.8939901,"tags":{"addr:block_number":"8","addr:city":"大津市","addr:housenumber":"5","addr:neighbourhood":"1丁目","addr:postcode":"520-0837","addr:province":"滋賀県","addr:quarter":"中庄","amenity":"post_office","check_date":"2026-03-15","name":"大津中庄郵便局","name:en":"Otsu Nakasho Post Office","name:ja":"大津中庄郵便局","name:ja-Hira":"おおつ なかしょう ゆうびんきょく","note":"National-Land Numerical Information (Public Facility) 2006, MLIT Japan","note:ja":"国土数値情報（公共施設データ）平成19年　国土交通省","opening_hours":"Mo-Fr 09:00-17:00","operator":"日本郵便","operator:en":"Japan Post","operator:ja":"日本郵便","operator:short":"郵便局","operator:short:en":"JP","operator:short:ja":"郵便局","operator:wikidata":"Q11509260","phone":"+81-77-534-3460","source":"KSJ2","source_ref":"http://nlftp.mlit.go.jp/ksj/jpgis/datalist/KsjTmplt-P02-v2_0.html"},"type":"node","ver":3},{"id":7105744359,"lat":34.9900812,"lon":135.8938942,"tags":{"amenity":"post_box","collection_times":"Mo-Fr 10:17,16:17; Sa,Su,PH 10:17,14:27","ref":"520309"},"type":"node","ver":4},{"id":13648953724,"lat":34.9884754,"lon":135.8940604,"tags":{"amenity":"post_box"},"type":"node","ver":1},{"id":12508699754,"lat":34.9952299,"lon":135.8920764,"tags":{"addr:block_number":"3","addr:city":"大津市","addr:housenumber":"32","addr:postcode":"520-0813","addr:province":"滋賀県","addr:quarter":"丸の内町","amenity":"post_office","name":"大津膳所本町郵便局","name:en":"Otsu Zezehommachi Post Office","name:ja":"大津膳所本町郵便局","name:ja-Hira":"おおつ ぜぜほんまち ゆうびんきょく","note":"National-Land Numerical Information (Public Facility) 2006, MLIT Japan","note:ja":"国土数値情報（公共施設データ）平成19年　国土交通省","opening_hours":"Mo-Fr 09:00-17:00","operator":"日本郵便","operator:en":"Japan Post","operator:ja":"日本郵便","operator:short":"郵便局","operator:short:en":"JP","operator:short:ja":"郵便局","operator:wikidata":"Q11509260","phone":"+81-77-524-9608","source":"KSJ2","source_ref":"http://nlftp.mlit.go.jp/ksj/jpgis/datalist/KsjTmplt-P02-v2_0.html"},"type":"node","ver":1},{"id":13916658276,"lat":34.9949569,"lon":135.8895614,"tags":{"amenity":"post_box"},"type":"node","ver":1},{"id":1422942016,"lat":35.0047621,"lon":135.8741107,"tags":{"addr:block_number":"10","addr:city":"大津市","addr:housenumber":"12","addr:neighbourhood":"2丁目","addr:postcode":"520-0807","addr:province":"滋賀県","addr:quarter":"松本","amenity":"post_office","name":"大津松本郵便局","name:en":"Otsu Matsumoto Post Office","name:ja":"大津松本郵便局","name:ja-Hira":"おおつ まつもと ゆうびんきょく","note":"National-Land Numerical Information (Public Facility) 2006, MLIT Japan","note:ja":"国土数値情報（公共施設データ）平成19年　国土交通省","opening_hours":"Mo-Fr 09:00-17:00","operator":"日本郵便","operator:en":"Japan Post","operator:ja":"日本郵便","operator:short":"郵便局","operator:short:en":"JP","operator:short:ja":"郵便局","operator:wikidata":"Q11509260","phone":"+81-77-524-9605","source":"KSJ2","source_ref":"http://nlftp.mlit.go.jp/ksj/jpgis/datalist/KsjTmplt-P02-v2_0.html"},"type":"node","ver":3},{"id":5817471154,"lat":35.004652,"lon":135.8704378,"tags":{"addr:block_number":"4","addr:city":"大津市","addr:housenumber":"23","addr:neighbourhood":"4丁目","addr:postcode":"520-0044","addr:province":"滋賀県","addr:quarter":"京町","amenity":"post_office","check_date":"2026-01-11","level":"0","name":"滋賀県庁前郵便局","name:en":"Shiga Kencho-mae Post Office","name:ja":"滋賀県庁前郵便局","name:ja-Hira":"しが けんちょうまえ ゆうびんきょく","opening_hours":"Mo-Fr 09:00-17:00","operator":"日本郵便","operator:en":"Japan Post","operator:ja":"日本郵便","operator:short":"郵便局","operator:short:en":"JP","operator:short:ja":"郵便局","operator:wikidata":"Q11509260","phone":"+81-77-24-9604"},"type":"node","ver":4},{"id":13447240659,"lat":35.004606,"lon":135.8703654,"tags":{"amenity":"post_box"},"type":"node","ver":1},{"id":7105820527,"lat":35.0031231,"lon":135.8806591,"tags":{"amenity":"post_box"},"type":"node","ver":1},{"id":12944047451,"lat":35.0056453,"lon":135.8800438,"tags":{"amenity":"post_box"},"type":"node","ver":1},{"id":12508699752,"lat":35.0065493,"lon":135.8741901,"tags":{"addr:block_number":"1","addr:city":"大津市","addr:housenumber":"4","addr:postcode":"520-8799","addr:province":"滋賀県","addr:quarter":"打出浜","amenity":"post_office","name":"大津中央郵便局","name:en":"Otsu Central Post Office","name:en1":"Otsu Chuo Post Office","name:es":"Oficina de Correos de Otsu Central","name:ja":"大津中央郵便局","name:ja-Hira":"おおつ ちゅうおう ゆうびんきょく","operator":"日本郵便","operator:en":"Japan Post","operator:ja":"日本郵便","operator:short":"郵便局","operator:short:en":"JP","operator:short:ja":"郵便局","operator:wikidata":"Q11509260","phone":"+81-800-0800-111","wikidata":"Q11437255","wikipedia":"ja:大津中央郵便局"},"type":"node","ver":1},{"id":1422941805,"lat":35.0176912,"lon":135.8547561,"tags":{"addr:block_number":"3","addr:city":"大津市","addr:housenumber":"1","addr:postcode":"520-0037","addr:province":"滋賀県","addr:quarter":"御陵町","amenity":"post_office","name":"大津市役所内郵便局","name:en":"Otsu Shiyakusho-nai Post Office","name:ja":"大津市役所内郵便局","name:ja-Hira":"おおつ しやくしょない ゆうびんきょく","note":"National-Land Numerical Information (Public Facility) 2006, MLIT Japan","note:ja":"国土数値情報（公共施設データ）平成19年　国土交通省","opening_hours":"Mo-Fr 09:00-17:00","operator":"日本郵便","operator:en":"Japan Post","operator:ja":"日本郵便","operator:short":"郵便局","operator:short:en":"JP","operator:short:ja":"郵便局","operator:wikidata":"Q11509260","phone":"+81-77-524-9610","source":"KSJ2","source_ref":"http://nlftp.mlit.go.jp/ksj/jpgis/datalist/KsjTmplt-P02-v2_0.html"},"type":"node","ver":3},{"id":5872385211,"lat":35.0175432,"lon":135.855096,"tags":{"amenity":"post_box"},"type":"node","ver":1},{"id":5872393502,"lat":35.0150223,"lon":135.8554396,"tags":{"amenity":"post_box"},"type":"node","ver":1},{"id":1422942063,"lat":35.0143864,"lon":135.8594563,"tags":{"addr:block_number":"7","addr:city":"大津市","addr:housenumber":"1","addr:postcode":"520-0032","addr:province":"滋賀県","addr:quarter":"観音寺","amenity":"post_office","name":"大津観音寺郵便局","name:en":"Otsu Kannonji Post Office","name:ja":"大津観音寺郵便局","name:ja-Hira":"おおつ かんのんじ ゆうびんきょく","note":"National-Land Numerical Information (Public Facility) 2006, MLIT Japan","note:ja":"国土数値情報（公共施設データ）平成19年　国土交通省","opening_hours":"Mo-Fr 09:00-17:00","operator":"日本郵便","operator:en":"Japan Post","operator:ja":"日本郵便","operator:short":"郵便局","operator:short:en":"JP","operator:short:ja":"郵便局","operator:wikidata":"Q11509260","phone":"+81-77-524-9601","source":"KSJ2","source_ref":"http://nlftp.mlit.go.jp/ksj/jpgis/datalist/KsjTmplt-P02-v2_0.html"},"type":"node","ver":3},{"id":5872393504,"lat":35.0149591,"lon":135.8580269,"tags":{"amenity":"post_box"},"type":"node","ver":1},{"id":5871290906,"lat":35.0238238,"lon":135.8568328,"tags":{"amenity":"post_box"},"type":"node","ver":1},{"id":12508699750,"lat":35.0295294,"lon":135.8548246,"tags":{"addr:block_number":"9","addr:city":"大津市","addr:housenumber":"12","addr:neighbourhood":"2丁目","addr:postcode":"520-0027","addr:province":"滋賀県","addr:quarter":"錦織","amenity":"post_office","name":"大津錦織郵便局","name:en":"Otsu Nishikori Post Office","name:ja":"大津錦織郵便局","name:ja-Hira":"おおつ にしこおり ゆうびんきょく","opening_hours":"Mo-Fr 09:00-17:00","operator":"日本郵便","operator:en":"Japan Post","operator:ja":"日本郵便","operator:short":"郵便局","operator:short:en":"JP","operator:short:ja":"郵便局","operator:wikidata":"Q11509260","phone":"+81-77-524-9611"},"type":"node","ver":1},{"id":9587090669,"lat":35.0296887,"lon":135.8664048,"tags":{"amenity":"post_box","operator":"日本郵便","operator:en":"Japan Post","operator:ja":"日本郵便","operator:short":"郵便局","operator:short:en":"JP","operator:short:ja":"郵便局","operator:wikidata":"Q11509260","operator:wikipedia":"ja:日本郵便","short_name:en":"JP"},"type":"node","ver":2},{"id":1422941742,"lat":35.036585,"lon":135.857126,"tags":{"addr:block_number":"1","addr:city":"大津市","addr:housenumber":"3","addr:neighbourhood":"2丁目","addr:postcode":"520-0011","addr:province":"滋賀県","addr:quarter":"南志賀","amenity":"post_office","name":"大津南志賀郵便局","name:en":"Otsu Minamishiga Post Office","name:ja":"大津南志賀郵便局","name:ja-Hira":"おおつ みなみしが ゆうびんきょく","note":"National-Land Numerical Information (Public Facility) 2006, MLIT Japan","note:ja":"国土数値情報（公共施設データ）平成19年　国土交通省","opening_hours":"Mo-Fr 09:00-17:00","operator":"日本郵便","operator:en":"Japan Post","operator:ja":"日本郵便","operator:short":"郵便局","operator:short:en":"JP","operator:short:ja":"郵便局","operator:wikidata":"Q11509260","phone":"+81-77-524-9600","source":"KSJ2","source_ref":"http://nlftp.mlit.go.jp/ksj/jpgis/datalist/KsjTmplt-P02-v2_0.html"},"type":"node","ver":2},{"id":2766716865,"lat":35.0372337,"lon":135.8651228,"tags":{"amenity":"post_box","source":"survey"},"type":"node","ver":1},{"id":5207607922,"lat":35.0695542,"lon":135.8415298,"tags":{"amenity":"post_box"},"type":"node","ver":1},{"id":1422941630,"lat":35.042806,"lon":135.864264,"tags":{"addr:block_number":"10","addr:city":"大津市","addr:housenumber":"7","addr:postcode":"520-0003","addr:province":"滋賀県","addr:quarter":"あかね町","amenity":"post_office","name":"大津あかね郵便局","name:en":"Otsu Akane Post Office","name:ja":"大津あかね郵便局","name:ja-Hira":"おおつ あかね ゆうびんきょく","note":"National-Land Numerical Information (Public Facility) 2006, MLIT Japan","note:ja":"国土数値情報（公共施設データ）平成19年　国土交通省","opening_hours":"Mo-Fr 09:00-17:00","operator":"日本郵便","operator:en":"Japan Post","operator:ja":"日本郵便","operator:short":"郵便局","operator:short:en":"JP","operator:short:ja":"郵便局","operator:wikidata":"Q11509260","phone":"+81-77-522-0344","source":"KSJ2","source_ref":"http://nlftp.mlit.go.jp/ksj/jpgis/datalist/KsjTmplt-P02-v2_0.html"},"type":"node","ver":2},{"id":1422943904,"lat":35.046861,"lon":135.859625,"tags":{"addr:block_number":"1","addr:city":"大津市","addr:housenumber":"29","addr:neighbourhood":"3丁目","addr:postcode":"520-0006","addr:province":"滋賀県","addr:quarter":"滋賀里","amenity":"post_office","name":"滋賀里簡易郵便局","name:en":"Shigasato Summary Post Office","name:ja":"滋賀里簡易郵便局","name:ja-Hira":"しがさと かんいゆうびんきょく","note":"National-Land Numerical Information (Public Facility) 2006, MLIT Japan","note:ja":"国土数値情報（公共施設データ）平成19年　国土交通省","opening_hours":"Mo-Fr 09:00-17:00","operator":"日本郵便","operator:en":"Japan Post","operator:ja":"日本郵便","operator:short":"郵便局","operator:short:en":"JP","operator:short:ja":"郵便局","operator:wikidata":"Q11509260","phone":"+81-77-524-9063","source":"KSJ2","source_ref":"http://nlftp.mlit.go.jp/ksj/jpgis/datalist/KsjTmplt-P02-v2_0.html"},"type":"node","ver":2},{"id":1422941745,"lat":35.048417,"lon":135.86418,"tags":{"addr:block_number":"3","addr:city":"大津市","addr:housenumber":"20","addr:neighbourhood":"3丁目","addr:postcode":"520-0106","addr:province":"滋賀県","addr:quarter":"唐崎","amenity":"post_office","name":"大津唐崎郵便局","name:en":"Otsu Karasaki Post Office","name:ja":"大津唐崎郵便局","name:ja-Hira":"おおつ からさき ゆうびんきょく","note":"National-Land Numerical Information (Public Facility) 2006, MLIT Japan","note:ja":"国土数値情報（公共施設データ）平成19年　国土交通省","opening_hours":"Mo-Fr 09:00-17:00","operator":"日本郵便","operator:en":"Japan Post","operator:ja":"日本郵便","operator:short":"郵便局","operator:short:en":"JP","operator:short:ja":"郵便局","operator:wikidata":"Q11509260","phone":"+81-77-578-9010","source":"KSJ2","source_ref":"http://nlftp.mlit.go.jp/ksj/jpgis/datalist/KsjTmplt-P02-v2_0.html"},"type":"node","ver":2},{"id":5808226336,"lat":35.0498966,"lon":135.8668651,"tags":{"amenity":"post_box"},"type":"node","ver":1},{"id":5807817656,"lat":35.0561008,"lon":135.8650308,"tags":{"amenity":"post_box"},"type":"node","ver":1},{"id":5793954960,"lat":35.0472572,"lon":135.8731797,"tags":{"amenity":"post_box"},"type":"node","ver":1},{"id":1422941640,"lat":35.0628546,"lon":135.8746467,"tags":{"addr:block_number":"16","addr:city":"大津市","addr:housenumber":"19","addr:neighbourhood":"3丁目","addr:postcode":"520-0105","addr:province":"滋賀県","addr:quarter":"下阪本","amenity":"post_office","name":"大津下阪本郵便局","name:en":"Otsu Shimosakamoto Post Office","name:ja":"大津下阪本郵便局","name:ja-Hira":"おおつ しもさかもと ゆうびんきょく","note":"National-Land Numerical Information (Public Facility) 2006, MLIT Japan","note:ja":"国土数値情報（公共施設データ）平成19年　国土交通省","opening_hours":"Mo-Fr 09:00-17:00","operator":"日本郵便","operator:en":"Japan Post","operator:ja":"日本郵便","operator:short":"郵便局","operator:short:en":"JP","operator:short:ja":"郵便局","operator:wikidata":"Q11509260","phone":"+81-77-578-0903","source":"KSJ2","source_ref":"http://nlftp.mlit.go.jp/ksj/jpgis/datalist/KsjTmplt-P02-v2_0.html"},"type":"node","ver":3},{"id":5207817523,"lat":35.071066,"lon":135.865761,"tags":{"amenity":"post_box"},"type":"node","ver":1},{"id":4326936683,"lat":35.0703769,"lon":135.8783052,"tags":{"amenity":"post_box"},"type":"node","ver":1},{"id":1422941790,"lat":35.072442,"lon":135.871901,"tags":{"addr:block_number":"3","addr:city":"大津市","addr:housenumber":"40","addr:neighbourhood":"6丁目","addr:postcode":"520-0113","addr:province":"滋賀県","addr:quarter":"坂本","amenity":"post_office","name":"大津坂本本町郵便局","name:en":"Otsu Sakamotohommachi Post Office","name:ja":"大津坂本本町郵便局","name:ja-Hira":"おおつ さかもとほんまち ゆうびんきょく","note":"National-Land Numerical Information (Public Facility) 2006, MLIT Japan","note:ja":"国土数値情報（公共施設データ）平成19年　国土交通省","opening_hours":"Mo-Fr 09:00-17:00","operator":"日本郵便","operator:en":"Japan Post","operator:ja":"日本郵便","operator:short":"郵便局","operator:short:en":"JP","operator:short:ja":"郵便局","operator:wikidata":"Q11509260","phone":"+81-77-579-1000","source":"KSJ2","source_ref":"http://nlftp.mlit.go.jp/ksj/jpgis/datalist/KsjTmplt-P02-v2_0.html"},"type":"node","ver":2},{"id":8265677717,"lat":35.0724222,"lon":135.8721099,"tags":{"amenity":"post_box"},"type":"node","ver":1},{"id":1422941655,"lat":35.070103,"lon":135.8847257,"tags":{"addr:block_number":"15","addr:city":"大津市","addr:housenumber":"10","addr:neighbourhood":"1丁目","addr:postcode":"520-0104","addr:province":"滋賀県","addr:quarter":"比叡辻","amenity":"post_office","name":"比叡辻郵便局","name:en":"Hieitsuji Post Office","name:ja":"比叡辻郵便局","name:ja-Hira":"ひえいつじ ゆうびんきょく","note":"National-Land Numerical Information (Public Facility) 2006, MLIT Japan","note:ja":"国土数値情報（公共施設データ）平成19年　国土交通省","opening_hours":"Mo-Fr 09:00-17:00","operator":"日本郵便","operator:en":"Japan Post","operator:ja":"日本郵便","operator:short":"郵便局","operator:short:en":"JP","operator:short:ja":"郵便局","operator:wikidata":"Q11509260","phone":"+81-77-578-5000","source":"KSJ2","source_ref":"http://nlftp.mlit.go.jp/ksj/jpgis/datalist/KsjTmplt-P02-v2_0.html"},"type":"node","ver":2},{"id":1422942001,"lat":35.081052,"lon":135.876761,"tags":{"addr:block_number":"20","addr:city":"大津市","addr:housenumber":"15","addr:neighbourhood":"2丁目","addr:postcode":"520-0112","addr:province":"滋賀県","addr:quarter":"日吉台","amenity":"post_office","check_date:opening_hours":"2026-07-23","name":"大津日吉台郵便局","name:en":"Otsu Hiyoshidai Post Office","name:ja":"大津日吉台郵便局","name:ja-Hira":"おおつ ひよしだい ゆうびんきょく","note":"National-Land Numerical Information (Public Facility) 2006, MLIT Japan","note:ja":"国土数値情報（公共施設データ）平成19年　国土交通省","opening_hours":"Mo-Fr 09:00-17:00","operator":"日本郵便","operator:en":"Japan Post","operator:ja":"日本郵便","operator:short":"郵便局","operator:short:en":"JP","operator:short:ja":"郵便局","operator:wikidata":"Q11509260","phone":"+81-77-579-0121","source":"KSJ2","source_ref":"http://nlftp.mlit.go.jp/ksj/jpgis/datalist/KsjTmplt-P02-v2_0.html"},"type":"node","ver":3},{"id":1422942153,"lat":35.089634,"lon":135.894787,"tags":{"addr:block_number":"17","addr:city":"大津市","addr:housenumber":"21","addr:neighbourhood":"1丁目","addr:postcode":"520-0101","addr:province":"滋賀県","addr:quarter":"雄琴","amenity":"post_office","name":"大津雄琴郵便局","name:en":"Otsu Ogoto Post Office","name:ja":"大津雄琴郵便局","name:ja-Hira":"おおつ おごと ゆうびんきょく","note":"National-Land Numerical Information (Public Facility) 2006, MLIT Japan","note:ja":"国土数値情報（公共施設データ）平成19年　国土交通省","opening_hours":"Mo-Fr 09:00-17:00","operator":"日本郵便","operator:en":"Japan Post","operator:ja":"日本郵便","operator:short":"郵便局","operator:short:en":"JP","operator:short:ja":"郵便局","operator:wikidata":"Q11509260","phone":"+81-77-578-0952","source":"KSJ2","source_ref":"http://nlftp.mlit.go.jp/ksj/jpgis/datalist/KsjTmplt-P02-v2_0.html"},"type":"node","ver":2},{"id":1422940333,"lat":35.107521,"lon":135.880983,"tags":{"addr:block_number":"6","addr:city":"大津市","addr:housenumber":"1","addr:neighbourhood":"2丁目","addr:postcode":"520-0247","addr:province":"滋賀県","addr:quarter":"仰木","amenity":"post_office","name":"仰木郵便局","name:en":"Oogi Post Office","name:ja":"仰木郵便局","name:ja-Hira":"おおぎ ゆうびんきょく","note":"National-Land Numerical Information (Public Facility) 2006, MLIT Japan","note:ja":"国土数値情報（公共施設データ）平成19年　国土交通省","opening_hours":"Mo-Fr 09:00-17:00","operator":"日本郵便","operator:en":"Japan Post","operator:ja":"日本郵便","operator:short":"郵便局","operator:short:en":"JP","operator:short:ja":"郵便局","operator:wikidata":"Q11509260","phone":"+81-77-572-1952","source":"KSJ2","source_ref":"http://nlftp.mlit.go.jp/ksj/jpgis/datalist/KsjTmplt-P02-v2_0.html"},"type":"node","ver":2},{"id":1422941671,"lat":35.109354,"lon":135.893953,"tags":{"addr:block_number":"1","addr:city":"大津市","addr:housenumber":"28","addr:neighbourhood":"7丁目","addr:postcode":"520-0246","addr:province":"滋賀県","addr:quarter":"仰木の里","amenity":"post_office","check_date:opening_hours":"2026-07-13","name":"大津仰木の里郵便局","name:en":"Ots Ooginosato Post Office","name:ja":"大津仰木の里郵便局","name:ja-Hira":"おおつ おおぎのさと ゆうびんきょく","note":"National-Land Numerical Information (Public Facility) 2006, MLIT Japan","note:ja":"国土数値情報（公共施設データ）平成19年　国土交通省","opening_hours":"Mo-Fr 09:00-17:00","operator":"日本郵便","operator:en":"Japan Post","operator:ja":"日本郵便","operator:short":"郵便局","operator:short:en":"JP","operator:short:ja":"郵便局","operator:wikidata":"Q11509260","phone":"+81-77-573-5583","source":"KSJ2","source_ref":"http://nlftp.mlit.go.jp/ksj/jpgis/datalist/KsjTmplt-P02-v2_0.html"},"type":"node","ver":3},{"id":1422941682,"lat":35.1336445,"lon":135.8886706,"tags":{"addr:block_number":"108","addr:city":"大津市","addr:housenumber":"7","addr:postcode":"520-0353","addr:province":"滋賀県","addr:quarter":"伊香立向在地町","amenity":"post_office","name":"大津伊香立郵便局","name:en":"Otsu Ikadachi Post Office","name:ja":"大津伊香立郵便局","name:ja-Hira":"おおつ いかだち ゆうびんきょく","note":"National-Land Numerical Information (Public Facility) 2006, MLIT Japan","note:ja":"国土数値情報（公共施設データ）平成19年　国土交通省","opening_hours":"Mo-Fr 09:00-17:00","operator":"日本郵便","operator:en":"Japan Post","operator:ja":"日本郵便","operator:short":"郵便局","operator:short:en":"JP","operator:short:ja":"郵便局","operator:wikidata":"Q11509260","phone":"+81-77-598-3000","source":"KSJ2","source_ref":"http://nlftp.mlit.go.jp/ksj/jpgis/datalist/KsjTmplt-P02-v2_0.html"},"type":"node","ver":3},{"id":2751792613,"lat":35.1338645,"lon":135.8887209,"tags":{"amenity":"post_box","source":"survey"},"type":"node","ver":1},{"id":2751521980,"lat":35.1670296,"lon":135.8590077,"tags":{"amenity":"post_box","source":"survey"},"type":"node","ver":1},{"id":1422944768,"lat":35.244755,"lon":135.867436,"tags":{"addr:block_number":"58","addr:city":"大津市","addr:housenumber":"2","addr:postcode":"520-0475","addr:province":"滋賀県","addr:quarter":"葛川坊村町","amenity":"post_office","name":"葛川郵便局","name:en":"Katsuragawa Post Office","name:ja":"葛川郵便局","name:ja-Hira":"かつらがわ ゆうびんきょく","note":"National-Land Numerical Information (Public Facility) 2006, MLIT Japan","note:ja":"国土数値情報（公共施設データ）平成19年　国土交通省","opening_hours":"Mo-Fr 09:00-17:00","operator":"日本郵便","operator:en":"Japan Post","operator:ja":"日本郵便","operator:short":"郵便局","operator:short:en":"JP","operator:short:ja":"郵便局","operator:wikidata":"Q11509260","phone":"+81-77-599-2050","source":"KSJ2","source_ref":"http://nlftp.mlit.go.jp/ksj/jpgis/datalist/KsjTmplt-P02-v2_0.html"},"type":"node","ver":2},{"id":1422941077,"lat":35.3431053,"lon":135.8090347,"tags":{"addr:block_number":"36","addr:city":"高島市","addr:housenumber":"1","addr:postcode":"520-1441","addr:province":"滋賀県","addr:quarter":"朽木古屋","amenity":"post_office","name":"古屋簡易郵便局","name:en":"Furuya Summary Post Office","name:ja":"古屋簡易郵便局","name:ja-Hira":"ふるや かんいゆうびんきょく","note":"National-Land Numerical Information (Public Facility) 2006, MLIT Japan","note:ja":"国土数値情報（公共施設データ）平成19年　国土交通省","opening_hours":"Mo-Fr","operator":"日本郵便","operator:en":"Japan Post","operator:ja":"日本郵便","operator:short":"郵便局","operator:short:en":"JP","operator:short:ja":"郵便局","operator:wikidata":"Q11509260","phone":"+81-740-38-5008","source":"KSJ2","source_ref":"http://nlftp.mlit.go.jp/ksj/jpgis/datalist/KsjTmplt-P02-v2_0.html"},"type":"node","ver":2},{"id":4967297625,"lat":34.85493,"lon":135.9869845,"tags":{"addr:block_number":"754","addr:city":"甲賀市","addr:housenumber":"2","addr:postcode":"529-1841","addr:province":"滋賀県","addr:quarter":"信楽町上朝宮","amenity":"post_office","name":"朝宮郵便局","name:en":"Asamiya Post Office","name:es":"Oficina de Correos de Asamiya","name:ja":"朝宮郵便局","name:ja-Hira":"あさみや ゆうびんきょく","opening_hours":"Mo-Fr 09:00-17:00","operator":"日本郵便","operator:en":"Japan Post","operator:ja":"日本郵便","operator:short":"郵便局","operator:short:en":"JP","operator:short:ja":"郵便局","operator:wikidata":"Q11509260","phone":"+81-748-84-0050"},"type":"node","ver":2},{"id":1422941793,"lat":34.910711,"lon":135.9131565,"tags":{"addr:block_number":"6","addr:city":"大津市","addr:housenumber":"1","addr:neighbourhood":"1丁目","addr:postcode":"520-2263","addr:province":"滋賀県","addr:quarter":"大石中","amenity":"post_office","name":"大津大石郵便局","name:en":"Otsu Oishi Post Office","name:ja":"大津大石郵便局","name:ja-Hira":"おおつ おおいし ゆうびんきょく","note":"National-Land Numerical Information (Public Facility) 2006, MLIT Japan","note:ja":"国土数値情報（公共施設データ）平成19年　国土交通省","opening_hours":"Mo-Fr 09:00-17:00","operator":"日本郵便","operator:en":"Japan Post","operator:ja":"日本郵便","operator:short":"郵便局","operator:short:en":"JP","operator:short:ja":"郵便局","operator:wikidata":"Q11509260","phone":"+81-77-546-0902","source":"KSJ2","source_ref":"http://nlftp.mlit.go.jp/ksj/jpgis/datalist/KsjTmplt-P02-v2_0.html"},"type":"node","ver":3},{"id":1422945636,"lat":34.929403,"lon":135.922093,"tags":{"addr:block_number":"5","addr:city":"大津市","addr:housenumber":"8","addr:neighbourhood":"1丁目","addr:postcode":"520-2277","addr:province":"滋賀県","addr:quarter":"関津","amenity":"post_office","name":"関ノ津郵便局","name:en":"Sekinotsu Post Office","name:ja":"関ノ津郵便局","name:ja-Hira":"せきのつ ゆうびんきょく","note":"National-Land Numerical Information (Public Facility) 2006, MLIT Japan","note:ja":"国土数値情報（公共施設データ）平成19年　国土交通省","opening_hours":"Mo-Fr 09:00-17:00","operator":"日本郵便","operator:en":"Japan Post","operator:ja":"日本郵便","operator:short":"郵便局","operator:short:en":"JP","operator:short:ja":"郵便局","operator:wikidata":"Q11509260","phone":"+81-77-546-0300","source":"KSJ2","source_ref":"http://nlftp.mlit.go.jp/ksj/jpgis/datalist/KsjTmplt-P02-v2_0.html"},"type":"node","ver":2},{"id":1422942283,"lat":34.851078,"lon":136.037778,"tags":{"addr:block_number":"302","addr:city":"甲賀市","addr:postcode":"529-1833","addr:province":"滋賀県","addr:quarter":"信楽町小川","amenity":"post_office","name":"小川簡易郵便局","name:en":"Ogawa Summary Post Office","name:ja":"小川簡易郵便局","name:ja-Hira":"おがわ かんいゆうびんきょく","note":"National-Land Numerical Information (Public Facility) 2006, MLIT Japan","note:ja":"国土数値情報（公共施設データ）平成19年　国土交通省","opening_hours":"Mo-Fr 09:00-17:00","operator":"日本郵便","operator:en":"Japan Post","operator:ja":"日本郵便","operator:short":"郵便局","operator:short:en":"JP","operator:short:ja":"郵便局","operator:wikidata":"Q11509260","phone":"+81-748-82-1212","source":"KSJ2","source_ref":"http://nlftp.mlit.go.jp/ksj/jpgis/datalist/KsjTmplt-P02-v2_0.html"},"type":"node","ver":2},{"id":1422940536,"lat":34.8763301,"lon":136.0548505,"tags":{"addr:block_number":"441","addr:city":"甲賀市","addr:housenumber":"2","addr:postcode":"529-1899","addr:province":"滋賀県","addr:quarter":"信楽町長野","amenity":"post_office","name":"信楽郵便局","name:ay":"Shigaraki Correo ukan irnaqiri","name:en":"Shigaraki Post Office","name:es":"Oficina de Correos de Shigaraki","name:fr":"Bureau de poste de Shigaraki","name:ja":"信楽郵便局","name:ja-Hira":"しがらき ゆうびんきょく","name:ko":"시가라키 우체국","name:qu":"Shigaraki Correo wasi","name:ru":"Почтовое отделение Сигараки","name:tr":"Şigaraki Postanesi","note":"National-Land Numerical Information (Public Facility) 2006, MLIT Japan","note:ja":"国土数値情報（公共施設データ）平成19年　国土交通省","opening_hours":"Mo-Fr 09:00-17:00","operator":"日本郵便","operator:en":"Japan Post","operator:ja":"日本郵便","operator:short":"郵便局","operator:short:en":"JP","operator:short:ja":"郵便局","operator:wikidata":"Q11509260","phone":"+81-748-82-0550","source":"KSJ2","source_ref":"http://nlftp.mlit.go.jp/ksj/jpgis/datalist/KsjTmplt-P02-v2_0.html"},"type":"node","ver":2},{"id":1422945673,"lat":34.912185,"lon":136.082217,"tags":{"addr:block_number":"811","addr:city":"甲賀市","addr:housenumber":"4","addr:postcode":"529-1803","addr:province":"滋賀県","addr:quarter":"信楽町牧","amenity":"post_office","name":"雲井郵便局","name:en":"Kumoi Post Office","name:ja":"雲井郵便局","name:ja-Hira":"くもい ゆうびんきょく","note":"National-Land Numerical Information (Public Facility) 2006, MLIT Japan","note:ja":"国土数値情報（公共施設データ）平成19年　国土交通省","opening_hours":"Mo-Fr 09:00-17:00","operator":"日本郵便","operator:en":"Japan Post","operator:ja":"日本郵便","operator:short":"郵便局","operator:short:en":"JP","operator:short:ja":"郵便局","operator:wikidata":"Q11509260","phone":"+81-748-83-0050","source":"KSJ2","source_ref":"http://nlftp.mlit.go.jp/ksj/jpgis/datalist/KsjTmplt-P02-v2_0.html"},"type":"node","ver":2},{"id":1422941741,"lat":34.944123,"lon":135.897428,"tags":{"addr:block_number":"718","addr:city":"大津市","addr:housenumber":"4","addr:neighbourhood":"3丁目","addr:postcode":"520-0863","addr:province":"滋賀県","addr:quarter":"千町","amenity":"post_office","name":"大津千町簡易郵便局","name:en":"Otsu Sencho Summary Post Office","name:ja":"大津千町簡易郵便局","name:ja-Hira":"おおつ せんちょう かんいゆうびんきょく","note":"National-Land Numerical Information (Public Facility) 2006, MLIT Japan","note:ja":"国土数値情報（公共施設データ）平成19年　国土交通省","opening_hours":"Mo-Fr 09:00-17:00","operator":"日本郵便","operator:en":"Japan Post","operator:ja":"日本郵便","operator:short":"郵便局","operator:short:en":"JP","operator:short:ja":"郵便局","operator:wikidata":"Q11509260","phone":"+81-77-534-0323","source":"KSJ2","source_ref":"http://nlftp.mlit.go.jp/ksj/jpgis/datalist/KsjTmplt-P02-v2_0.html"},"type":"node","ver":2},{"id":1422941743,"lat":34.9440797,"lon":135.9070136,"tags":{"addr:block_number":"5","addr:city":"大津市","addr:housenumber":"23","addr:neighbourhood":"1丁目","addr:postcode":"520-0865","addr:province":"滋賀県","addr:quarter":"南郷","amenity":"post_office","name":"大津南郷郵便局","name:en":"Otsu Nango Post Office","name:ja":"大津南郷郵便局","name:ja-Hira":"おおつ なんごう ゆうびんきょく","note":"National-Land Numerical Information (Public Facility) 2006, MLIT Japan","note:ja":"国土数値情報（公共施設データ）平成19年　国土交通省","opening_hours":"Mo-Fr 09:00-17:00","operator":"日本郵便","operator:en":"Japan Post","operator:ja":"日本郵便","operator:short":"郵便局","operator:short:en":"JP","operator:short:ja":"郵便局","operator:wikidata":"Q11509260","phone":"+81-77-534-2085","source":"KSJ2","source_ref":"http://nlftp.mlit.go.jp/ksj/jpgis/datalist/KsjTmplt-P02-v2_0.html"},"type":"node","ver":3},{"id":1422944153,"lat":34.954121,"lon":135.904758,"tags":{"addr:block_number":"20","addr:city":"大津市","addr:housenumber":"5","addr:neighbourhood":"3丁目","addr:postcode":"520-0861","addr:province":"滋賀県","addr:quarter":"石山寺","amenity":"post_office","name":"石山別所郵便局","name:en":"Ishiyama Bessho Post Office","name:ja":"石山別所郵便局","name:ja-Hira":"いしやま べっしょ ゆうびんきょく","note":"National-Land Numerical Information (Public Facility) 2006, MLIT Japan","note:ja":"国土数値情報（公共施設データ）平成19年　国土交通省","opening_hours":"Mo-Fr 09:00-17:00","operator":"日本郵便","operator:en":"Japan Post","operator:ja":"日本郵便","operator:short":"郵便局","operator:short:en":"JP","operator:short:ja":"郵便局","operator:wikidata":"Q11509260","phone":"+81-77-534-4387","source":"KSJ2","source_ref":"http://nlftp.mlit.go.jp/ksj/jpgis/datalist/KsjTmplt-P02-v2_0.html"},"type":"node","ver":2},{"id":8180809517,"lat":34.9615083,"lon":135.9073797,"tags":{"amenity":"post_box"},"type":"node","ver":8},{"id":12508699756,"lat":34.9615006,"lon":135.9072532,"tags":{"addr:block_number":"3","addr:city":"大津市","addr:housenumber":"24","addr:neighbourhood":"1丁目","addr:postcode":"520-0861","addr:province":"滋賀県","addr:quarter":"石山寺","amenity":"post_office","name":"石山寺郵便局","name:en":"Ishiyamadera Post Office","name:ja":"石山寺郵便局","name:ja-Hira":"いしやまでら ゆうびんきょく","opening_hours":"Mo-Fr 09:00-17:00","operator":"日本郵便","operator:en":"Japan Post","operator:ja":"日本郵便","operator:short":"郵便局","operator:short:en":"JP","operator:short:ja":"郵便局","operator:wikidata":"Q11509260","phone":"+81-77-534-4300","source":"Bing"},"type":"node","ver":1},{"id":1422942028,"lat":34.971982,"lon":135.908955,"tags":{"addr:block_number":"3","addr:city":"大津市","addr:housenumber":"29","addr:neighbourhood":"2丁目","addr:postcode":"520-2134","addr:province":"滋賀県","addr:quarter":"瀬田","amenity":"post_office","name":"大津瀬田橋本郵便局","name:en":"Otsu Setahashimoto Post Office","name:ja":"大津瀬田橋本郵便局","name:ja-Hira":"おおつ せたはしもと ゆうびんきょく","note":"National-Land Numerical Information (Public Facility) 2006, MLIT Japan","note:ja":"国土数値情報（公共施設データ）平成19年　国土交通省","opening_hours":"Mo-Fr 09:00-17:00","operator":"日本郵便","operator:en":"Japan Post","operator:ja":"日本郵便","operator:short":"郵便局","operator:short:en":"JP","operator:short:ja":"郵便局","operator:wikidata":"Q11509260","phone":"+81-77-545-2236","source":"KSJ2","source_ref":"http://nlftp.mlit.go.jp/ksj/jpgis/datalist/KsjTmplt-P02-v2_0.html"},"type":"node","ver":2},{"id":1422942018,"lat":34.975509,"lon":135.9018428,"tags":{"addr:block_number":"22","addr:city":"大津市","addr:housenumber":"11","addr:postcode":"520-0855","addr:province":"滋賀県","addr:quarter":"栄町","amenity":"post_office","name":"大津栄町郵便局","name:en":"Otsu Sakaemachi Post Office","name:ja":"大津栄町郵便局","name:ja-Hira":"おおつ さかえまち ゆうびんきょく","note":"National-Land Numerical Information (Public Facility) 2006, MLIT Japan","note:ja":"国土数値情報（公共施設データ）平成19年　国土交通省","opening_hours":"Mo-Fr 09:00-17:00","operator":"日本郵便","operator:en":"Japan Post","operator:ja":"日本郵便","operator:short":"郵便局","operator:short:en":"JP","operator:short:ja":"郵便局","operator:wikidata":"Q11509260","phone":"+81-77-534-4364","source":"KSJ2","source_ref":"http://nlftp.mlit.go.jp/ksj/jpgis/datalist/KsjTmplt-P02-v2_0.html"},"type":"node","ver":2},{"id":1422944156,"lat":34.979228,"lon":135.899601,"tags":{"addr:block_number":"12","addr:city":"大津市","addr:housenumber":"15","addr:postcode":"520-0832","addr:province":"滋賀県","addr:quarter":"粟津町","amenity":"post_office","level":"0","name":"石山駅前郵便局","name:en":"Ishiyama Ekimae Post Office","name:ja":"石山駅前郵便局","name:ja-Hira":"いしやま えきまえ ゆうびんきょく","note":"National-Land Numerical Information (Public Facility) 2006, MLIT Japan","note:ja":"国土数値情報（公共施設データ）平成19年　国土交通省","opening_hours":"Mo-Fr 09:00-17:00","operator":"日本郵便","operator:en":"Japan Post","operator:ja":"日本郵便","operator:short":"郵便局","operator:short:en":"JP","operator:short:ja":"郵便局","operator:wikidata":"Q11509260","phone":"+81-77-537-2400","source":"KSJ2","source_ref":"http://nlftp.mlit.go.jp/ksj/jpgis/datalist/KsjTmplt-P02-v2_0.html"},"type":"node","ver":2},{"id":12861116784,"lat":34.9797162,"lon":135.9007416,"tags":{"amenity":"post_box"},"type":"node","ver":1},{"id":7106778200,"lat":34.9773004,"lon":135.9020135,"tags":{"amenity":"post_box","operator":"日本郵便","operator:en":"Japan Post","operator:ja":"日本郵便","operator:short":"郵便局","operator:short:en":"JP","operator:short:ja":"郵便局","operator:wikidata":"Q11509260"},"type":"node","ver":2},{"id":7106778204,"lat":34.9789451,"lon":135.9020566,"tags":{"amenity":"post_box","operator":"日本郵便","operator:en":"Japan Post","operator:ja":"日本郵便","operator:short":"郵便局","operator:short:en":"JP","operator:short:ja":"郵便局","operator:wikidata":"Q11509260"},"type":"node","ver":3},{"id":11932310485,"lat":34.9802884,"lon":135.9005537,"tags":{"amenity":"post_box"},"type":"node","ver":2},{"id":1422942037,"lat":34.9749279,"lon":135.9162554,"tags":{"addr:block_number":"4","addr:city":"大津市","addr:housenumber":"18","addr:postcode":"520-2131","addr:province":"滋賀県","addr:quarter":"三大寺","amenity":"post_office","check_date":"2024-05-25","name":"大津神領郵便局","name:en":"Otsu Jinryo Post Office","name:ja":"大津神領郵便局","name:ja-Hira":"おおつ じんりょう ゆうびんきょく","note":"National-Land Numerical Information (Public Facility) 2006, MLIT Japan","note:ja":"国土数値情報（公共施設データ）平成19年　国土交通省","opening_hours":"Mo-Fr 09:00-17:00","operator":"日本郵便","operator:en":"Japan Post","operator:ja":"日本郵便","operator:short":"郵便局","operator:short:en":"JP","operator:short:ja":"郵便局","operator:wikidata":"Q11509260","phone":"+81-77-545-4688","source":"KSJ2","source_ref":"http://nlftp.mlit.go.jp/ksj/jpgis/datalist/KsjTmplt-P02-v2_0.html"},"type":"node","ver":3},{"id":11932444528,"lat":34.9748744,"lon":135.9162783,"tags":{"amenity":"post_box"},"type":"node","ver":1},{"id":1422943908,"lat":34.982481,"lon":135.920398,"tags":{"addr:block_number":"3","addr:city":"大津市","addr:housenumber":"16","addr:neighbourhood":"4丁目","addr:postcode":"520-2141","addr:province":"滋賀県","addr:quarter":"大江","amenity":"post_office","name":"瀬田大江郵便局","name:en":"Seta Oe Post Office","name:ja":"瀬田大江郵便局","name:ja-Hira":"せた おおえ ゆうびんきょく","note":"National-Land Numerical Information (Public Facility) 2006, MLIT Japan","note:ja":"国土数値情報（公共施設データ）平成19年　国土交通省","opening_hours":"Mo-Fr 09:00-17:00","operator":"日本郵便","operator:en":"Japan Post","operator:ja":"日本郵便","operator:short":"郵便局","operator:short:en":"JP","operator:short:ja":"郵便局","operator:wikidata":"Q11509260","phone":"+81-77-545-3901","source":"KSJ2","source_ref":"http://nlftp.mlit.go.jp/ksj/jpgis/datalist/KsjTmplt-P02-v2_0.html"},"type":"node","ver":2},{"id":11932491944,"lat":34.9824422,"lon":135.9202823,"tags":{"amenity":"post_box"},"type":"node","ver":1},{"id":12206489118,"lat":34.9706988,"lon":135.9443047,"tags":{"amenity":"post_box"},"type":"node","ver":1},{"id":1422941657,"lat":34.982398,"lon":135.933758,"tags":{"addr:block_number":"34","addr:city":"大津市","addr:housenumber":"14","addr:neighbourhood":"3丁目","addr:postcode":"520-2153","addr:province":"滋賀県","addr:quarter":"一里山","amenity":"post_office","name":"大津瀬田郵便局","name:en":"Otsu Seta Post Office","name:ja":"大津瀬田郵便局","name:ja-Hira":"おおつ せた ゆうびんきょく","note":"National-Land Numerical Information (Public Facility) 2006, MLIT Japan","note:ja":"国土数値情報（公共施設データ）平成19年　国土交通省","opening_hours":"Mo-Fr 09:00-17:00","operator":"日本郵便","operator:en":"Japan Post","operator:ja":"日本郵便","operator:short":"郵便局","operator:short:en":"JP","operator:short:ja":"郵便局","operator:wikidata":"Q11509260","phone":"+81-77-545-5644","source":"KSJ2","source_ref":"http://nlftp.mlit.go.jp/ksj/jpgis/datalist/KsjTmplt-P02-v2_0.html","wikidata":"Q11437322","wikipedia":"ja:大津瀬田郵便局"},"type":"node","ver":3},{"id":1422941636,"lat":34.960264,"lon":135.959057,"tags":{"KSJ2:ADS":"平野1-17-17","KSJ2:AdminArea":"滋賀県大津市","amenity":"post_office","name":"大津上田上郵便局","note":"National-Land Numerical Information (Public Facility) 2006, MLIT Japan","note:ja":"国土数値情報（公共施設データ）平成19年　国土交通省","operator":"日本郵便","operator:en":"Japan Post","operator:ja":"日本郵便","operator:short":"郵便局","operator:short:en":"JP","operator:short:ja":"郵便局","operator:wikidata":"Q11509260","source":"KSJ2","source_ref":"http://nlftp.mlit.go.jp/ksj/jpgis/datalist/KsjTmplt-P02-v2_0.html"},"type":"node","ver":2},{"id":1422943820,"lat":34.975055,"lon":135.95392,"tags":{"addr:block_number":"6","addr:city":"草津市","addr:housenumber":"53","addr:neighbourhood":"7丁目","addr:postcode":"525-0072","addr:province":"滋賀県","addr:quarter":"笠山","amenity":"post_office","name":"滋賀医科大学内簡易郵便局","name:en":"Shiga-Ikadaigaku-nai Summary Post Office","name:ja":"滋賀医科大学内簡易郵便局","name:ja-Hira":"しがいかだいがくない かんいゆうびんきょく","note":"National-Land Numerical Information (Public Facility) 2006, MLIT Japan","note:ja":"国土数値情報（公共施設データ）平成19年　国土交通省","opening_hours":"Mo-Fr 09:00-17:00","operator":"日本郵便","operator:en":"Japan Post","operator:ja":"日本郵便","operator:short":"郵便局","operator:short:en":"JP","operator:short:ja":"郵便局","operator:wikidata":"Q11509260","phone":"+81-77-548-2798","source":"KSJ2","source_ref":"http://nlftp.mlit.go.jp/ksj/jpgis/datalist/KsjTmplt-P02-v2_0.html"},"type":"node","ver":2},{"id":2463584511,"lat":34.9828431,"lon":135.964389,"tags":{"amenity":"post_box"},"type":"node","ver":2},{"id":1422944682,"lat":34.9859503,"lon":135.9697218,"tags":{"addr:block_number":"8","addr:city":"草津市","addr:housenumber":"22","addr:neighbourhood":"5丁目","addr:postcode":"525-0045","addr:province":"滋賀県","addr:quarter":"若草","amenity":"post_office","name":"草津若草郵便局","name:en":"Kusatsu Wakakusa Post Office","name:ja":"草津若草郵便局","name:ja-Hira":"くさつ わかくさ ゆうびんきょく","note":"National-Land Numerical Information (Public Facility) 2006, MLIT Japan","note:ja":"国土数値情報（公共施設データ）平成19年　国土交通省","opening_hours":"Mo-Fr 09:00-17:00","operator":"日本郵便","operator:en":"Japan Post","operator:ja":"日本郵便","operator:short":"郵便局","operator:short:en":"JP","operator:short:ja":"郵便局","operator:wikidata":"Q11509260","phone":"+81-77-567-4050","source":"KSJ2","source_ref":"http://nlftp.mlit.go.jp/ksj/jpgis/datalist/KsjTmplt-P02-v2_0.html"},"type":"node","ver":2},{"id":11932590474,"lat":34.9870122,"lon":135.9205329,"tags":{"amenity":"post_box","collection_times":"Mo-Su,PH 10:26, Mo-Fr 15:46"},"type":"node","ver":3},{"id":12054165109,"lat":34.9893328,"lon":135.9200347,"tags":{"amenity":"post_box","collection_times":"Mo-Fr 10:24,15:44; Sa,Su,PH 10:24,14:44"},"type":"node","ver":2},{"id":11932593915,"lat":34.9877919,"lon":135.9227544,"tags":{"amenity":"post_box"},"type":"node","ver":1},{"id":12058979540,"lat":34.9869808,"lon":135.9249422,"tags":{"amenity":"post_box","operator":"日本郵便","operator:en":"Japan Post","operator:ja":"日本郵便","operator:short":"郵便局","operator:short:en":"JP","operator:short:ja":"郵便局","operator:wikidata":"Q11509260"},"type":"node","ver":1},{"id":12216378348,"lat":34.9910777,"lon":135.9248604,"tags":{"amenity":"post_box"},"type":"node","ver":1},{"id":1422944679,"lat":35.0058894,"lon":135.9247576,"tags":{"addr:block_number":"1168","addr:city":"草津市","addr:housenumber":"3","addr:postcode":"525-0066","addr:province":"滋賀県","addr:quarter":"矢橋町","amenity":"post_office","name":"草津矢橋郵便局","name:en":"Kusatsu Yabase Post Office","name:ja":"草津矢橋郵便局","name:ja-Hira":"くさつ やばせ ゆうびんきょく","note":"National-Land Numerical Information (Public Facility) 2006, MLIT Japan","note:ja":"国土数値情報（公共施設データ）平成19年　国土交通省","opening_hours":"Mo-Fr 09:00-17:00","operator":"日本郵便","operator:en":"Japan Post","operator:ja":"日本郵便","operator:short":"郵便局","operator:short:en":"JP","operator:short:ja":"郵便局","operator:wikidata":"Q11509260","phone":"+81-77-562-1917","source":"KSJ2","source_ref":"http://nlftp.mlit.go.jp/ksj/jpgis/datalist/KsjTmplt-P02-v2_0.html"},"type":"node","ver":2},{"id":3211975481,"lat":35.0035029,"lon":135.9472835,"tags":{"amenity":"post_box"},"type":"node","ver":2},{"id":12513608411,"lat":35.0044757,"lon":135.9422049,"tags":{"addr:block_number":"6","addr:city":"草津市","addr:housenumber":"1","addr:neighbourhood":"3丁目","addr:postcode":"525-0050","addr:province":"滋賀県","addr:quarter":"南草津","amenity":"post_office","name":"南草津郵便局","name:en":"Minamikusatsu Post Office","name:ja":"南草津郵便局","name:ja-Hira":"みなみくさつ ゆうびんきょく","opening_hours":"Mo-Fr 09:00-17:00","operator":"日本郵便","operator:en":"Japan Post","operator:ja":"日本郵便","operator:short":"郵便局","operator:short:en":"JP","operator:short:ja":"郵便局","operator:wikidata":"Q11509260","phone":"+81-77-564-8500"},"type":"node","ver":1},{"id":13586205201,"lat":35.0012608,"lon":135.9474917,"tags":{"amenity":"post_box"},"type":"node","ver":1},{"id":1422944652,"lat":35.0276885,"lon":135.9307497,"tags":{"addr:block_number":"124","addr:city":"草津市","addr:housenumber":"6","addr:postcode":"525-0061","addr:province":"滋賀県","addr:quarter":"北山田町","amenity":"post_office","name":"草津山田郵便局","name:en":"Kusatsu Yamada Post Office","name:ja":"草津山田郵便局","name:ja-Hira":"くさつ やまだ ゆうびんきょく","note":"National-Land Numerical Information (Public Facility) 2006, MLIT Japan","note:ja":"国土数値情報（公共施設データ）平成19年　国土交通省","opening_hours":"Mo-Fr 09:00-17:00","operator":"日本郵便","operator:en":"Japan Post","operator:ja":"日本郵便","operator:short":"郵便局","operator:short:en":"JP","operator:short:ja":"郵便局","operator:wikidata":"Q11509260","phone":"+81-77-562-1919","source":"KSJ2","source_ref":"http://nlftp.mlit.go.jp/ksj/jpgis/datalist/KsjTmplt-P02-v2_0.html"},"type":"node","ver":2},{"id":1422944646,"lat":35.030364,"lon":135.947561,"tags":{"addr:block_number":"17","addr:city":"草津市","addr:housenumber":"1","addr:neighbourhood":"2丁目","addr:postcode":"525-0028","addr:province":"滋賀県","addr:quarter":"上笠","amenity":"post_office","name":"草津上笠郵便局","name:en":"Kusatsu Kamigasa Post Office","name:ja":"草津上笠郵便局","name:ja-Hira":"くさつ かみがさ ゆうびんきょく","note":"National-Land Numerical Information (Public Facility) 2006, MLIT Japan","note:ja":"国土数値情報（公共施設データ）平成19年　国土交通省","opening_hours":"Mo-Fr 09:00-17:00","operator":"日本郵便","operator:en":"Japan Post","operator:ja":"日本郵便","operator:short":"郵便局","operator:short:en":"JP","operator:short:ja":"郵便局","operator:wikidata":"Q11509260","phone":"+81-77-563-8166","source":"KSJ2","source_ref":"http://nlftp.mlit.go.jp/ksj/jpgis/datalist/KsjTmplt-P02-v2_0.html"},"type":"node","ver":2},{"id":1422944675,"lat":34.995265,"lon":135.949742,"tags":{"addr:block_number":"7","addr:city":"草津市","addr:housenumber":"41","addr:neighbourhood":"9丁目","addr:postcode":"525-0059","addr:province":"滋賀県","addr:quarter":"野路","amenity":"post_office","name":"草津玉川郵便局","name:en":"Kusatsu Tamagawa Post Office","name:ja":"草津玉川郵便局","name:ja-Hira":"くさつ たまがわ ゆうびんきょく","note":"National-Land Numerical Information (Public Facility) 2006, MLIT Japan","note:ja":"国土数値情報（公共施設データ）平成19年　国土交通省","opening_hours":"Mo-Fr 09:00-17:00","operator":"日本郵便","operator:en":"Japan Post","operator:ja":"日本郵便","operator:short":"郵便局","operator:short:en":"JP","operator:short:ja":"郵便局","operator:wikidata":"Q11509260","phone":"+81-77-562-6543","source":"KSJ2","source_ref":"http://nlftp.mlit.go.jp/ksj/jpgis/datalist/KsjTmplt-P02-v2_0.html"},"type":"node","ver":2},{"id":12513608412,"lat":35.0057262,"lon":135.9528931,"tags":{"addr:block_number":"6","addr:city":"草津市","addr:housenumber":"1","addr:neighbourhood":"2丁目","addr:postcode":"525-0053","addr:province":"滋賀県","addr:quarter":"矢倉","amenity":"post_office","name":"草津矢倉郵便局","name:en":"Kusatsu Yagura Post Office","name:ja":"草津矢倉郵便局","name:ja-Hira":"くさつ やぐら ゆうびんきょく","opening_hours":"Mo-Fr 09:00-17:00","operator":"日本郵便","operator:en":"Japan Post","operator:ja":"日本郵便","operator:short":"郵便局","operator:short:en":"JP","operator:short:ja":"郵便局","operator:wikidata":"Q11509260","phone":"+81-77-562-1925","source":"Bing"},"type":"node","ver":1},{"id":7108203048,"lat":35.0081696,"lon":135.9541905,"tags":{"amenity":"post_box"},"type":"node","ver":1},{"id":1422944734,"lat":35.004868,"lon":135.974809,"tags":{"addr:block_number":"771","addr:city":"草津市","addr:housenumber":"3","addr:postcode":"525-0041","addr:province":"滋賀県","addr:quarter":"青地町","amenity":"post_office","name":"草津青地郵便局","name:en":"Kusatsu Aoji Post Office","name:ja":"草津青地郵便局","name:ja-Hira":"くさつ あおじ ゆうびんきょく","note":"National-Land Numerical Information (Public Facility) 2006, MLIT Japan","note:ja":"国土数値情報（公共施設データ）平成19年　国土交通省","opening_hours":"Mo-Fr 09:00-17:00","operator":"日本郵便","operator:en":"Japan Post","operator:ja":"日本郵便","operator:short":"郵便局","operator:short:en":"JP","operator:short:ja":"郵便局","operator:wikidata":"Q11509260","phone":"+81-77-562-7110","source":"KSJ2","source_ref":"http://nlftp.mlit.go.jp/ksj/jpgis/datalist/KsjTmplt-P02-v2_0.html"},"type":"node","ver":2},{"id":1422944659,"lat":35.0145003,"lon":135.9595492,"tags":{"addr:block_number":"13","addr:city":"草津市","addr:housenumber":"75","addr:neighbourhood":"3丁目","addr:postcode":"525-0034","addr:province":"滋賀県","addr:quarter":"草津","amenity":"post_office","name":"草津市役所前郵便局","name:en":"Kusatsu Shiyakusho-mae Post Office","name:ja":"草津市役所前郵便局","name:ja-Hira":"くさつ しやくしょまえ ゆうびんきょく","note":"National-Land Numerical Information (Public Facility) 2006, MLIT Japan","note:ja":"国土数値情報（公共施設データ）平成19年　国土交通省","opening_hours":"Mo-Fr 09:00-17:00","operator":"日本郵便","operator:en":"Japan Post","operator:ja":"日本郵便","operator:short":"郵便局","operator:short:en":"JP","operator:short:ja":"郵便局","operator:wikidata":"Q11509260","phone":"+81-77-564-6880","source":"KSJ2","source_ref":"http://nlftp.mlit.go.jp/ksj/jpgis/datalist/KsjTmplt-P02-v2_0.html"},"type":"node","ver":4},{"id":6435321871,"lat":35.0129302,"lon":135.9568892,"tags":{"amenity":"post_box"},"type":"node","ver":2},{"id":6900226946,"lat":35.0180076,"lon":135.9608243,"tags":{"amenity":"post_box"},"type":"node","ver":1},{"id":7040532626,"lat":35.0130937,"lon":135.9603283,"tags":{"amenity":"post_box"},"type":"node","ver":2},{"id":7041221685,"lat":35.0162953,"lon":135.9594168,"tags":{"amenity":"post_box"},"type":"node","ver":2},{"id":7041278611,"lat":35.0195353,"lon":135.9514679,"tags":{"amenity":"post_box"},"type":"node","ver":1},{"id":5698514416,"lat":35.022645,"lon":135.9577892,"tags":{"amenity":"post_box"},"type":"node","ver":3},{"id":9109551167,"lat":35.0247749,"lon":135.957449,"tags":{"amenity":"post_box"},"type":"node","ver":1},{"id":9109560219,"lat":35.0236322,"lon":135.960589,"tags":{"amenity":"post_box"},"type":"node","ver":1},{"id":12796100278,"lat":35.0171811,"lon":135.9689562,"tags":{"amenity":"post_box"},"type":"node","ver":1},{"id":1422944651,"lat":35.0196094,"lon":135.9619519,"tags":{"addr:block_number":"6","addr:city":"草津市","addr:housenumber":"14","addr:neighbourhood":"1丁目","addr:postcode":"525-0032","addr:province":"滋賀県","addr:quarter":"大路","amenity":"post_office","name":"草津大路郵便局","name:en":"Kusatsu Oji Post Office","name:ja":"草津大路郵便局","name:ja-Hira":"くさつ おおじ ゆうびんきょく","note":"National-Land Numerical Information (Public Facility) 2006, MLIT Japan","note:ja":"国土数値情報（公共施設データ）平成19年　国土交通省","opening_hours":"Mo-Fr 09:00-17:00","operator":"日本郵便","operator:en":"Japan Post","operator:ja":"日本郵便","operator:short":"郵便局","operator:short:en":"JP","operator:short:ja":"郵便局","operator:wikidata":"Q11509260","phone":"+81-77-562-1923","source":"KSJ2","source_ref":"http://nlftp.mlit.go.jp/ksj/jpgis/datalist/KsjTmplt-P02-v2_0.html"},"type":"node","ver":3},{"id":4926673584,"lat":35.0227267,"lon":135.9614781,"tags":{"amenity":"post_box"},"type":"node","ver":1},{"id":6490095077,"lat":35.0220974,"lon":135.961809,"tags":{"amenity":"post_box","operator":"日本郵便","operator:en":"Japan Post","operator:ja":"日本郵便","operator:short":"郵便局","operator:short:en":"JP","operator:short:ja":"郵便局","operator:wikidata":"Q11509260","short_name":"郵便局","short_name:en":"JP","short_name:ja":"郵便局"},"type":"node","ver":4},{"id":11445713606,"lat":35.0221207,"lon":135.9673003,"tags":{"amenity":"post_box"},"type":"node","ver":1},{"id":11445736076,"lat":35.0221206,"lon":135.9673002,"tags":{"amenity":"post_box"},"type":"node","ver":1},{"id":11445756574,"lat":35.0216957,"lon":135.9656571,"tags":{"amenity":"post_box"},"type":"node","ver":1},{"id":12513608413,"lat":35.0256415,"lon":135.9637399,"tags":{"addr:block_number":"3","addr:city":"草津市","addr:housenumber":"38","addr:neighbourhood":"1丁目","addr:postcode":"525-8799","addr:province":"滋賀県","addr:quarter":"西渋川","amenity":"post_office","name":"草津郵便局","name:en":"Kusatsu Post Office","name:es":"Ofisina de Correos de Kusatsu","name:ja":"草津郵便局","name:ja-Hira":"くさつ ゆうびんきょく","name:qu":"Kusatsu Correos Wasi","opening_hours":"Mo-Fr 09:00-17:00","operator":"日本郵便","operator:en":"Japan Post","operator:ja":"日本郵便","operator:short":"郵便局","operator:short:en":"JP","operator:short:ja":"郵便局","operator:wikidata":"Q11509260","phone":"+81-800-0800-111","source":"Bing","wikidata":"Q11618197","wikipedia":"ja:草津郵便局"},"type":"node","ver":1},{"id":13993495805,"lat":35.0232124,"lon":135.9722102,"tags":{"amenity":"post_box"},"type":"node","ver":2},{"id":9109521435,"lat":35.0257688,"lon":135.9639368,"tags":{"amenity":"post_box"},"type":"node","ver":1},{"id":1422943617,"lat":35.015128,"lon":135.980565,"tags":{"addr:block_number":"524","addr:city":"栗東市","addr:housenumber":"2","addr:postcode":"520-3013","addr:province":"滋賀県","addr:quarter":"目川","amenity":"post_office","name":"治田郵便局","name:en":"Haruta Post Office","name:ja":"治田郵便局","name:ja-Hira":"はるた ゆうびんきょく","note":"National-Land Numerical Information (Public Facility) 2006, MLIT Japan","note:ja":"国土数値情報（公共施設データ）平成19年　国土交通省","opening_hours":"Mo-Fr 09:00-17:00","operator":"日本郵便","operator:en":"Japan Post","operator:ja":"日本郵便","operator:short":"郵便局","operator:short:en":"JP","operator:short:ja":"郵便局","operator:wikidata":"Q11509260","phone":"+81-77-552-1903","source":"KSJ2","source_ref":"http://nlftp.mlit.go.jp/ksj/jpgis/datalist/KsjTmplt-P02-v2_0.html"},"type":"node","ver":2},{"id":14007979007,"lat":35.0219715,"lon":135.9973497,"tags":{"amenity":"post_box"},"type":"node","ver":2},{"id":13996241138,"lat":35.0259448,"lon":135.9816778,"tags":{"amenity":"post_box"},"type":"node","ver":2},{"id":5299030147,"lat":35.037399,"lon":135.9803336,"tags":{"amenity":"post_box"},"type":"node","ver":2},{"id":14024835458,"lat":35.0326106,"lon":135.9758022,"tags":{"amenity":"post_box"},"type":"node","ver":2},{"id":13946243669,"lat":35.0369331,"lon":135.9820778,"tags":{"amenity":"post_box"},"type":"node","ver":2},{"id":13956845603,"lat":35.0270146,"lon":135.9995458,"tags":{"amenity":"post_box"},"type":"node","ver":2},{"id":1422945208,"lat":34.9979088,"lon":136.0236176,"tags":{"addr:block_number":"991","addr:city":"栗東市","addr:housenumber":"4","addr:postcode":"520-3005","addr:province":"滋賀県","addr:quarter":"御園","amenity":"post_office","name":"金勝郵便局","name:en":"Konze Post Office","name:ja":"金勝郵便局","name:ja-Hira":"こんぜ ゆうびんきょく","note":"National-Land Numerical Information (Public Facility) 2006, MLIT Japan","note:ja":"国土数値情報（公共施設データ）平成19年　国土交通省","opening_hours":"Mo-Fr 09:00-17:00","operator":"日本郵便","operator:en":"Japan Post","operator:ja":"日本郵便","operator:short":"郵便局","operator:short:en":"JP","operator:short:ja":"郵便局","operator:wikidata":"Q11509260","phone":"+81-77-558-1919","source":"KSJ2","source_ref":"http://nlftp.mlit.go.jp/ksj/jpgis/datalist/KsjTmplt-P02-v2_0.html"},"type":"node","ver":3},{"id":1422943545,"lat":35.0213351,"lon":136.0016103,"tags":{"addr:block_number":"3","addr:city":"栗東市","addr:housenumber":"13","addr:neighbourhood":"2丁目","addr:postcode":"520-3099","addr:province":"滋賀県","addr:quarter":"安養寺","amenity":"post_office","name":"栗東郵便局","name:en":"Ritto Post Office","name:es":"Oficina de Correos de Ritto","name:ja":"栗東郵便局","name:ja-Hira":"りっとう ゆうびんきょく","note":"National-Land Numerical Information (Public Facility) 2006, MLIT Japan","note:ja":"国土数値情報（公共施設データ）平成19年　国土交通省","opening_hours":"Mo-Fr 09:00-17:00","operator":"日本郵便","operator:en":"Japan Post","operator:ja":"日本郵便","operator:short":"郵便局","operator:short:en":"JP","operator:short:ja":"郵便局","operator:wikidata":"Q11509260","phone":"+81-800-0800-111","source":"KSJ2","source_ref":"http://nlftp.mlit.go.jp/ksj/jpgis/datalist/KsjTmplt-P02-v2_0.html","wikidata":"Q11535985"},"type":"node","ver":4},{"id":1422940837,"lat":35.0238421,"lon":136.0195849,"tags":{"addr:block_number":"410","addr:city":"栗東市","addr:housenumber":"5","addr:neighbourhood":"東浦","addr:postcode":"520-3017","addr:province":"滋賀県","addr:quarter":"六地蔵","amenity":"post_office","name":"六地蔵簡易郵便局","name:en":"Rokujizo Summary Post Office","name:ja":"六地蔵簡易郵便局","name:ja-Hira":"ろくじぞう かんいゆうびんきょく","note":"National-Land Numerical Information (Public Facility) 2006, MLIT Japan","note:ja":"国土数値情報（公共施設データ）平成19年　国土交通省","opening_hours":"Mo-Fr 09:00-17:00","operator":"日本郵便","operator:en":"Japan Post","operator:ja":"日本郵便","operator:short":"郵便局","operator:short:en":"JP","operator:short:ja":"郵便局","operator:wikidata":"Q11509260","phone":"+81-77-552-2188","source":"KSJ2","source_ref":"http://nlftp.mlit.go.jp/ksj/jpgis/datalist/KsjTmplt-P02-v2_0.html"},"type":"node","ver":4},{"id":12513608414,"lat":35.0338068,"lon":136.0098716,"tags":{"addr:block_number":"277","addr:city":"栗東市","addr:housenumber":"4","addr:postcode":"520-3045","addr:province":"滋賀県","addr:quarter":"高野","amenity":"post_office","name":"栗東高野郵便局","name:en":"Ritto Takano Post Office","name:es":"Oficina de Correos de Ritto Takano","name:ja":"栗東高野郵便局","name:ja-Hira":"りっとう たかの ゆうびんきょく","opening_hours":"Mo-Fr 09:00-17:00","operator":"日本郵便","operator:en":"Japan Post","operator:ja":"日本郵便","operator:short":"郵便局","operator:short:en":"JP","operator:short:ja":"郵便局","operator:wikidata":"Q11509260","phone":"+81-77-553-7947","website":"https://map.japanpost.jp/p/search/dtl/300146216000/"},"type":"node","ver":1},{"id":1422945040,"lat":35.038784,"lon":136.038393,"tags":{"KSJ2:ADS":"近江富士2-1-25","KSJ2:AdminArea":"滋賀県栗東市","amenity":"post_office","name":"野洲南桜簡易郵便局","note":"National-Land Numerical Information (Public Facility) 2006, MLIT Japan","note:ja":"国土数値情報（公共施設データ）平成19年　国土交通省","operator":"日本郵便","operator:en":"Japan Post","operator:ja":"日本郵便","operator:short":"郵便局","operator:short:en":"JP","operator:short:ja":"郵便局","operator:wikidata":"Q11509260","source":"KSJ2","source_ref":"http://nlftp.mlit.go.jp/ksj/jpgis/datalist/KsjTmplt-P02-v2_0.html"},"type":"node","ver":2},{"id":1422944165,"lat":35.0100461,"lon":136.0609805,"tags":{"addr:block_number":"1","addr:city":"湖南市","addr:housenumber":"1","addr:neighbourhood":"2丁目","addr:postcode":"520-3107","addr:province":"滋賀県","addr:quarter":"石部東","amenity":"post_office","name":"石部郵便局","name:en":"Ishibe Post Office","name:es":"Oficina de Correos de Ishibe","name:ja":"石部郵便局","name:ja-Hira":"いしべ ゆうびんきょく","note":"National-Land Numerical Information (Public Facility) 2006, MLIT Japan","note:ja":"国土数値情報（公共施設データ）平成19年　国土交通省","opening_hours":"Mo-Fr 09:00-17:00","operator":"日本郵便","operator:en":"Japan Post","operator:ja":"日本郵便","operator:short":"郵便局","operator:short:en":"JP","operator:short:ja":"郵便局","operator:wikidata":"Q11509260","phone":"+81-748-77-2400","source":"KSJ2","source_ref":"http://nlftp.mlit.go.jp/ksj/jpgis/datalist/KsjTmplt-P02-v2_0.html","wikidata":"Q11587233"},"type":"node","ver":4},{"id":1422943984,"lat":35.001758,"lon":136.08652,"tags":{"addr:block_number":"1","addr:city":"湖南市","addr:housenumber":"50","addr:postcode":"520-3299","addr:province":"滋賀県","addr:quarter":"中央","amenity":"post_office","name":"甲西郵便局","name:en":"Kose Post Office","name:es":"Oficina de Correos de Kose","name:ja":"甲西郵便局","name:ja-Hira":"こうせい ゆうびんきょく","note":"National-Land Numerical Information (Public Facility) 2006, MLIT Japan","note:ja":"国土数値情報（公共施設データ）平成19年　国土交通省","opening_hours":"Mo-Fr 09:00-17:00","operator":"日本郵便","operator:en":"Japan Post","operator:ja":"日本郵便","operator:short":"郵便局","operator:short:en":"JP","operator:short:ja":"郵便局","operator:wikidata":"Q11509260","phone":"+81-800-0800-111","source":"KSJ2","source_ref":"http://nlftp.mlit.go.jp/ksj/jpgis/datalist/KsjTmplt-P02-v2_0.html","wikidata":"Q11577975"},"type":"node","ver":3},{"id":12513711774,"lat":35.0369084,"lon":136.0604465,"tags":{"addr:block_number":"4","addr:city":"湖南市","addr:housenumber":"23","addr:neighbourhood":"4丁目","addr:postcode":"520-3248","addr:province":"滋賀県","addr:quarter":"菩提寺西","amenity":"post_office","name":"甲西菩提寺郵便局","name:en":"Kose Bodaiji Post Office","name:ja":"甲西菩提寺郵便局","name:ja-Hira":"こうせい ぼだいじ ゆうびんきょく","opening_hours":"Mo-Fr 09:00-17:00","operator":"日本郵便","operator:en":"Japan Post","operator:ja":"日本郵便","operator:short":"郵便局","operator:short:en":"JP","operator:short:ja":"郵便局","operator:wikidata":"Q11509260","phone":"+81-748-74-0428"},"type":"node","ver":1},{"id":1422945007,"lat":34.886023,"lon":136.18807,"tags":{"addr:block_number":"818","addr:city":"甲賀市","addr:postcode":"520-3305","addr:province":"滋賀県","addr:quarter":"甲南町野川","amenity":"post_office","name":"野川簡易郵便局","name:en":"Nogawa Summary Post Office","name:ja":"野川簡易郵便局","name:ja-Hira":"のがわ かんいゆうびんきょく","note":"National-Land Numerical Information (Public Facility) 2006, MLIT Japan","note:ja":"国土数値情報（公共施設データ）平成19年　国土交通省","opening_hours":"Mo-Fr 09:00-17:00","operator":"日本郵便","operator:en":"Japan Post","operator:ja":"日本郵便","operator:short":"郵便局","operator:short:en":"JP","operator:short:ja":"郵便局","operator:wikidata":"Q11509260","phone":"+81-748-86-8518","source":"KSJ2","source_ref":"http://nlftp.mlit.go.jp/ksj/jpgis/datalist/KsjTmplt-P02-v2_0.html"},"type":"node","ver":2},{"id":1422943948,"lat":34.919692,"lon":136.1807027,"tags":{"addr:block_number":"963","addr:city":"甲賀市","addr:housenumber":"1","addr:postcode":"520-3399","addr:province":"滋賀県","addr:quarter":"甲南町寺庄","amenity":"post_office","name":"甲南郵便局","name:en":"Konan Post Office","name:es":"Oficina de Correos de Konan","name:ja":"甲南郵便局","name:ja-Hira":"こうなん ゆうびんきょく","note":"National-Land Numerical Information (Public Facility) 2006, MLIT Japan","note:ja":"国土数値情報（公共施設データ）平成19年　国土交通省","opening_hours":"Mo-Fr 09:00-17:00","operator":"日本郵便","operator:en":"Japan Post","operator:ja":"日本郵便","operator:short":"郵便局","operator:short:en":"JP","operator:short:ja":"郵便局","operator:wikidata":"Q11509260","phone":"+81-748-886-4240","source":"KSJ2","source_ref":"http://nlftp.mlit.go.jp/ksj/jpgis/datalist/KsjTmplt-P02-v2_0.html","wikidata":"Q11577697"},"type":"node","ver":4},{"id":1422943632,"lat":34.9305292,"lon":136.1631145,"tags":{"addr:block_number":"57","addr:city":"甲賀市","addr:housenumber":"1","addr:postcode":"520-3323","addr:province":"滋賀県","addr:quarter":"甲南町深川市場","amenity":"post_office","name":"深川郵便局","name:en":"Fukawa Post Office","name:es":"Oficina de Correos de Fukawa","name:ja":"深川郵便局","name:ja-Hira":"ふかわ ゆうびんきょく","note":"National-Land Numerical Information (Public Facility) 2006, MLIT Japan","note:ja":"国土数値情報（公共施設データ）平成19年　国土交通省","opening_hours":"Mo-Fr 09:00-17:00","operator":"日本郵便","operator:en":"Japan Post","operator:ja":"日本郵便","operator:short":"郵便局","operator:short:en":"JP","operator:short:ja":"郵便局","operator:wikidata":"Q11509260","phone":"+81-748-86-4241","source":"KSJ2","source_ref":"http://nlftp.mlit.go.jp/ksj/jpgis/datalist/KsjTmplt-P02-v2_0.html"},"type":"node","ver":2},{"id":1422943609,"lat":34.8880592,"lon":136.2311234,"tags":{"addr:block_number":"1681","addr:city":"甲賀市","addr:housenumber":"1","addr:postcode":"520-3421","addr:province":"滋賀県","addr:quarter":"甲賀町上野","amenity":"post_office","name":"油日郵便局","name:en":"Aburahi Post Office","name:ja":"油日郵便局","name:ja-Hira":"あぶらひ ゆうびんきょく","note":"National-Land Numerical Information (Public Facility) 2006, MLIT Japan","note:ja":"国土数値情報（公共施設データ）平成19年　国土交通省","opening_hours":"Mo-Fr 09:00-17:00","operator":"日本郵便","operator:en":"Japan Post","operator:ja":"日本郵便","operator:short":"郵便局","operator:short:en":"JP","operator:short:ja":"郵便局","operator:wikidata":"Q11509260","phone":"+81-748-88-4232","source":"KSJ2","source_ref":"http://nlftp.mlit.go.jp/ksj/jpgis/datalist/KsjTmplt-P02-v2_0.html"},"type":"node","ver":2},{"id":1422944033,"lat":34.9019471,"lon":136.2134148,"tags":{"addr:block_number":"749","addr:city":"甲賀市","addr:postcode":"520-3499","addr:province":"滋賀県","addr:quarter":"大原市場","amenity":"post_office","name":"甲賀郵便局","name:en":"Koka Post Office","name:ja":"甲賀郵便局","name:ja-Hira":"こうか ゆうびんきょく","note":"National-Land Numerical Information (Public Facility) 2006, MLIT Japan","note:ja":"国土数値情報（公共施設データ）平成19年　国土交通省","opening_hours":"Mo-Fr 09:00-17:00","operator":"日本郵便","operator:en":"Japan Post","operator:ja":"日本郵便","operator:short":"郵便局","operator:short:en":"JP","operator:short:ja":"郵便局","operator:wikidata":"Q11509260","phone":"+81-748-88-2400","source":"KSJ2","source_ref":"http://nlftp.mlit.go.jp/ksj/jpgis/datalist/KsjTmplt-P02-v2_0.html"},"type":"node","ver":2},{"id":1422943987,"lat":34.907416,"lon":136.231836,"tags":{"addr:block_number":"774","addr:city":"甲賀市","addr:housenumber":"1","addr:postcode":"520-3414","addr:province":"滋賀県","addr:quarter":"大久保","amenity":"post_office","name":"甲賀大久保郵便局","name:en":"Koka Okubo Post Office","name:ja":"甲賀大久保郵便局","name:ja-Hira":"こうか おおくぼ ゆうびんきょく","note":"National-Land Numerical Information (Public Facility) 2006, MLIT Japan","note:ja":"国土数値情報（公共施設データ）平成19年　国土交通省","opening_hours":"Mo-Fr 09:00-17:00","operator":"日本郵便","operator:en":"Japan Post","operator:ja":"日本郵便","operator:short":"郵便局","operator:short:en":"JP","operator:short:ja":"郵便局","operator:wikidata":"Q11509260","phone":"+81-748-88-4054","source":"KSJ2","source_ref":"http://nlftp.mlit.go.jp/ksj/jpgis/datalist/KsjTmplt-P02-v2_0.html"},"type":"node","ver":2},{"id":6719799585,"lat":34.9145344,"lon":136.2937457,"tags":{"amenity":"post_box"},"type":"node","ver":1},{"id":1422944835,"lat":34.950321,"lon":136.14946,"tags":{"addr:block_number":"96","addr:city":"甲賀市","addr:postcode":"528-0040","addr:province":"滋賀県","addr:quarter":"水口町三本柳","amenity":"post_office","name":"貴生川郵便局","name:en":"Kibukawa Post Office","name:ja":"貴生川郵便局","name:ja-Hira":"きぶかわ ゆうびんきょく","note":"National-Land Numerical Information (Public Facility) 2006, MLIT Japan","note:ja":"国土数値情報（公共施設データ）平成19年　国土交通省","opening_hours":"Mo-Fr 09:00-17:00","operator":"日本郵便","operator:en":"Japan Post","operator:ja":"日本郵便","operator:short":"郵便局","operator:short:en":"JP","operator:short:ja":"郵便局","operator:wikidata":"Q11509260","phone":"+81-748-62-2104","source":"KSJ2","source_ref":"http://nlftp.mlit.go.jp/ksj/jpgis/datalist/KsjTmplt-P02-v2_0.html","wheelchair":"limited"},"type":"node","ver":3},{"id":6944187885,"lat":34.9521882,"lon":136.1536305,"tags":{"amenity":"post_box","level":"0"},"type":"node","ver":2},{"id":6944201086,"lat":34.9526528,"lon":136.153849,"tags":{"amenity":"post_box"},"type":"node","ver":1},{"id":1422943977,"lat":34.984594,"lon":136.11724,"tags":{"addr:block_number":"89","addr:city":"湖南市","addr:housenumber":"1","addr:postcode":"520-3221","addr:province":"滋賀県","addr:quarter":"三雲","amenity":"post_office","name":"甲西三雲郵便局","name:en":"Kose Mikumo Post Office","name:ja":"甲西三雲郵便局","name:ja-Hira":"こうせい みくも ゆうびんきょく","note":"National-Land Numerical Information (Public Facility) 2006, MLIT Japan","note:ja":"国土数値情報（公共施設データ）平成19年　国土交通省","opening_hours":"Mo-Fr 09:00-17:00","operator":"日本郵便","operator:en":"Japan Post","operator:ja":"日本郵便","operator:short":"郵便局","operator:short:en":"JP","operator:short:ja":"郵便局","operator:wikidata":"Q11509260","phone":"+81-748-72-7211","source":"KSJ2","source_ref":"http://nlftp.mlit.go.jp/ksj/jpgis/datalist/KsjTmplt-P02-v2_0.html"},"type":"node","ver":2},{"id":1422943573,"lat":34.977457,"lon":136.148654,"tags":{"addr:block_number":"1128","addr:city":"甲賀市","addr:housenumber":"1","addr:postcode":"528-0057","addr:province":"滋賀県","addr:quarter":"水口町北脇","amenity":"post_office","name":"水口北脇郵便局","name:en":"Minakuchi Kitawaki Post Office","name:ja":"水口北脇郵便局","name:ja-Hira":"みなくち きたわき ゆうびんきょく","note":"National-Land Numerical Information (Public Facility) 2006, MLIT Japan","note:ja":"国土数値情報（公共施設データ）平成19年　国土交通省","opening_hours":"Mo-Fr 09:00-17:00","operator":"日本郵便","operator:en":"Japan Post","operator:ja":"日本郵便","operator:short":"郵便局","operator:short:en":"JP","operator:short:ja":"郵便局","operator:wikidata":"Q11509260","phone":"+81-748-62-4210","source":"KSJ2","source_ref":"http://nlftp.mlit.go.jp/ksj/jpgis/datalist/KsjTmplt-P02-v2_0.html"},"type":"node","ver":2},{"id":1422943943,"lat":34.9497826,"lon":136.1766225,"tags":{"addr:block_number":"1","addr:city":"甲賀市","addr:housenumber":"4","addr:postcode":"520-3333","addr:province":"滋賀県","addr:quarter":"甲南町希望ケ丘","amenity":"post_office","name":"甲南希望ヶ丘郵便局","name:en":"Konan Kibogaoka Post Office","name:ja":"甲南希望ヶ丘郵便局","name:ja-Hira":"こうなん きぼうがおか ゆうびんきょく","note":"National-Land Numerical Information (Public Facility) 2006, MLIT Japan","note:ja":"国土数値情報（公共施設データ）平成19年　国土交通省","opening_hours":"Mo-Fr 09:00-17:00","operator":"日本郵便","operator:en":"Japan Post","operator:ja":"日本郵便","operator:short":"郵便局","operator:short:en":"JP","operator:short:ja":"郵便局","operator:wikidata":"Q11509260","phone":"+81-748-86-5100","source":"KSJ2","source_ref":"http://nlftp.mlit.go.jp/ksj/jpgis/datalist/KsjTmplt-P02-v2_0.html"},"type":"node","ver":3},{"id":1422940430,"lat":34.935516,"lon":136.209183,"tags":{"addr:block_number":"2101","addr:city":"甲賀市","addr:postcode":"520-3404","addr:province":"滋賀県","addr:quarter":"甲賀町神保","amenity":"post_office","name":"佐山郵便局","name:en":"Sayama Post Office","name:ja":"佐山郵便局","name:ja-Hira":"さやま ゆうびんきょく","note":"National-Land Numerical Information (Public Facility) 2006, MLIT Japan","note:ja":"国土数値情報（公共施設データ）平成19年　国土交通省","opening_hours":"Mo-Fr 09:00-17:00","operator":"日本郵便","operator:en":"Japan Post","operator:ja":"日本郵便","operator:short":"郵便局","operator:short:en":"JP","operator:short:ja":"郵便局","operator:wikidata":"Q11509260","phone":"+81-748-88-4233","source":"KSJ2","source_ref":"http://nlftp.mlit.go.jp/ksj/jpgis/datalist/KsjTmplt-P02-v2_0.html"},"type":"node","ver":2},{"id":2643791928,"lat":34.9721352,"lon":136.1665336,"tags":{"amenity":"post_box"},"type":"node","ver":1},{"id":12511745053,"lat":34.9671634,"lon":136.1651712,"tags":{"addr:block_number":"5999","addr:city":"甲賀市","addr:housenumber":"1","addr:neighbourhood":"水口","addr:postcode":"528-8799","addr:province":"滋賀県","addr:quarter":"水口町","amenity":"post_office","name":"水口郵便局","name:en":"Minakuchi Post Office","name:es":"Oficina de Correos de Minakuchi","name:ja":"水口郵便局","name:ja-Hira":"みなくち ゆうびんきょく","name:qu":"Minakuchi Correos Wasi","opening_hours":"Mo-Fr 09:00-17:00","operator":"日本郵便","operator:en":"Japan Post","operator:ja":"日本郵便","operator:short":"郵便局","operator:short:en":"JP","operator:short:ja":"郵便局","operator:wikidata":"Q11509260","phone":"+81-800-0800-111","wikidata":"Q11548392","wikipedia":"ja:水口郵便局"},"type":"node","ver":1},{"id":11057135569,"lat":34.9666407,"lon":136.1745348,"tags":{"amenity":"post_box"},"type":"node","ver":1},{"id":7264159761,"lat":34.9705669,"lon":136.1718451,"tags":{"amenity":"post_box","description":"丸形ポスト"},"type":"node","ver":1},{"id":12511745054,"lat":34.9695634,"lon":136.17442,"tags":{"addr:block_number":"3227","addr:city":"甲賀市","addr:housenumber":"2","addr:neighbourhood":"2丁目","addr:postcode":"528-0031","addr:province":"滋賀県","addr:quarter":"水口町本町","amenity":"post_office","description":"貯金窓口・保険窓口は16時まで(Mo-Fr 09:00-16:00; Sa-Su,PH off)、ATMは平日は17時半まで、土曜日は12時半まで(Mo-Fr 09:00-17:30; Sa 09:00-12:30; Su,PH off)","name":"水口本町郵便局","name:en":"Minakuchi Hommachi Post Office","name:ja":"水口本町郵便局","name:ja-Latn":"Minakuchi Hommachi yūbinkyoku","opening_hours":"Mo-Fr 09:00-17:00; Sa-Su,PH off","operator":"日本郵便","operator:en":"Japan Post","operator:ja":"日本郵便","operator:short":"郵便局","operator:short:en":"JP","operator:short:ja":"郵便局","operator:wikidata":"Q11509260","phone":"+81-748-63-2882","website":"https://map.japanpost.jp/p/search/dtl/300146235000/"},"type":"node","ver":1},{"id":8409754840,"lat":34.9675531,"lon":136.1780103,"tags":{"amenity":"post_box"},"type":"node","ver":1},{"id":2648858633,"lat":34.9742245,"lon":136.1769625,"tags":{"amenity":"post_box"},"type":"node","ver":1},{"id":13026206631,"lat":34.9653647,"lon":136.1955304,"tags":{"amenity":"post_box","operator":"日本郵便","operator:en":"Japan Post","operator:ja":"日本郵便","operator:short":"郵便局","operator:short:en":"JP","operator:short:ja":"郵便局","operator:wikidata":"Q11509260"},"type":"node","ver":1},{"id":1422943979,"lat":35.005564,"lon":136.123461,"tags":{"addr:block_number":"10","addr:city":"湖南市","addr:housenumber":"6","addr:postcode":"520-3213","addr:province":"滋賀県","addr:quarter":"大池町","amenity":"post_office","name":"甲西大池郵便局","name:en":"Kose Oike Post Office","name:ja":"甲西大池郵便局","name:ja-Hira":"こうせい おおいけ ゆうびんきょく","note":"National-Land Numerical Information (Public Facility) 2006, MLIT Japan","note:ja":"国土数値情報（公共施設データ）平成19年　国土交通省","opening_hours":"Mo-Fr 09:00-17:00","operator":"日本郵便","operator:en":"Japan Post","operator:ja":"日本郵便","operator:short":"郵便局","operator:short:en":"JP","operator:short:ja":"郵便局","operator:wikidata":"Q11509260","phone":"+81-748-75-5531","source":"KSJ2","source_ref":"http://nlftp.mlit.go.jp/ksj/jpgis/datalist/KsjTmplt-P02-v2_0.html"},"type":"node","ver":2},{"id":1422940415,"lat":34.998732,"lon":136.155736,"tags":{"addr:block_number":"2371","addr:city":"甲賀市","addr:housenumber":"4","addr:postcode":"528-0064","addr:province":"滋賀県","addr:quarter":"水口町伴中山","amenity":"post_office","name":"伴谷郵便局","name:en":"Bantani Post Office","name:ja":"伴谷郵便局","name:ja-Hira":"ばんたに ゆうびんきょく","note":"National-Land Numerical Information (Public Facility) 2006, MLIT Japan","note:ja":"国土数値情報（公共施設データ）平成19年　国土交通省","opening_hours":"Mo-Fr 09:00-17:00","operator":"日本郵便","operator:en":"Japan Post","operator:ja":"日本郵便","operator:short":"郵便局","operator:short:en":"JP","operator:short:ja":"郵便局","operator:wikidata":"Q11509260","phone":"+81-748-62-4220","source":"KSJ2","source_ref":"http://nlftp.mlit.go.jp/ksj/jpgis/datalist/KsjTmplt-P02-v2_0.html"},"type":"node","ver":2},{"id":1422943978,"lat":35.025812,"lon":136.132154,"tags":{"addr:block_number":"515","addr:city":"湖南市","addr:postcode":"520-3201","addr:province":"滋賀県","addr:quarter":"下田","amenity":"post_office","name":"甲西下田郵便局","name:en":"Kose Shimoda Post Office","name:ja":"甲西下田郵便局","name:ja-Hira":"こうせい しもだ ゆうびんきょく","note":"National-Land Numerical Information (Public Facility) 2006, MLIT Japan","note:ja":"国土数値情報（公共施設データ）平成19年　国土交通省","opening_hours":"Mo-Fr 09:00-17:00","operator":"日本郵便","operator:en":"Japan Post","operator:ja":"日本郵便","operator:short":"郵便局","operator:short:en":"JP","operator:short:ja":"郵便局","operator:wikidata":"Q11509260","phone":"+81-748-75-0942","source":"KSJ2","source_ref":"http://nlftp.mlit.go.jp/ksj/jpgis/datalist/KsjTmplt-P02-v2_0.html"},"type":"node","ver":2},{"id":1422943238,"lat":35.019341,"lon":136.200925,"tags":{"addr:block_number":"297","addr:city":"日野町","addr:county":"蒲生郡","addr:housenumber":"4","addr:postcode":"529-1657","addr:province":"滋賀県","addr:quarter":"豊田","amenity":"post_office","name":"日野明住簡易郵便局","name:en":"Hino Meiju Summary Post Office","name:ja":"日野明住簡易郵便局","name:ja-Hira":"ひの めいじゅう かんいゆうびんきょく","note":"National-Land Numerical Information (Public Facility) 2006, MLIT Japan","note:ja":"国土数値情報（公共施設データ）平成19年　国土交通省","opening_hours":"Mo-Fr 09:00-17:00","operator":"日本郵便","operator:en":"Japan Post","operator:ja":"日本郵便","operator:short":"郵便局","operator:short:en":"JP","operator:short:ja":"郵便局","operator:wikidata":"Q11509260","phone":"+81-748-52-2137","source":"KSJ2","source_ref":"http://nlftp.mlit.go.jp/ksj/jpgis/datalist/KsjTmplt-P02-v2_0.html"},"type":"node","ver":2},{"id":1422943269,"lat":35.033764,"lon":136.199832,"tags":{"addr:block_number":"845","addr:city":"東近江市","addr:housenumber":"3","addr:postcode":"529-1522","addr:province":"滋賀県","addr:quarter":"鋳物師町","amenity":"post_office","name":"朝日野郵便局","name:en":"Asahino Post Office","name:ja":"朝日野郵便局","name:ja-Hira":"あさひの ゆうびんきょく","note":"National-Land Numerical Information (Public Facility) 2006, MLIT Japan","note:ja":"国土数値情報（公共施設データ）平成19年　国土交通省","opening_hours":"Mo-Fr 09:00-17:00","operator":"日本郵便","operator:en":"Japan Post","operator:ja":"日本郵便","operator:short":"郵便局","operator:short:en":"JP","operator:short:ja":"郵便局","operator:wikidata":"Q11509260","phone":"+81-748-55-0342","source":"KSJ2","source_ref":"http://nlftp.mlit.go.jp/ksj/jpgis/datalist/KsjTmplt-P02-v2_0.html"},"type":"node","ver":2},{"id":1422941270,"lat":34.946205,"lon":136.2331519,"tags":{"addr:block_number":"2154","addr:city":"甲賀市","addr:postcode":"528-0235","addr:province":"滋賀県","addr:quarter":"土山町大野","amenity":"post_office","name":"土山大野郵便局","name:en":"Tsuchiyama Ono Post Office","name:ja":"土山大野郵便局","name:ja-Hira":"つちやまおおのゆうびんきょく","name:ja-Latn":"Tsuchiyama Ōno yūbinkyoku","note":"National-Land Numerical Information (Public Facility) 2006, MLIT Japan","note:ja":"国土数値情報（公共施設データ）平成19年　国土交通省","opening_hours":"Mo-Fr 09:00-17:00","operator":"日本郵便","operator:en":"Japan Post","operator:ja":"日本郵便","operator:short":"郵便局","operator:short:en":"JP","operator:short:ja":"郵便局","operator:wikidata":"Q11509260","phone":"+81-748-67-0050","source":"KSJ2","source_ref":"http://nlftp.mlit.go.jp/ksj/jpgis/datalist/KsjTmplt-P02-v2_0.html"},"type":"node","ver":4},{"id":1422943250,"lat":34.985929,"lon":136.260559,"tags":{"KSJ2:ADS":"鎌掛2885-6","KSJ2:AdminArea":"滋賀県蒲生郡日野町","amenity":"post_office","name":"日野鎌掛郵便局","note":"National-Land Numerical Information (Public Facility) 2006, MLIT Japan","note:ja":"国土数値情報（公共施設データ）平成19年　国土交通省","operator":"日本郵便","operator:en":"Japan Post","operator:ja":"日本郵便","operator:short":"郵便局","operator:short:en":"JP","operator:short:ja":"郵便局","operator:wikidata":"Q11509260","source":"KSJ2","source_ref":"http://nlftp.mlit.go.jp/ksj/jpgis/datalist/KsjTmplt-P02-v2_0.html"},"type":"node","ver":2},{"id":1422941287,"lat":34.93801,"lon":136.2822266,"tags":{"addr:block_number":"1760","addr:city":"甲賀市","addr:housenumber":"1","addr:postcode":"528-0299","addr:province":"滋賀県","addr:quarter":"土山町北土山","amenity":"post_office","name":"土山郵便局","name:es":"Oficina de Correos de Tsuchiyama","name:ja":"土山郵便局","name:ja-Hira":"つちやま ゆうびんきょく","note":"National-Land Numerical Information (Public Facility) 2006, MLIT Japan","note:ja":"国土数値情報（公共施設データ）平成19年　国土交通省","opening_hours":"Mo-Fr 09:00-17:00","operator":"日本郵便","operator:en":"Japan Post","operator:ja":"日本郵便","operator:short":"郵便局","operator:short:en":"JP","operator:short:ja":"郵便局","operator:wikidata":"Q11509260","phone":"+81-748-66-0050","source":"KSJ2","source_ref":"http://nlftp.mlit.go.jp/ksj/jpgis/datalist/KsjTmplt-P02-v2_0.html"},"type":"node","ver":4},{"id":9601007014,"lat":35.0122947,"lon":136.2196508,"tags":{"amenity":"post_box"},"type":"node","ver":1},{"id":1422943241,"lat":35.00247,"lon":136.224773,"tags":{"addr:block_number":"916","addr:city":"日野町","addr:county":"蒲生郡","addr:housenumber":"4","addr:postcode":"529-1639","addr:province":"滋賀県","addr:quarter":"清田","amenity":"post_office","name":"日野清田郵便局","name:en":"Hino Kiyota Post Office","name:ja":"日野清田郵便局","name:ja-Hira":"ひの きよた ゆうびんきょく","note":"National-Land Numerical Information (Public Facility) 2006, MLIT Japan","note:ja":"国土数値情報（公共施設データ）平成19年　国土交通省","opening_hours":"Mo-Fr 09:00-17:00","operator":"日本郵便","operator:en":"Japan Post","operator:ja":"日本郵便","operator:short":"郵便局","operator:short:en":"JP","operator:short:ja":"郵便局","operator:wikidata":"Q11509260","phone":"+81-748-52-2221","source":"KSJ2","source_ref":"http://nlftp.mlit.go.jp/ksj/jpgis/datalist/KsjTmplt-P02-v2_0.html"},"type":"node","ver":2},{"id":1422944798,"lat":35.0123218,"lon":136.261148,"tags":{"addr:block_number":"1244","addr:city":"日野町","addr:county":"蒲生郡","addr:postcode":"529-1628","addr:province":"滋賀県","addr:quarter":"西大路","amenity":"post_office","name":"西大路郵便局","name:en":"Nishioji Post Office","name:ja":"西大路郵便局","name:ja-Hira":"にしおおじ ゆうびんきょく","note":"National-Land Numerical Information (Public Facility) 2006, MLIT Japan","note:ja":"国土数値情報（公共施設データ）平成19年　国土交通省","opening_hours":"Mo-Fr 09:00-17:00","operator":"日本郵便","operator:en":"Japan Post","operator:ja":"日本郵便","operator:short":"郵便局","operator:short:en":"JP","operator:short:ja":"郵便局","operator:wikidata":"Q11509260","phone":"+81-748-52-2224","source":"KSJ2","source_ref":"http://nlftp.mlit.go.jp/ksj/jpgis/datalist/KsjTmplt-P02-v2_0.html"},"type":"node","ver":4},{"id":1422940854,"lat":35.01473,"lon":136.224701,"tags":{"addr:block_number":"334","addr:city":"日野町","addr:county":"蒲生郡","addr:housenumber":"6","addr:postcode":"529-1644","addr:province":"滋賀県","addr:quarter":"内池","amenity":"post_office","name":"内池郵便局","name:en":"Uchiike Post Office","name:ja":"内池郵便局","name:ja-Hira":"うちいけ ゆうびんきょく","note":"National-Land Numerical Information (Public Facility) 2006, MLIT Japan","note:ja":"国土数値情報（公共施設データ）平成19年　国土交通省","opening_hours":"Mo-Fr 09:00-17:00","operator":"日本郵便","operator:en":"Japan Post","operator:ja":"日本郵便","operator:short":"郵便局","operator:short:en":"JP","operator:short:ja":"郵便局","operator:wikidata":"Q11509260","phone":"+81-748-52-2225","source":"KSJ2","source_ref":"http://nlftp.mlit.go.jp/ksj/jpgis/datalist/KsjTmplt-P02-v2_0.html"},"type":"node","ver":2},{"id":1422943251,"lat":35.014599,"lon":136.23821,"tags":{"addr:block_number":"170","addr:city":"日野町","addr:county":"蒲生郡","addr:housenumber":"4","addr:postcode":"529-1642","addr:province":"滋賀県","addr:quarter":"上野田","amenity":"post_office","name":"日野雲雀野郵便局","name:en":"Hino Hibarino Post Office","name:ja":"日野雲雀野郵便局","name:ja-Hira":"ひの ひばりの ゆうびんきょく","note":"National-Land Numerical Information (Public Facility) 2006, MLIT Japan","note:ja":"国土数値情報（公共施設データ）平成19年　国土交通省","opening_hours":"Mo-Fr 09:00-17:00","operator":"日本郵便","operator:en":"Japan Post","operator:ja":"日本郵便","operator:short":"郵便局","operator:short:en":"JP","operator:short:ja":"郵便局","operator:wikidata":"Q11509260","phone":"+81-748-52-2222","source":"KSJ2","source_ref":"http://nlftp.mlit.go.jp/ksj/jpgis/datalist/KsjTmplt-P02-v2_0.html"},"type":"node","ver":2},{"id":1422944888,"lat":35.015982,"lon":136.24588,"tags":{"addr:block_number":"1","addr:city":"日野町","addr:county":"蒲生郡","addr:housenumber":"86","addr:postcode":"529-1699","addr:province":"滋賀県","addr:quarter":"松尾","amenity":"post_office","name":"近江日野郵便局","name:en":"Omi Hino Post Office","name:es":"Oficina de Correos de Omi Hino","name:ja":"近江日野郵便局","name:ja-Hira":"おうみ ひの ゆうびんきょく","note":"National-Land Numerical Information (Public Facility) 2006, MLIT Japan","note:ja":"国土数値情報（公共施設データ）平成19年　国土交通省","opening_hours":"Mo-Fr 09:00-17:00","operator":"日本郵便","operator:en":"Japan Post","operator:ja":"日本郵便","operator:short":"郵便局","operator:short:en":"JP","operator:short:ja":"郵便局","operator:wikidata":"Q11509260","phone":"+81-800-0800-111","source":"KSJ2","source_ref":"http://nlftp.mlit.go.jp/ksj/jpgis/datalist/KsjTmplt-P02-v2_0.html","wikidata":"Q11638497"},"type":"node","ver":3},{"id":1422944671,"lat":35.0501233,"lon":135.9490572,"tags":{"addr:block_number":"413","addr:city":"草津市","addr:postcode":"525-0012","addr:province":"滋賀県","addr:quarter":"穴村町","amenity":"post_office","name":"草津常盤郵便局","name:en":"Kusatsu Tokiwa Post Office","name:ja":"草津常盤郵便局","name:ja-Hira":"くさつ ときわ ゆうびんきょく","note":"National-Land Numerical Information (Public Facility) 2006, MLIT Japan","note:ja":"国土数値情報（公共施設データ）平成19年　国土交通省","opening_hours":"Mo-Fr 09:00-17:00","operator":"日本郵便","operator:en":"Japan Post","operator:ja":"日本郵便","operator:short":"郵便局","operator:short:en":"JP","operator:short:ja":"郵便局","operator:wikidata":"Q11509260","phone":"+81-77-568-0900","source":"KSJ2","source_ref":"http://nlftp.mlit.go.jp/ksj/jpgis/datalist/KsjTmplt-P02-v2_0.html"},"type":"node","ver":2},{"id":10050196017,"lat":35.0500056,"lon":135.9490828,"tags":{"amenity":"post_box"},"type":"node","ver":1},{"id":13071888208,"lat":35.0606986,"lon":135.9496467,"tags":{"amenity":"post_box"},"type":"node","ver":1},{"id":1422941602,"lat":35.039114,"lon":135.975364,"tags":{"addr:block_number":"15","addr:city":"栗東市","addr:housenumber":"18","addr:neighbourhood":"5丁目","addr:postcode":"520-3031","addr:province":"滋賀県","addr:quarter":"綣","amenity":"post_office","name":"大宝郵便局","name:en":"Daiho Post Office","name:ja":"大宝郵便局","name:ja-Hira":"だいほう ゆうびんきょく","note":"National-Land Numerical Information (Public Facility) 2006, MLIT Japan","note:ja":"国土数値情報（公共施設データ）平成19年　国土交通省","opening_hours":"Mo-Fr 09:00-17:00","operator":"日本郵便","operator:en":"Japan Post","operator:ja":"日本郵便","operator:short":"郵便局","operator:short:en":"JP","operator:short:ja":"郵便局","operator:wikidata":"Q11509260","phone":"+81-77-552-1904","source":"KSJ2","source_ref":"http://nlftp.mlit.go.jp/ksj/jpgis/datalist/KsjTmplt-P02-v2_0.html"},"type":"node","ver":2},{"id":1422942214,"lat":35.051473,"lon":136.000278,"tags":{"KSJ2:ADS":"浮気町341-2","KSJ2:AdminArea":"滋賀県守山市","amenity":"post_office","name":"守山浮気郵便局","note":"National-Land Numerical Information (Public Facility) 2006, MLIT Japan","note:ja":"国土数値情報（公共施設データ）平成19年　国土交通省","operator":"日本郵便","operator:en":"Japan Post","operator:ja":"日本郵便","operator:short":"郵便局","operator:short:en":"JP","operator:short:ja":"郵便局","operator:wikidata":"Q11509260","source":"KSJ2","source_ref":"http://nlftp.mlit.go.jp/ksj/jpgis/datalist/KsjTmplt-P02-v2_0.html"},"type":"node","ver":2},{"id":1422942258,"lat":35.054556,"lon":135.991501,"tags":{"addr:block_number":"7","addr:city":"守山市","addr:housenumber":"1","addr:neighbourhood":"1丁目","addr:postcode":"524-0022","addr:province":"滋賀県","addr:quarter":"守山","amenity":"post_office","name":"守山駅前郵便局","name:en":"Moriyama Ekimae Post Office","name:ja":"守山駅前郵便局","name:ja-Hira":"もりやま えきまえ ゆうびんきょく","note":"National-Land Numerical Information (Public Facility) 2006, MLIT Japan","note:ja":"国土数値情報（公共施設データ）平成19年　国土交通省","opening_hours":"Mo-Fr 09:00-17:00","operator":"日本郵便","operator:en":"Japan Post","operator:ja":"日本郵便","operator:short":"郵便局","operator:short:en":"JP","operator:short:ja":"郵便局","operator:wikidata":"Q11509260","phone":"+81-77-582-2912","source":"KSJ2","source_ref":"http://nlftp.mlit.go.jp/ksj/jpgis/datalist/KsjTmplt-P02-v2_0.html"},"type":"node","ver":2},{"id":1422944886,"lat":35.062667,"lon":135.99114,"tags":{"addr:block_number":"17","addr:city":"守山市","addr:housenumber":"1","addr:neighbourhood":"6丁目","addr:postcode":"524-8799","addr:province":"滋賀県","addr:quarter":"守山","amenity":"post_office","name":"近江守山郵便局","name:en":"Omi Moriyama Post Office","name:es":"Oficina de Correos de Omi Moriyama","name:ja":"近江守山郵便局","name:ja-Hira":"おうみもりやま ゆうびんきょく","note":"National-Land Numerical Information (Public Facility) 2006, MLIT Japan","note:ja":"国土数値情報（公共施設データ）平成19年　国土交通省","opening_hours":"Mo-Fr 09:00-17:00","operator":"日本郵便","operator:en":"Japan Post","operator:ja":"日本郵便","operator:short":"郵便局","operator:short:en":"JP","operator:short:ja":"郵便局","operator:wikidata":"Q11509260","phone":"+81-800-0800-111","source":"KSJ2","source_ref":"http://nlftp.mlit.go.jp/ksj/jpgis/datalist/KsjTmplt-P02-v2_0.html","wikidata":"Q11638486"},"type":"node","ver":3},{"id":1422944838,"lat":35.0759683,"lon":135.970969,"tags":{"addr:block_number":"35","addr:city":"守山市","addr:housenumber":"7","addr:postcode":"524-0061","addr:province":"滋賀県","addr:quarter":"赤野井町","amenity":"post_office","name":"赤野井郵便局","name:en":"Akanoi Post Office","name:ja":"赤野井郵便局","name:ja-Hira":"あかのい ゆうびんきょく","note":"National-Land Numerical Information (Public Facility) 2006, MLIT Japan","note:ja":"国土数値情報（公共施設データ）平成19年　国土交通省","opening_hours":"Mo-Fr 09:00-17:00","operator":"日本郵便","operator:en":"Japan Post","operator:ja":"日本郵便","operator:short":"郵便局","operator:short:en":"JP","operator:short:ja":"郵便局","operator:wikidata":"Q11509260","phone":"+81-77-585-1995","source":"KSJ2","source_ref":"http://nlftp.mlit.go.jp/ksj/jpgis/datalist/KsjTmplt-P02-v2_0.html"},"type":"node","ver":2},{"id":1422942206,"lat":35.073666,"lon":135.992223,"tags":{"addr:block_number":"747","addr:city":"守山市","addr:housenumber":"2","addr:postcode":"524-0012","addr:province":"滋賀県","addr:quarter":"播磨田町","amenity":"post_office","name":"守山播磨田郵便局","name:en":"Moriguchi Harimada Post Office","name:ja":"守山播磨田郵便局","name:ja-Hira":"もりやま はりまだ ゆうびんきょく","note":"National-Land Numerical Information (Public Facility) 2006, MLIT Japan","note:ja":"国土数値情報（公共施設データ）平成19年　国土交通省","opening_hours":"Mo-Fr 09:00-17:00","operator":"日本郵便","operator:en":"Japan Post","operator:ja":"日本郵便","operator:short":"郵便局","operator:short:en":"JP","operator:short:ja":"郵便局","operator:wikidata":"Q11509260","phone":"+81-77-583-8231","source":"KSJ2","source_ref":"http://nlftp.mlit.go.jp/ksj/jpgis/datalist/KsjTmplt-P02-v2_0.html"},"type":"node","ver":2},{"id":1422942006,"lat":35.110521,"lon":135.920756,"tags":{"addr:block_number":"20","addr:city":"大津市","addr:housenumber":"13","addr:neighbourhood":"1丁目","addr:postcode":"520-0242","addr:province":"滋賀県","addr:quarter":"本堅田","amenity":"post_office","name":"大津本堅田郵便局","name:en":"Otsu Honkatata Post Office","name:ja":"大津本堅田郵便局","name:ja-Hira":"おおつ ほんかたた ゆうびんきょく","note":"National-Land Numerical Information (Public Facility) 2006, MLIT Japan","note:ja":"国土数値情報（公共施設データ）平成19年　国土交通省","opening_hours":"Mo-Fr 09:00-17:00","operator":"日本郵便","operator:en":"Japan Post","operator:ja":"日本郵便","operator:short":"郵便局","operator:short:en":"JP","operator:short:ja":"郵便局","operator:wikidata":"Q11509260","phone":"+81-77-572-1953","source":"KSJ2","source_ref":"http://nlftp.mlit.go.jp/ksj/jpgis/datalist/KsjTmplt-P02-v2_0.html"},"type":"node","ver":2},{"id":4584804995,"lat":35.110438,"lon":135.92081,"tags":{"amenity":"post_box"},"type":"node","ver":1},{"id":4584831295,"lat":35.114117,"lon":135.910883,"tags":{"amenity":"post_box"},"type":"node","ver":1},{"id":4975093349,"lat":35.1207136,"lon":135.9150932,"tags":{"amenity":"post_box","collection_times":"Mo-Sa 10:05, 15:05; Su, PH 09:05","level":"0","ref":"20109","source":"local knowledge","wheelchair":"yes"},"type":"node","ver":1},{"id":1422941398,"lat":35.123566,"lon":135.920484,"tags":{"addr:block_number":"21","addr:city":"大津市","addr:housenumber":"26","addr:neighbourhood":"2丁目","addr:postcode":"520-0299","addr:province":"滋賀県","addr:quarter":"今堅田","amenity":"post_office","name":"堅田郵便局","name:en":"Katata Post Office","name:ja-Hira":"かたた ゆうびんきょく","note":"National-Land Numerical Information (Public Facility) 2006, MLIT Japan","note:ja":"国土数値情報（公共施設データ）平成19年　国土交通省","opening_hours":"Mo-Fr 09:00-17:00","operator":"日本郵便","operator:en":"Japan Post","operator:ja":"日本郵便","operator:short":"郵便局","operator:short:en":"JP","operator:short:ja":"郵便局","operator:wikidata":"Q11509260","phone":"+81-800-0800-111","source":"KSJ2","source_ref":"http://nlftp.mlit.go.jp/ksj/jpgis/datalist/KsjTmplt-P02-v2_0.html","wikidata":"Q11427935"},"type":"node","ver":3},{"id":2753117964,"lat":35.1187035,"lon":135.9161333,"tags":{"amenity":"post_box","source":"survey"},"type":"node","ver":1},{"id":1422944149,"lat":35.132941,"lon":135.910668,"tags":{"addr:block_number":"4","addr:city":"大津市","addr:housenumber":"34","addr:neighbourhood":"1丁目","addr:postcode":"520-0231","addr:province":"滋賀県","addr:quarter":"真野普門","amenity":"post_office","name":"真野郵便局","name:en":"Mano Post Office","name:ja":"真野郵便局","name:ja-Hira":"まの ゆうびんきょく","note":"National-Land Numerical Information (Public Facility) 2006, MLIT Japan","note:ja":"国土数値情報（公共施設データ）平成19年　国土交通省","opening_hours":"Mo-Fr 09:00-17:00","operator":"日本郵便","operator:en":"Japan Post","operator:ja":"日本郵便","operator:short":"郵便局","operator:short:en":"JP","operator:short:ja":"郵便局","operator:wikidata":"Q11509260","phone":"+81-77-572-1951","source":"KSJ2","source_ref":"http://nlftp.mlit.go.jp/ksj/jpgis/datalist/KsjTmplt-P02-v2_0.html"},"type":"node","ver":2},{"id":1422941744,"lat":35.137768,"lon":135.914868,"tags":{"addr:block_number":"18","addr:city":"大津市","addr:housenumber":"1","addr:postcode":"520-0224","addr:province":"滋賀県","addr:quarter":"向陽町","amenity":"post_office","name":"大津向陽郵便局","name:en":"Otsu Koyo Post Office","name:ja":"大津向陽郵便局","name:ja-Hira":"おおつ こうよう ゆうびんきょく","note":"National-Land Numerical Information (Public Facility) 2006, MLIT Japan","note:ja":"国土数値情報（公共施設データ）平成19年　国土交通省","opening_hours":"Mo-Fr 09:00-17:00","operator":"日本郵便","operator:en":"Japan Post","operator:ja":"日本郵便","operator:short":"郵便局","operator:short:en":"JP","operator:short:ja":"郵便局","operator:wikidata":"Q11509260","phone":"+81-77-573-0811","source":"KSJ2","source_ref":"http://nlftp.mlit.go.jp/ksj/jpgis/datalist/KsjTmplt-P02-v2_0.html"},"type":"node","ver":2},{"id":1422943118,"lat":35.139101,"lon":135.922061,"tags":{"addr:block_number":"1","addr:city":"大津市","addr:housenumber":"26","addr:neighbourhood":"1丁目","addr:postcode":"520-0532","addr:province":"滋賀県","addr:quarter":"湖青","amenity":"post_office","name":"志賀小野駅前郵便局","name:en":"Shiga Ono Ekimae Post Office","name:ja":"志賀小野駅前郵便局","name:ja-Hira":"しが おのえきまえ ゆうびんきょく","note":"National-Land Numerical Information (Public Facility) 2006, MLIT Japan","note:ja":"国土数値情報（公共施設データ）平成19年　国土交通省","opening_hours":"Mo-Fr 09:00-17:00","operator":"日本郵便","operator:en":"Japan Post","operator:ja":"日本郵便","operator:short":"郵便局","operator:short:en":"JP","operator:short:ja":"郵便局","operator:wikidata":"Q11509260","phone":"+81-77-594-2001","source":"KSJ2","source_ref":"http://nlftp.mlit.go.jp/ksj/jpgis/datalist/KsjTmplt-P02-v2_0.html"},"type":"node","ver":2},{"id":1422943324,"lat":35.105744,"lon":135.951115,"tags":{"addr:block_number":"1686","addr:city":"守山市","addr:postcode":"524-0199","addr:province":"滋賀県","addr:quarter":"木浜町","amenity":"post_office","name":"木浜郵便局","name:en":"Konohama Post Office","name:ja":"木浜郵便局","name:ja-Hira":"このはま ゆうびんきょく","note":"National-Land Numerical Information (Public Facility) 2006, MLIT Japan","note:ja":"国土数値情報（公共施設データ）平成19年　国土交通省","opening_hours":"Mo-Fr 09:00-17:00","operator":"日本郵便","operator:en":"Japan Post","operator:ja":"日本郵便","operator:short":"郵便局","operator:short:en":"JP","operator:short:ja":"郵便局","operator:wikidata":"Q11509260","phone":"+81-77-585-1996","source":"KSJ2","source_ref":"http://nlftp.mlit.go.jp/ksj/jpgis/datalist/KsjTmplt-P02-v2_0.html"},"type":"node","ver":2},{"id":1422943023,"lat":35.1106775,"lon":135.9840219,"tags":{"addr:block_number":"1537","addr:city":"守山市","addr:postcode":"524-0215","addr:province":"滋賀県","addr:quarter":"幸津川町","amenity":"post_office","name":"幸津川郵便局","name:en":"Satsukawa Post Office","name:ja":"幸津川郵便局","name:ja-Hira":"さつかわ ゆうびんきょく","note":"National-Land Numerical Information (Public Facility) 2006, MLIT Japan","note:ja":"国土数値情報（公共施設データ）平成19年　国土交通省","opening_hours":"Mo-Fr 09:00-17:00","operator":"日本郵便","operator:en":"Japan Post","operator:ja":"日本郵便","operator:short":"郵便局","operator:short:en":"JP","operator:short:ja":"郵便局","operator:wikidata":"Q11509260","phone":"+81-77-585-1997","source":"KSJ2","source_ref":"http://nlftp.mlit.go.jp/ksj/jpgis/datalist/KsjTmplt-P02-v2_0.html"},"type":"node","ver":2},