{"prefectureCode":14,"data":[{"id":1420831601,"lat":35.190031,"lon":139.0263669,"tags":{"addr:block_number":"79","addr:city":"箱根町","addr:county":"足柄下郡","addr:neighbourhood":"箱根","addr:postcode":"250-0521","addr:province":"神奈川県","amenity":"post_office","name":"箱根町郵便局","name:ja":"箱根町郵便局","name:ja-Hira":"はこねまちゆうびんきょく"},"type":"node","ver":5},{"id":10942388615,"lat":35.200283,"lon":139.0306053,"tags":{"amenity":"post_box"},"type":"node","ver":1},{"id":5133764205,"lat":35.159893,"lon":139.0602676,"tags":{"amenity":"post_box"},"type":"node","ver":1},{"id":1420827138,"lat":35.1459029,"lon":139.0746328,"tags":{"addr:block_number":"475","addr:city":"湯河原町","addr:county":"足柄下郡","addr:housenumber":"4","addr:neighbourhood":"宮上","addr:postcode":"259-0314","addr:province":"神奈川県","amenity":"post_office","contact:website":"https://map.japanpost.jp/p/search/dtl/300102068000/","name":"湯河原温泉郵便局","name:ja":"湯河原温泉郵便局","name:ja-Hira":"ゆがわらおんせんゆうびんきょく","opening_hours":"Mo-Fr 09:00-11:30, 12:30-17:00"},"type":"node","ver":4},{"id":11559462877,"lat":35.1436942,"lon":139.0998631,"tags":{"amenity":"post_box"},"type":"node","ver":1},{"id":1420815663,"lat":35.148521,"lon":139.1125583,"tags":{"addr:block_number":"20","addr:city":"湯河原町","addr:county":"足柄下郡","addr:housenumber":"15","addr:neighbourhood":"中央二丁目","addr:postcode":"259-0301","addr:province":"神奈川県","amenity":"post_office","name":"幕山公園通郵便局","name:ja":"幕山公園通郵便局","name:ja-Hira":"まくやまこうえんどおりゆうびんきょく"},"type":"node","ver":3},{"id":12850681101,"lat":35.1471187,"lon":139.1088721,"tags":{"amenity":"post_box"},"type":"node","ver":1},{"id":1420830549,"lat":35.1559925,"lon":139.1274541,"tags":{"addr:block_number":"378","addr:city":"湯河原町","addr:county":"足柄下郡","addr:housenumber":"1","addr:neighbourhood":"吉浜","addr:postcode":"259-0312","addr:province":"神奈川県","amenity":"post_office","name":"福浦郵便局","name:ja":"福浦郵便局","name:ja-Hira":"ふくうらゆうびんきょく"},"type":"node","ver":2},{"id":1420829464,"lat":35.1582342,"lon":139.1349063,"tags":{"addr:block_number":"298","addr:city":"真鶴町","addr:county":"足柄下郡","addr:housenumber":"4","addr:neighbourhood":"岩","addr:postcode":"259-0202","addr:province":"神奈川県","amenity":"post_office","name":"真鶴郵便局","name:ja":"真鶴郵便局","name:ja-Hira":"まなづるゆうびんきょく"},"type":"node","ver":3},{"id":6438701246,"lat":35.2404561,"lon":139.0527891,"tags":{"amenity":"post_box"},"type":"node","ver":1},{"id":1420816732,"lat":35.2435313,"lon":139.0617659,"tags":{"addr:block_number":"115","addr:city":"箱根町","addr:county":"足柄下郡","addr:neighbourhood":"宮ノ下","addr:postcode":"250-0404","addr:province":"神奈川県","amenity":"post_office","name":"宮ノ下温泉簡易郵便局","name:ja":"宮ノ下温泉簡易郵便局","name:ja-Hira":"みやのしたおんせんかんいゆうびんきょく","opening_hours":"Mo-Fr 09:00-16:00"},"type":"node","ver":5},{"id":12609580788,"lat":35.2379952,"lon":139.0731439,"tags":{"amenity":"post_box"},"type":"node","ver":1},{"id":1420823317,"lat":35.2022459,"lon":139.1379665,"tags":{"addr:block_number":"89","addr:city":"小田原市","addr:housenumber":"33","addr:neighbourhood":"根府川","addr:postcode":"250-0024","addr:province":"神奈川県","amenity":"post_office","name":"根府川郵便局","name:ja":"根府川郵便局","name:ja-Hira":"ねぶかわゆうびんきょく"},"type":"node","ver":2},{"id":6138389196,"lat":35.2312255,"lon":139.0996297,"tags":{"amenity":"post_box"},"type":"node","ver":1},{"id":1420817003,"lat":35.2376864,"lon":139.1457042,"tags":{"addr:block_number":"173","addr:city":"小田原市","addr:neighbourhood":"早川","addr:postcode":"250-0021","addr:province":"神奈川県","amenity":"post_office","name":"小田原早川郵便局","name:en":"Odawara Hayakawa Post Office","name:ja":"小田原早川郵便局","name:ja-Hira":"おだわらはやかわゆうびんきょく"},"type":"node","ver":3},{"id":3731455626,"lat":35.2458265,"lon":139.1445029,"tags":{"amenity":"post_box"},"type":"node","ver":1},{"id":3731455631,"lat":35.2461657,"lon":139.1480647,"tags":{"amenity":"post_box"},"type":"node","ver":1},{"id":6138393564,"lat":35.248978,"lon":138.9985416,"tags":{"amenity":"post_box"},"type":"node","ver":1},{"id":6138393572,"lat":35.2641087,"lon":139.0136212,"tags":{"amenity":"post_box"},"type":"node","ver":1},{"id":2199051919,"lat":35.3656496,"lon":139.0384223,"tags":{"amenity":"post_box","operator":"日本郵便","source":"survey"},"type":"node","ver":2},{"id":1420826456,"lat":35.373759,"lon":139.031478,"tags":{"addr:block_number":"668","addr:city":"山北町","addr:county":"足柄上郡","addr:housenumber":"14","addr:neighbourhood":"川西","addr:postcode":"258-0124","addr:province":"神奈川県","amenity":"post_office","name":"清水郵便局","name:ja":"清水郵便局","name:ja-Hira":"しみずゆうびんきょく"},"type":"node","ver":2},{"id":1420831416,"lat":35.2504178,"lon":139.0476994,"tags":{"addr:block_number":"1300","addr:city":"箱根町","addr:county":"足柄下郡","addr:housenumber":"39","addr:neighbourhood":"強羅","addr:postcode":"250-0408","addr:province":"神奈川県","amenity":"post_office","atm":"yes","name":"箱根強羅郵便局","name:fr":"Bureau de poste","name:ja":"箱根強羅郵便局","name:ja-Hira":"はこねごうらゆうびんきょく"},"type":"node","ver":5},{"id":1420831393,"lat":35.2538541,"lon":139.0513974,"tags":{"addr:city":"箱根町","addr:county":"足柄下郡","addr:postcode":"250-0401","addr:province":"神奈川県","amenity":"post_office","name":"箱根宮城野郵便局","name:ja":"箱根宮城野郵便局","name:ja-Hira":"はこねみやぎのゆうびんきょく"},"type":"node","ver":4},{"id":3741182225,"lat":35.2514532,"lon":139.1445131,"tags":{"amenity":"post_box"},"type":"node","ver":1},{"id":6133903234,"lat":35.2715161,"lon":139.1347237,"tags":{"amenity":"post_box"},"type":"node","ver":2},{"id":6133872665,"lat":35.2700465,"lon":139.1456695,"tags":{"amenity":"post_box"},"type":"node","ver":2},{"id":6133883790,"lat":35.2715835,"lon":139.1405664,"tags":{"amenity":"post_box"},"type":"node","ver":2},{"id":1420817075,"lat":35.2880948,"lon":139.1381806,"tags":{"addr:block_number":"554","addr:city":"小田原市","addr:housenumber":"1","addr:neighbourhood":"飯田岡","addr:postcode":"250-0854","addr:province":"神奈川県","amenity":"post_office","name":"小田原飯田岡郵便局","name:ja":"小田原飯田岡郵便局","name:ja-Hira":"おだわらいいだおかゆうびんきょく"},"type":"node","ver":4},{"id":13962297442,"lat":35.2880362,"lon":139.1381054,"tags":{"amenity":"post_box"},"type":"node","ver":1},{"id":12791257301,"lat":35.3513294,"lon":139.0703626,"tags":{"amenity":"post_box","name":"258235"},"type":"node","ver":1},{"id":12799909101,"lat":35.351423,"lon":139.0862045,"tags":{"amenity":"post_box"},"type":"node","ver":1},{"id":1420817105,"lat":35.3522036,"lon":139.0933455,"tags":{"addr:block_number":"1326","addr:city":"山北町","addr:county":"足柄上郡","addr:housenumber":"3","addr:neighbourhood":"岸","addr:postcode":"258-0112","addr:province":"神奈川県","amenity":"post_office","name":"山北岸郵便局","name:ja":"山北岸郵便局","name:ja-Hira":"やまきたきしゆうびんきょく"},"type":"node","ver":3},{"id":1420815752,"lat":35.3157064,"lon":139.1184638,"tags":{"addr:block_number":"580","addr:city":"南足柄市","addr:housenumber":"1","addr:neighbourhood":"和田河原","addr:postcode":"250-0112","addr:province":"神奈川県","amenity":"post_office","name":"和田河原駅前郵便局","name:ja":"和田河原駅前郵便局","name:ja-Hira":"わだがはらえきまえゆうびんきょく"},"type":"node","ver":3},{"id":1420816250,"lat":35.3020094,"lon":139.1256343,"tags":{"addr:block_number":"2631","addr:city":"南足柄市","addr:housenumber":"1","addr:neighbourhood":"塚原","addr:postcode":"250-0117","addr:province":"神奈川県","amenity":"post_office","name":"塚原郵便局","name:ja":"塚原郵便局","name:ja-Hira":"つかはらゆうびんきょく"},"type":"node","ver":3},{"id":1420823311,"lat":35.3101385,"lon":139.1416054,"tags":{"addr:block_number":"1753","addr:city":"小田原市","addr:housenumber":"4","addr:neighbourhood":"曽比","addr:postcode":"250-0851","addr:province":"神奈川県","amenity":"post_office","name":"栢山駅前郵便局","name:ja":"栢山駅前郵便局","name:ja-Hira":"かやまえきまえゆうびんきょく"},"type":"node","ver":3},{"id":8113419941,"lat":35.3452142,"lon":139.14026,"tags":{"amenity":"post_box","operator":"日本郵便","source":"survey"},"type":"node","ver":1},{"id":3401653440,"lat":35.2502541,"lon":139.151259,"tags":{"amenity":"post_box"},"type":"node","ver":1},{"id":3401653428,"lat":35.2541007,"lon":139.1575149,"tags":{"amenity":"post_box","collection_times":"Mo-Fr 11:30,15:35, Sa 11:15,15:10, Su,PH 11:15,16:20"},"type":"node","ver":2},{"id":3401653429,"lat":35.2526714,"lon":139.159129,"tags":{"amenity":"post_box"},"type":"node","ver":1},{"id":3401653430,"lat":35.2522697,"lon":139.1575136,"tags":{"amenity":"post_box","wheelchair":"yes"},"type":"node","ver":3},{"id":3401653431,"lat":35.2528495,"lon":139.15565,"tags":{"amenity":"post_box"},"type":"node","ver":1},{"id":3401653434,"lat":35.2538409,"lon":139.1588148,"tags":{"amenity":"post_box"},"type":"node","ver":1},{"id":3401653437,"lat":35.2495344,"lon":139.1576102,"tags":{"amenity":"post_box","collection_times":"Mo-Sa 10:30,14:30, Su,PH 11:35,15:10"},"type":"node","ver":2},{"id":3403846092,"lat":35.2558754,"lon":139.1564196,"tags":{"amenity":"post_box","collection_times":"Mo-Fr 12:10,17:00, Sa,Su,PH 10:45, Sa 15:45","level":"0"},"type":"node","ver":3},{"id":3676056603,"lat":35.2566146,"lon":139.1547045,"tags":{"amenity":"post_box","source":"survey"},"type":"node","ver":1},{"id":12712780631,"lat":35.2557456,"lon":139.1575593,"tags":{"amenity":"post_box"},"type":"node","ver":1},{"id":1420817004,"lat":35.249366,"lon":139.161136,"tags":{"addr:block_number":"11","addr:city":"小田原市","addr:housenumber":"14","addr:neighbourhood":"本町二丁目","addr:postcode":"250-0012","addr:province":"神奈川県","amenity":"post_office","name":"小田原本町郵便局","name:ja":"小田原本町郵便局","name:ja-Hira":"おだわらほんちょうゆうびんきょく"},"type":"node","ver":2},{"id":3699779031,"lat":35.2506991,"lon":139.1599912,"tags":{"amenity":"post_box","collection_times":"Mo-Sa 10:40,15:00, Su,PH 11:37,15:12"},"type":"node","ver":2},{"id":3699779041,"lat":35.2539725,"lon":139.1612739,"tags":{"amenity":"post_box","collection_times":"Mo-Sa 10:10,15:10, Su,PH 12:20,15:55"},"type":"node","ver":2},{"id":3699779044,"lat":35.2547143,"lon":139.1640385,"tags":{"amenity":"post_box","collection_times":"Mo-Sa 11:10, Mo-Su,PH 15:30, Su,PH 12:15"},"type":"node","ver":2},{"id":6124400873,"lat":35.2508081,"lon":139.1619844,"tags":{"amenity":"post_box"},"type":"node","ver":2},{"id":6133781366,"lat":35.2530185,"lon":139.1653715,"tags":{"amenity":"post_box"},"type":"node","ver":1},{"id":6134564446,"lat":35.2530202,"lon":139.1653658,"tags":{"amenity":"post_box","collection_times":"Mo-Sa 11:00,15:10; PH,Su 11:42,15:17"},"type":"node","ver":1},{"id":1420817012,"lat":35.254115,"lon":139.166858,"tags":{"addr:block_number":"6","addr:city":"小田原市","addr:housenumber":"24","addr:neighbourhood":"浜町二丁目","addr:postcode":"250-0004","addr:province":"神奈川県","amenity":"post_office","name":"小田原浜町郵便局","name:ja":"小田原浜町郵便局","name:ja-Hira":"おだわらはまちょうゆうびんきょく"},"type":"node","ver":2},{"id":6134553819,"lat":35.2540543,"lon":139.1668738,"tags":{"amenity":"post_box","collection_times":"Mo-Fr 10:50,14:55,17:05; Sa 10:45,14:50,16:50; PH,Su 10:45,15:40"},"type":"node","ver":1},{"id":1420817010,"lat":35.2604496,"lon":139.159386,"tags":{"addr:block_number":"8","addr:city":"小田原市","addr:housenumber":"14","addr:neighbourhood":"栄町三丁目","addr:postcode":"250-0011","addr:province":"神奈川県","amenity":"post_office","name":"小田原栄町郵便局","name:ja":"小田原栄町郵便局","name:ja-Hira":"おだわらさかえちょうゆうびんきょく","operator":"日本郵便","operator:en":"Japan Post","operator:ja":"日本郵便","operator:wikidata":"Q11509260","short_name":"郵便局","short_name:en":"JP","short_name:ja":"郵便局"},"type":"node","ver":4},{"id":3710443215,"lat":35.2580416,"lon":139.1598524,"tags":{"amenity":"post_box"},"type":"node","ver":1},{"id":3755618365,"lat":35.2559947,"lon":139.1597248,"tags":{"amenity":"post_box"},"type":"node","ver":1},{"id":3866914167,"lat":35.2588485,"lon":139.1609079,"tags":{"amenity":"post_box"},"type":"node","ver":1},{"id":6134437240,"lat":35.2569053,"lon":139.1654309,"tags":{"amenity":"post_box","collection_times":"Mo-Sa 11:00,15:00; PH,Su 11:12,15:12"},"type":"node","ver":2},{"id":1420816944,"lat":35.2664006,"lon":139.1508124,"tags":{"addr:block_number":"71","addr:city":"小田原市","addr:housenumber":"1","addr:neighbourhood":"久野","addr:postcode":"250-0055","addr:province":"神奈川県","amenity":"post_office","name":"小田原久野郵便局","name:ja":"小田原久野郵便局","name:ja-Hira":"おだわらくのゆうびんきょく"},"type":"node","ver":4},{"id":3278282629,"lat":35.2645805,"lon":139.1506743,"tags":{"amenity":"post_box","collection_times":"Mo-Su,PH 11:40,15:15","source":"survey"},"type":"node","ver":2},{"id":6133858591,"lat":35.2664312,"lon":139.1507226,"tags":{"amenity":"post_box"},"type":"node","ver":1},{"id":1420817000,"lat":35.2709094,"lon":139.1561543,"tags":{"addr:block_number":"26","addr:city":"小田原市","addr:housenumber":"28","addr:neighbourhood":"扇町三丁目","addr:postcode":"250-0001","addr:province":"神奈川県","amenity":"post_office","name":"小田原扇町郵便局","name:ja":"小田原扇町郵便局","name:ja-Hira":"おだわらおうぎちょうゆうびんきょく"},"type":"node","ver":5},{"id":1420833680,"lat":35.2677836,"lon":139.192425,"tags":{"addr:block_number":"8","addr:city":"小田原市","addr:housenumber":"6","addr:neighbourhood":"酒匂四丁目","addr:postcode":"256-0816","addr:province":"神奈川県","amenity":"post_office","name":"酒匂郵便局","name:ja":"酒匂郵便局","name:ja-Hira":"さかわゆうびんきょく"},"type":"node","ver":2},{"id":1420833007,"lat":35.2843169,"lon":139.1526351,"tags":{"addr:block_number":"378","addr:city":"小田原市","addr:housenumber":"2","addr:neighbourhood":"蓮正寺","addr:postcode":"250-0865","addr:province":"神奈川県","amenity":"post_office","name":"螢田駅前郵便局","name:ja":"螢田駅前郵便局","name:ja-Hira":"ほたるだえきまえゆうびんきょく"},"type":"node","ver":4},{"id":1420816957,"lat":35.2962545,"lon":139.14747,"tags":{"addr:block_number":"193","addr:city":"小田原市","addr:neighbourhood":"堀之内","addr:postcode":"250-0853","addr:province":"神奈川県","amenity":"post_office","name":"小田原富水郵便局","name:ja":"小田原富水郵便局","name:ja-Hira":"おだわらとみずゆうびんきょく","wheelchair":"yes"},"type":"node","ver":4},{"id":13962390275,"lat":35.2880784,"lon":139.1687288,"tags":{"amenity":"post_box"},"type":"node","ver":1},{"id":1420817077,"lat":35.2816546,"lon":139.1774285,"tags":{"addr:block_number":"598","addr:city":"小田原市","addr:housenumber":"1","addr:neighbourhood":"鴨宮","addr:postcode":"250-0874","addr:province":"神奈川県","amenity":"post_office","name":"小田原鴨宮郵便局","name:ja":"小田原鴨宮郵便局","name:ja-Hira":"おだわらかものみやゆうびんきょく"},"type":"node","ver":2},{"id":12892293536,"lat":35.2947684,"lon":139.1756919,"tags":{"amenity":"post_box"},"type":"node","ver":2},{"id":12892241553,"lat":35.2951232,"lon":139.1793898,"tags":{"amenity":"post_box"},"type":"node","ver":2},{"id":12856915978,"lat":35.2934169,"lon":139.1854092,"tags":{"amenity":"post_box","collection_times":"Mo-Su 10:00","operator":"郵便局","post_box:type":"pillar"},"type":"node","ver":1},{"id":12892240766,"lat":35.2918908,"lon":139.188892,"tags":{"amenity":"post_box"},"type":"node","ver":2},{"id":12892295829,"lat":35.2945612,"lon":139.1881969,"tags":{"amenity":"post_box"},"type":"node","ver":2},{"id":1420816952,"lat":35.305913,"lon":139.161244,"tags":{"addr:block_number":"172","addr:city":"小田原市","addr:housenumber":"9","addr:neighbourhood":"鬼柳","addr:postcode":"250-0211","addr:province":"神奈川県","amenity":"post_office","name":"小田原卸商業団地簡易郵便局","name:ja":"小田原卸商業団地簡易郵便局","name:ja-Hira":"おだわらおろししょうぎょうだんちかんいゆうびんきょく"},"type":"node","ver":2},{"id":1420822969,"lat":35.320438,"lon":139.163382,"tags":{"addr:block_number":"497","addr:city":"大井町","addr:county":"足柄上郡","addr:housenumber":"3","addr:neighbourhood":"上大井","addr:postcode":"258-0016","addr:province":"神奈川県","amenity":"post_office","name":"曾我郵便局","name:ja":"曾我郵便局","name:ja-Hira":"そがゆうびんきょく"},"type":"node","ver":2},{"id":5554014216,"lat":35.3254593,"lon":139.1607472,"tags":{"amenity":"post_box"},"type":"node","ver":1},{"id":12892241488,"lat":35.3038108,"lon":139.1834343,"tags":{"amenity":"post_box"},"type":"node","ver":2},{"id":1420813591,"lat":35.301582,"lon":139.227237,"tags":{"addr:block_number":"89","addr:city":"小田原市","addr:housenumber":"7","addr:neighbourhood":"小船","addr:postcode":"256-0806","addr:province":"神奈川県","amenity":"post_office","name":"下中郵便局","name:ja":"下中郵便局","name:ja-Hira":"しもなかゆうびんきょく"},"type":"node","ver":2},{"id":1420814032,"lat":35.3119978,"lon":139.2429733,"tags":{"addr:block_number":"3","addr:city":"二宮町","addr:county":"中郡","addr:housenumber":"1","addr:neighbourhood":"百合が丘二丁目","addr:province":"神奈川県","amenity":"post_office","name":"二宮一色郵便局","name:ja":"二宮一色郵便局","name:ja-Hira":"にのみやいっしきゆうびんきょく"},"type":"node","ver":3},{"id":4539752424,"lat":35.3421241,"lon":139.1988415,"tags":{"amenity":"post_box","source":"survey"},"type":"node","ver":1},{"id":12799681001,"lat":35.3607177,"lon":139.076992,"tags":{"amenity":"post_box","name":"258206"},"type":"node","ver":1},{"id":12805307801,"lat":35.3610413,"lon":139.0798693,"tags":{"amenity":"post_box"},"type":"node","ver":1},{"id":2749244730,"lat":35.3955571,"lon":139.138802,"tags":{"amenity":"post_box","ref":"ポスト"},"type":"node","ver":1},{"id":6322664235,"lat":35.4005022,"lon":139.1387837,"tags":{"amenity":"post_box","source":"survey"},"type":"node","ver":1},{"id":1420813516,"lat":35.417698,"lon":139.043003,"tags":{"addr:block_number":"921","addr:city":"山北町","addr:county":"足柄上郡","addr:housenumber":"81","addr:neighbourhood":"中川","addr:postcode":"258-0201","addr:province":"神奈川県","amenity":"post_office","name":"三保郵便局","name:ja":"三保郵便局","name:ja-Hira":"みほゆうびんきょく","operator":"日本郵便","operator:en":"Japan Post","operator:ja":"日本郵便","operator:short":"郵便局","operator:short:en":"JP","operator:short:ja":"郵便局","operator:wikidata":"Q11509260"},"type":"node","ver":4},{"id":12825148201,"lat":35.4432519,"lon":139.0486764,"tags":{"amenity":"post_box","colour":"red","name":"258226","operator":"日本郵便","operator:en":"Japan Post","operator:ja":"日本郵便","operator:short":"郵便局","operator:short:en":"JP","operator:short:ja":"郵便局","operator:wikidata":"Q11509260","post_box:type":"lamp","support":"pole"},"type":"node","ver":2},{"id":9706771237,"lat":35.3629144,"lon":139.1581258,"tags":{"amenity":"post_box","ref":"254"},"type":"node","ver":1},{"id":1420831011,"lat":35.3709499,"lon":139.1838983,"tags":{"amenity":"post_office","name":"秦野曲松郵便局","note":"National-Land Numerical Information (Public Facility) 2006, MLIT Japan","source":"KSJ2","source_ref":"http://nlftp.mlit.go.jp/ksj/jpgis/datalist/KsjTmplt-P02-v2_0.html"},"type":"node","ver":3},{"id":2207793186,"lat":35.4047836,"lon":139.1686998,"tags":{"amenity":"post_box","source":"survey"},"type":"node","ver":1},{"id":1420814831,"lat":35.39929,"lon":139.193517,"tags":{"KSJ2:ADS":"菩提399","KSJ2:AdminArea":"神奈川県秦野市","amenity":"post_office","name":"北秦野郵便局","note":"National-Land Numerical Information (Public Facility) 2006, MLIT Japan","note:ja":"国土数値情報（公共施設データ）平成19年　国土交通省","operator":"日本郵便","operator:en":"Japan Post","operator:ja":"日本郵便","operator:short":"郵便局","operator:short:en":"JP","operator:short:ja":"郵便局","operator:wikidata":"Q11509260","source":"KSJ2","source_ref":"http://nlftp.mlit.go.jp/ksj/jpgis/datalist/KsjTmplt-P02-v2_0.html"},"type":"node","ver":2},{"id":1420831016,"lat":35.3735921,"lon":139.208889,"tags":{"addr:block_number":"16","addr:city":"秦野市","addr:housenumber":"3","addr:neighbourhood":"緑町","addr:postcode":"257-0054","addr:province":"神奈川県","amenity":"post_office","name":"秦野緑郵便局"},"type":"node","ver":3},{"id":1420831052,"lat":35.3728583,"lon":139.2290051,"tags":{"amenity":"post_office","name":"秦野駅前郵便局","name:ja":"秦野駅前郵便局","note":"National-Land Numerical Information (Public Facility) 2006, MLIT Japan","source":"KSJ2","source_ref":"http://nlftp.mlit.go.jp/ksj/jpgis/datalist/KsjTmplt-P02-v2_0.html"},"type":"node","ver":4},{"id":2600614206,"lat":35.4050049,"lon":139.2315158,"tags":{"amenity":"post_box","operator":"日本郵便","operator:en":"Japan Post","operator:ja":"日本郵便","operator:wikidata":"Q11509260","operator:wikipedia":"ja:日本郵便","short_name:en":"JP","source":"survey"},"type":"node","ver":3},{"id":9327891444,"lat":35.4155505,"lon":139.2285751,"tags":{"amenity":"post_box","operator":"日本郵便","operator:en":"Japan Post","operator:ja":"日本郵便","operator:wikidata":"Q11509260","operator:wikipedia":"ja:日本郵便","short_name:en":"JP","source":"survey"},"type":"node","ver":1},{"id":10918101908,"lat":35.4243443,"lon":139.2493605,"tags":{"amenity":"post_box"},"type":"node","ver":2},{"id":11965699469,"lat":35.5401955,"lon":139.1265036,"tags":{"amenity":"post_box"},"type":"node","ver":1},{"id":1420834266,"lat":35.561468,"lon":139.1886636,"tags":{"amenity":"post_office","name":"青野原郵便局","note":"National-Land Numerical Information (Public Facility) 2006, MLIT Japan","note:ja":"国土数値情報（公共施設データ）平成19年　国土交通省","source":"KSJ2","source_ref":"http://nlftp.mlit.go.jp/ksj/jpgis/datalist/KsjTmplt-P02-v2_0.html"},"type":"node","ver":2},{"id":11164942526,"lat":35.6200047,"lon":139.1351398,"tags":{"amenity":"post_box","colour":"red","operator":"日本郵便","operator:en":"Japan Post","operator:ja":"日本郵便","operator:wikidata":"Q11509260","post_box:type":"lamp","short_name":"郵便局","short_name:en":"JP","short_name:ja":"郵便局","source":"survey","support":"pole"},"type":"node","ver":1},{"id":1420814676,"lat":35.6418281,"lon":139.1275495,"tags":{"amenity":"post_office","name":"佐野川簡易郵便局","note":"National-Land Numerical Information (Public Facility) 2006, MLIT Japan","note:ja":"国土数値情報（公共施設データ）平成19年　国土交通省","source":"KSJ2","source_ref":"http://nlftp.mlit.go.jp/ksj/jpgis/datalist/KsjTmplt-P02-v2_0.html"},"type":"node","ver":2},{"id":1420827375,"lat":35.5846913,"lon":139.1502029,"tags":{"amenity":"post_office","name":"牧野郵便局","note":"National-Land Numerical Information (Public Facility) 2006, MLIT Japan","note:ja":"国土数値情報（公共施設データ）平成19年　国土交通省","source":"KSJ2","source_ref":"http://nlftp.mlit.go.jp/ksj/jpgis/datalist/KsjTmplt-P02-v2_0.html"},"type":"node","ver":2},{"id":1420822836,"lat":35.608498,"lon":139.155694,"tags":{"KSJ2:ADS":"日連488","KSJ2:AdminArea":"神奈川県津久井郡藤野町","amenity":"post_office","name":"日連郵便局","note":"National-Land Numerical Information (Public Facility) 2006, MLIT Japan","note:ja":"国土数値情報（公共施設データ）平成19年　国土交通省","operator":"日本郵便","operator:en":"Japan Post","operator:ja":"日本郵便","operator:short":"郵便局","operator:short:en":"JP","operator:short:ja":"郵便局","operator:wikidata":"Q11509260","source":"KSJ2","source_ref":"http://nlftp.mlit.go.jp/ksj/jpgis/datalist/KsjTmplt-P02-v2_0.html"},"type":"node","ver":2},{"id":2518539063,"lat":35.615154,"lon":139.15387,"tags":{"amenity":"post_box"},"type":"node","ver":1},{"id":2569315184,"lat":35.6153261,"lon":139.1544592,"tags":{"amenity":"post_box"},"type":"node","ver":2},{"id":4250023690,"lat":35.6101773,"lon":139.1557565,"tags":{"amenity":"post_box"},"type":"node","ver":2},{"id":1420815668,"lat":35.614017,"lon":139.16672,"tags":{"addr:block_number":"279","addr:city":"相模原市","addr:neighbourhood":"吉野","addr:postcode":"252-0183","addr:province":"神奈川県","addr:suburb":"緑区","amenity":"post_office","name":"吉野郵便局","name:ja":"吉野郵便局","note":"National-Land Numerical Information (Public Facility) 2006, MLIT Japan","note:ja":"国土数値情報（公共施設データ）平成19年　国土交通省","operator":"日本郵便","operator:en":"Japan Post","operator:ja":"日本郵便","operator:short":"郵便局","operator:short:en":"JP","operator:short:ja":"郵便局","operator:wikidata":"Q11509260","source":"KSJ2","source_ref":"http://nlftp.mlit.go.jp/ksj/jpgis/datalist/KsjTmplt-P02-v2_0.html"},"type":"node","ver":3},{"id":2518542985,"lat":35.613924,"lon":139.166804,"tags":{"amenity":"post_box"},"type":"node","ver":1},{"id":10866183649,"lat":35.6147365,"lon":139.1883814,"tags":{"amenity":"post_box"},"type":"node","ver":1},{"id":1420813951,"lat":35.566161,"lon":139.248344,"tags":{"amenity":"post_office","name":"串川郵便局","source":"KSJ2"},"type":"node","ver":2},{"id":1420813513,"lat":35.5881905,"lon":139.2324691,"tags":{"amenity":"post_office","name":"三ヶ木簡易郵便局","source":"KSJ2"},"type":"node","ver":2},{"id":1420814775,"lat":35.5998362,"lon":139.2143706,"tags":{"amenity":"post_office","name":"内郷郵便局","note":"National-Land Numerical Information (Public Facility) 2006, MLIT Japan","note:ja":"国土数値情報（公共施設データ）平成19年　国土交通省","source":"KSJ2","source_ref":"http://nlftp.mlit.go.jp/ksj/jpgis/datalist/KsjTmplt-P02-v2_0.html"},"type":"node","ver":2},{"id":1420826091,"lat":35.6302122,"lon":139.1473709,"tags":{"addr:block_number":"1150","addr:city":"相模原市","addr:housenumber":"1","addr:neighbourhood":"澤井","addr:postcode":"252-0182","addr:province":"神奈川県","addr:suburb":"緑区","amenity":"post_office","name":"沢井簡易郵便局","name:ja-Hira":"さわいかんいゆうびんきょく"},"type":"node","ver":2},{"id":6711606524,"lat":35.6221957,"lon":139.1772214,"tags":{"amenity":"post_box","operator":"日本郵便","operator:en":"Japan Post","operator:ja":"日本郵便","operator:wikidata":"Q11509260","short_name":"郵便局","short_name:en":"JP","short_name:ja":"郵便局"},"type":"node","ver":2},{"id":1420829133,"lat":35.617428,"lon":139.186367,"tags":{"amenity":"post_office","name":"相模湖郵便局","name:ja":"相模湖郵便局","note":"National-Land Numerical Information (Public Facility) 2006, MLIT Japan","note:ja":"国土数値情報（公共施設データ）平成19年　国土交通省","operator":"日本郵便","operator:en":"Japan Post","operator:ja":"日本郵便","operator:wikidata":"Q11509260","short_name":"郵便局","short_name:en":"JP","short_name:ja":"郵便局","source":"KSJ2","source_ref":"http://nlftp.mlit.go.jp/ksj/jpgis/datalist/KsjTmplt-P02-v2_0.html"},"type":"node","ver":3},{"id":2518552861,"lat":35.617363,"lon":139.186343,"tags":{"amenity":"post_box","operator":"日本郵便","operator:en":"Japan Post","operator:ja":"日本郵便","operator:wikidata":"Q11509260","short_name":"郵便局","short_name:en":"JP","short_name:ja":"郵便局"},"type":"node","ver":2},{"id":3353550338,"lat":35.617067,"lon":139.1893155,"tags":{"amenity":"post_box","operator":"日本郵便","operator:en":"Japan Post","operator:ja":"日本郵便","operator:wikidata":"Q11509260","short_name":"郵便局","short_name:en":"JP","short_name:ja":"郵便局","source":"survey"},"type":"node","ver":2},{"id":1420813539,"lat":35.141423,"lon":139.6143243,"tags":{"amenity":"post_office","name":"三浦三崎郵便局","note":"National-Land Numerical Information (Public Facility) 2006, MLIT Japan","note:ja":"国土数値情報（公共施設データ）平成19年　国土交通省","source":"KSJ2","source_ref":"http://nlftp.mlit.go.jp/ksj/jpgis/datalist/KsjTmplt-P02-v2_0.html"},"type":"node","ver":3},{"id":6192445453,"lat":35.141484,"lon":139.6142737,"tags":{"amenity":"post_box","drive_through":"no"},"type":"node","ver":1},{"id":1420813540,"lat":35.1468692,"lon":139.6241503,"tags":{"amenity":"post_office","name":"三浦城山郵便局","note":"National-Land Numerical Information (Public Facility) 2006, MLIT Japan","note:ja":"国土数値情報（公共施設データ）平成19年　国土交通省","source":"KSJ2","source_ref":"http://nlftp.mlit.go.jp/ksj/jpgis/datalist/KsjTmplt-P02-v2_0.html","website":"https://map.japanpost.jp/p/search/dtl/300102667000/"},"type":"node","ver":2},{"id":1420823262,"lat":35.1482169,"lon":139.6689624,"tags":{"amenity":"post_office","name":"松輪郵便局","name:ja-Hira":"まつわゆうびんきょく","note":"National-Land Numerical Information (Public Facility) 2006, MLIT Japan","note:ja":"国土数値情報（公共施設データ）平成19年　国土交通省","operator":"日本郵便","operator:en":"Japan Post","operator:ja":"日本郵便","operator:short":"郵便局","operator:short:en":"JP","operator:short:ja":"郵便局","operator:wikidata":"Q11509260","source":"KSJ2","source_ref":"http://nlftp.mlit.go.jp/ksj/jpgis/datalist/KsjTmplt-P02-v2_0.html","website":"https://map.japanpost.jp/p/search/dtl/300102287000/"},"type":"node","ver":3},{"id":2888643735,"lat":35.1777515,"lon":139.642941,"tags":{"amenity":"post_box","source":"survey"},"type":"node","ver":1},{"id":1420814779,"lat":35.188905,"lon":139.626954,"tags":{"KSJ2:ADS":"初声町入江52-1","KSJ2:AdminArea":"神奈川県三浦市","amenity":"post_office","name":"初声郵便局","note":"National-Land Numerical Information (Public Facility) 2006, MLIT Japan","note:ja":"国土数値情報（公共施設データ）平成19年　国土交通省","operator":"日本郵便","operator:en":"Japan Post","operator:ja":"日本郵便","operator:short":"郵便局","operator:short:en":"JP","operator:short:ja":"郵便局","operator:wikidata":"Q11509260","source":"KSJ2","source_ref":"http://nlftp.mlit.go.jp/ksj/jpgis/datalist/KsjTmplt-P02-v2_0.html"},"type":"node","ver":2},{"id":1420814861,"lat":35.1838648,"lon":139.6524081,"tags":{"amenity":"post_office","name":"南下浦郵便局","name:ja":"南下浦郵便局","note":"National-Land Numerical Information (Public Facility) 2006, MLIT Japan","note:ja":"国土数値情報（公共施設データ）平成19年　国土交通省","source":"KSJ2","source_ref":"http://nlftp.mlit.go.jp/ksj/jpgis/datalist/KsjTmplt-P02-v2_0.html"},"type":"node","ver":3},{"id":1420834034,"lat":35.207571,"lon":139.616205,"tags":{"KSJ2:ADS":"長井3-47-5","KSJ2:AdminArea":"神奈川県横須賀市","amenity":"post_office","name":"長井郵便局","note":"National-Land Numerical Information (Public Facility) 2006, MLIT Japan","note:ja":"国土数値情報（公共施設データ）平成19年　国土交通省","operator":"日本郵便","operator:en":"Japan Post","operator:ja":"日本郵便","operator:short":"郵便局","operator:short:en":"JP","operator:short:ja":"郵便局","operator:wikidata":"Q11509260","source":"KSJ2","source_ref":"http://nlftp.mlit.go.jp/ksj/jpgis/datalist/KsjTmplt-P02-v2_0.html"},"type":"node","ver":2},{"id":3928709928,"lat":35.2084662,"lon":139.6120694,"tags":{"amenity":"post_office","name":"長井郵便局"},"type":"node","ver":1},{"id":1420825943,"lat":35.236825,"lon":139.605977,"tags":{"KSJ2:ADS":"秋谷1-2-35","KSJ2:AdminArea":"神奈川県横須賀市","amenity":"post_office","name":"横須賀秋谷郵便局","note":"National-Land Numerical Information (Public Facility) 2006, MLIT Japan","note:ja":"国土数値情報（公共施設データ）平成19年　国土交通省","operator":"日本郵便","operator:en":"Japan Post","operator:ja":"日本郵便","operator:short":"郵便局","operator:short:en":"JP","operator:short:ja":"郵便局","operator:wikidata":"Q11509260","source":"KSJ2","source_ref":"http://nlftp.mlit.go.jp/ksj/jpgis/datalist/KsjTmplt-P02-v2_0.html"},"type":"node","ver":2},{"id":8855647966,"lat":35.2354846,"lon":139.6084795,"tags":{"amenity":"post_box","artwork_type":"bust","description":"台座部分が郵便ポストになっている","inscription":"郵便は世界を結ぶ","name":"前島密翁の像","name:ja":"前島密翁の像","source":"survey","tourism":"artwork"},"type":"node","ver":1},{"id":1420826029,"lat":35.2201513,"lon":139.6399209,"tags":{"amenity":"post_office","name":"武山郵便局","note":"National-Land Numerical Information (Public Facility) 2006, MLIT Japan","note:ja":"国土数値情報（公共施設データ）平成19年　国土交通省","source":"KSJ2","source_ref":"http://nlftp.mlit.go.jp/ksj/jpgis/datalist/KsjTmplt-P02-v2_0.html"},"type":"node","ver":2},{"id":8626086076,"lat":35.2181059,"lon":139.6421977,"tags":{"amenity":"post_box"},"type":"node","ver":1},{"id":1420825934,"lat":35.200127,"lon":139.666228,"tags":{"KSJ2:ADS":"津久井3-21-1","KSJ2:AdminArea":"神奈川県横須賀市","amenity":"post_office","name":"横須賀津久井郵便局","note":"National-Land Numerical Information (Public Facility) 2006, MLIT Japan","note:ja":"国土数値情報（公共施設データ）平成19年　国土交通省","operator":"日本郵便","operator:en":"Japan Post","operator:ja":"日本郵便","operator:short":"郵便局","operator:short:en":"JP","operator:short:ja":"郵便局","operator:wikidata":"Q11509260","source":"KSJ2","source_ref":"http://nlftp.mlit.go.jp/ksj/jpgis/datalist/KsjTmplt-P02-v2_0.html"},"type":"node","ver":2},{"id":8622499671,"lat":35.2125138,"lon":139.6467752,"tags":{"amenity":"post_box"},"type":"node","ver":1},{"id":1420825998,"lat":35.223375,"lon":139.628065,"tags":{"KSJ2:ADS":"長坂3-3-13","KSJ2:AdminArea":"神奈川県横須賀市","amenity":"post_office","name":"横須賀長坂郵便局","note":"National-Land Numerical Information (Public Facility) 2006, MLIT Japan","note:ja":"国土数値情報（公共施設データ）平成19年　国土交通省","operator":"日本郵便","operator:en":"Japan Post","operator:ja":"日本郵便","operator:short":"郵便局","operator:short:en":"JP","operator:short:ja":"郵便局","operator:wikidata":"Q11509260","source":"KSJ2","source_ref":"http://nlftp.mlit.go.jp/ksj/jpgis/datalist/KsjTmplt-P02-v2_0.html"},"type":"node","ver":2},{"id":1420825928,"lat":35.228235,"lon":139.649035,"tags":{"KSJ2:ADS":"武5-11-1","KSJ2:AdminArea":"神奈川県横須賀市","amenity":"post_office","name":"横須賀武郵便局","note":"National-Land Numerical Information (Public Facility) 2006, MLIT Japan","note:ja":"国土数値情報（公共施設データ）平成19年　国土交通省","operator":"日本郵便","operator:en":"Japan Post","operator:ja":"日本郵便","operator:short":"郵便局","operator:short:en":"JP","operator:short:ja":"郵便局","operator:wikidata":"Q11509260","source":"KSJ2","source_ref":"http://nlftp.mlit.go.jp/ksj/jpgis/datalist/KsjTmplt-P02-v2_0.html"},"type":"node","ver":2},{"id":1420814802,"lat":35.2064558,"lon":139.67337,"tags":{"addr:block_number":"3","addr:city":"横須賀市","addr:housenumber":"8","addr:neighbourhood":"グリーンハイツ","addr:postcode":"239-0846","addr:province":"神奈川県","amenity":"post_office","name":"北下浦郵便局","name:ja-Hira":"きたしたうらゆうびんきょく"},"type":"node","ver":2},{"id":1420825995,"lat":35.2141756,"lon":139.6836227,"tags":{"amenity":"post_office","name:en":"Nobi Post Office","name:ja":"横須賀野比郵便局","note":"National-Land Numerical Information (Public Facility) 2006, MLIT Japan","note:ja":"国土数値情報（公共施設データ）平成19年　国土交通省","source":"KSJ2","source_ref":"http://nlftp.mlit.go.jp/ksj/jpgis/datalist/KsjTmplt-P02-v2_0.html"},"type":"node","ver":2},{"id":4889646121,"lat":35.2177831,"lon":139.6931409,"tags":{"amenity":"post_box"},"type":"node","ver":1},{"id":1420825839,"lat":35.23279,"lon":139.670533,"tags":{"KSJ2:ADS":"岩戸4-23-1","KSJ2:AdminArea":"神奈川県横須賀市","amenity":"post_office","name":"横須賀岩戸郵便局","note":"National-Land Numerical Information (Public Facility) 2006, MLIT Japan","note:ja":"国土数値情報（公共施設データ）平成19年　国土交通省","operator":"日本郵便","operator:en":"Japan Post","operator:ja":"日本郵便","operator:short":"郵便局","operator:short:en":"JP","operator:short:ja":"郵便局","operator:wikidata":"Q11509260","source":"KSJ2","source_ref":"http://nlftp.mlit.go.jp/ksj/jpgis/datalist/KsjTmplt-P02-v2_0.html"},"type":"node","ver":2},{"id":1420825784,"lat":35.224013,"lon":139.688782,"tags":{"KSJ2:ADS":"ハイランド3-1-2","KSJ2:AdminArea":"神奈川県横須賀市","amenity":"post_office","name":"横須賀ハイランド郵便局","note":"National-Land Numerical Information (Public Facility) 2006, MLIT Japan","note:ja":"国土数値情報（公共施設データ）平成19年　国土交通省","operator":"日本郵便","operator:en":"Japan Post","operator:ja":"日本郵便","operator:short":"郵便局","operator:short:en":"JP","operator:short:ja":"郵便局","operator:wikidata":"Q11509260","source":"KSJ2","source_ref":"http://nlftp.mlit.go.jp/ksj/jpgis/datalist/KsjTmplt-P02-v2_0.html"},"type":"node","ver":2},{"id":1420825946,"lat":35.2262362,"lon":139.6837698,"tags":{"amenity":"post_office","name":"横須賀粟田簡易郵便局","name:ja-Hira":"よこすかあわたかんいゆうびんきょく"},"type":"node","ver":2},{"id":1420825922,"lat":35.247705,"lon":139.673533,"tags":{"KSJ2:ADS":"森崎4-1-16","KSJ2:AdminArea":"神奈川県横須賀市","amenity":"post_office","name":"横須賀森崎四郵便局","note":"National-Land Numerical Information (Public Facility) 2006, MLIT Japan","note:ja":"国土数値情報（公共施設データ）平成19年　国土交通省","operator":"日本郵便","operator:en":"Japan Post","operator:ja":"日本郵便","operator:short":"郵便局","operator:short:en":"JP","operator:short:ja":"郵便局","operator:wikidata":"Q11509260","source":"KSJ2","source_ref":"http://nlftp.mlit.go.jp/ksj/jpgis/datalist/KsjTmplt-P02-v2_0.html"},"type":"node","ver":2},{"id":1420825924,"lat":35.2485135,"lon":139.6810135,"tags":{"amenity":"post_office","name":"横須賀森崎郵便局","note":"National-Land Numerical Information (Public Facility) 2006, MLIT Japan","note:ja":"国土数値情報（公共施設データ）平成19年　国土交通省","source":"KSJ2","source_ref":"http://nlftp.mlit.go.jp/ksj/jpgis/datalist/KsjTmplt-P02-v2_0.html"},"type":"node","ver":2},{"id":1420813994,"lat":35.23031,"lon":139.7048257,"tags":{"amenity":"post_office","name":"久里浜郵便局","note":"National-Land Numerical Information (Public Facility) 2006, MLIT Japan","note:ja":"国土数値情報（公共施設データ）平成19年　国土交通省","source":"KSJ2","source_ref":"http://nlftp.mlit.go.jp/ksj/jpgis/datalist/KsjTmplt-P02-v2_0.html","wikidata":"Q11369719","wikipedia":"ja:久里浜郵便局"},"type":"node","ver":3},{"id":8961542635,"lat":35.2413183,"lon":139.7191777,"tags":{"amenity":"post_box"},"type":"node","ver":1},{"id":13687563180,"lat":35.2367544,"lon":139.7214277,"tags":{"amenity":"post_box"},"type":"node","ver":1},{"id":8961521074,"lat":35.2468249,"lon":139.7150068,"tags":{"amenity":"post_box"},"type":"node","ver":2},{"id":1420825920,"lat":35.2435358,"lon":139.7218778,"tags":{"amenity":"post_office","name":"横須賀新町郵便局","note":"National-Land Numerical Information (Public Facility) 2006, MLIT Japan","note:ja":"国土数値情報（公共施設データ）平成19年　国土交通省","source":"KSJ2","source_ref":"http://nlftp.mlit.go.jp/ksj/jpgis/datalist/KsjTmplt-P02-v2_0.html"},"type":"node","ver":2},{"id":1420825937,"lat":35.2441962,"lon":139.7170229,"tags":{"amenity":"post_office","name":"横須賀浦賀郵便局","opening_hours":"Mo-Fr 09:00-17:00"},"type":"node","ver":3},{"id":1420825779,"lat":35.2420994,"lon":139.7305689,"tags":{"amenity":"post_office","name":"横須賀かもめ団地内郵便局","note":"National-Land Numerical Information (Public Facility) 2006, MLIT Japan","note:ja":"国土数値情報（公共施設データ）平成19年　国土交通省","source":"KSJ2","source_ref":"http://nlftp.mlit.go.jp/ksj/jpgis/datalist/KsjTmplt-P02-v2_0.html"},"type":"node","ver":3},{"id":6419658507,"lat":35.3004315,"lon":139.2652845,"tags":{"amenity":"post_box","source":"openstreetcam"},"type":"node","ver":1},{"id":1420814040,"lat":35.3049709,"lon":139.255432,"tags":{"addr:block_number":"1326","addr:city":"二宮町","addr:county":"中郡","addr:housenumber":"3","addr:neighbourhood":"二宮","addr:postcode":"259-0123","addr:province":"神奈川県","amenity":"post_office","name":"二宮元町郵便局","name:ja":"二宮元町郵便局","name:ja-Hira":"にのみやもとまちゆうびんきょく"},"type":"node","ver":2},{"id":1420833091,"lat":35.3082441,"lon":139.2777911,"tags":{"addr:block_number":"924","addr:city":"大磯町","addr:county":"中郡","addr:neighbourhood":"国府本郷","addr:postcode":"259-0111","addr:province":"神奈川県","amenity":"post_office","name":"西大磯郵便局","name:ja":"西大磯郵便局","name:ja-Hira":"にしおおいそゆうびんきょく"},"type":"node","ver":2},{"id":1420822129,"lat":35.343211,"lon":139.295202,"tags":{"KSJ2:ADS":"上吉沢63-7","KSJ2:AdminArea":"神奈川県平塚市","amenity":"post_office","name":"平塚吉沢郵便局","note":"National-Land Numerical Information (Public Facility) 2006, MLIT Japan","note:ja":"国土数値情報（公共施設データ）平成19年　国土交通省","operator":"日本郵便","operator:en":"Japan Post","operator:ja":"日本郵便","operator:short":"郵便局","operator:short:en":"JP","operator:short:ja":"郵便局","operator:wikidata":"Q11509260","source":"KSJ2","source_ref":"http://nlftp.mlit.go.jp/ksj/jpgis/datalist/KsjTmplt-P02-v2_0.html"},"type":"node","ver":2},{"id":3920795757,"lat":35.3110587,"lon":139.3083318,"tags":{"amenity":"post_box"},"type":"node","ver":3},{"id":12860303179,"lat":35.310126,"lon":139.3034613,"tags":{"amenity":"post_box"},"type":"node","ver":2},{"id":12860303194,"lat":35.3091388,"lon":139.3081974,"tags":{"amenity":"post_box"},"type":"node","ver":2},{"id":2868387799,"lat":35.3075436,"lon":139.3142161,"tags":{"amenity":"post_box","source":"survey"},"type":"node","ver":2},{"id":9709191341,"lat":35.3111153,"lon":139.3134571,"tags":{"amenity":"post_box","operator":"日本郵便","operator:en":"Japan Post","operator:ja":"日本郵便","operator:wikidata":"Q11509260","short_name":"郵便局","short_name:en":"JP","short_name:ja":"郵便局"},"type":"node","ver":3},{"id":11022287121,"lat":35.3107654,"lon":139.3163638,"tags":{"amenity":"post_box","operator":"日本郵便","operator:en":"Japan Post","operator:ja":"日本郵便","operator:wikidata":"Q11509260","short_name":"郵便局","short_name:en":"JP","short_name:ja":"郵便局"},"type":"node","ver":1},{"id":11076269650,"lat":35.3076277,"lon":139.3112958,"tags":{"amenity":"post_box"},"type":"node","ver":1},{"id":11076399496,"lat":35.3098322,"lon":139.3110153,"tags":{"amenity":"post_box"},"type":"node","ver":2},{"id":9709191342,"lat":35.313606,"lon":139.3190754,"tags":{"amenity":"post_box"},"type":"node","ver":1},{"id":11061521970,"lat":35.3094677,"lon":139.3169996,"tags":{"amenity":"post_box"},"type":"node","ver":1},{"id":9709191340,"lat":35.3137542,"lon":139.3230016,"tags":{"amenity":"post_box"},"type":"node","ver":1},{"id":11110036964,"lat":35.3173624,"lon":139.3266269,"tags":{"amenity":"post_box"},"type":"node","ver":1},{"id":1420822236,"lat":35.3187618,"lon":139.3403486,"tags":{"amenity":"post_office","name":"平塚菫平郵便局","note":"National-Land Numerical Information (Public Facility) 2006, MLIT Japan","note:ja":"国土数値情報（公共施設データ）平成19年　国土交通省","operator":"日本郵便","operator:en":"Japan Post","operator:ja":"日本郵便","operator:short":"郵便局","operator:short:en":"JP","operator:short:ja":"郵便局","operator:wikidata":"Q11509260","operator:wikipedia":"ja:日本郵便","short_name:en":"JP","source":"KSJ2","source_ref":"http://nlftp.mlit.go.jp/ksj/jpgis/datalist/KsjTmplt-P02-v2_0.html"},"type":"node","ver":3},{"id":5913927015,"lat":35.3240377,"lon":139.3423577,"tags":{"amenity":"post_box"},"type":"node","ver":1},{"id":5913927012,"lat":35.3267441,"lon":139.347473,"tags":{"amenity":"post_box"},"type":"node","ver":1},{"id":1420822137,"lat":35.331524,"lon":139.316062,"tags":{"KSJ2:ADS":"山下726-8","KSJ2:AdminArea":"神奈川県平塚市","amenity":"post_office","name":"平塚山下郵便局","note":"National-Land Numerical Information (Public Facility) 2006, MLIT Japan","note:ja":"国土数値情報（公共施設データ）平成19年　国土交通省","operator":"日本郵便","operator:en":"Japan Post","operator:ja":"日本郵便","operator:short":"郵便局","operator:short:en":"JP","operator:short:ja":"郵便局","operator:wikidata":"Q11509260","source":"KSJ2","source_ref":"http://nlftp.mlit.go.jp/ksj/jpgis/datalist/KsjTmplt-P02-v2_0.html"},"type":"node","ver":2},{"id":1420822221,"lat":35.336746,"lon":139.310146,"tags":{"KSJ2:ADS":"河内337","KSJ2:AdminArea":"神奈川県平塚市","amenity":"post_office","name":"平塚旭郵便局","note":"National-Land Numerical Information (Public Facility) 2006, MLIT Japan","note:ja":"国土数値情報（公共施設データ）平成19年　国土交通省","operator":"日本郵便","operator:en":"Japan Post","operator:ja":"日本郵便","operator:short":"郵便局","operator:short:en":"JP","operator:short:ja":"郵便局","operator:wikidata":"Q11509260","source":"KSJ2","source_ref":"http://nlftp.mlit.go.jp/ksj/jpgis/datalist/KsjTmplt-P02-v2_0.html"},"type":"node","ver":2},{"id":1420822219,"lat":35.338389,"lon":139.319785,"tags":{"KSJ2:ADS":"徳延420-1","KSJ2:AdminArea":"神奈川県平塚市","amenity":"post_office","name":"平塚徳延郵便局","note":"National-Land Numerical Information (Public Facility) 2006, MLIT Japan","note:ja":"国土数値情報（公共施設データ）平成19年　国土交通省","operator":"日本郵便","operator:en":"Japan Post","operator:ja":"日本郵便","operator:short":"郵便局","operator:short:en":"JP","operator:short:ja":"郵便局","operator:wikidata":"Q11509260","source":"KSJ2","source_ref":"http://nlftp.mlit.go.jp/ksj/jpgis/datalist/KsjTmplt-P02-v2_0.html"},"type":"node","ver":2},{"id":1420822222,"lat":35.3279814,"lon":139.3394525,"tags":{"amenity":"post_office","name":"平塚本宿郵便局","note":"National-Land Numerical Information (Public Facility) 2006, MLIT Japan","note:ja":"国土数値情報（公共施設データ）平成19年　国土交通省","source":"KSJ2","source_ref":"http://nlftp.mlit.go.jp/ksj/jpgis/datalist/KsjTmplt-P02-v2_0.html"},"type":"node","ver":2},{"id":1420822134,"lat":35.3365459,"lon":139.3374496,"tags":{"amenity":"post_office","name":"平塚富士見郵便局","note":"National-Land Numerical Information (Public Facility) 2006, MLIT Japan","note:ja":"国土数値情報（公共施設データ）平成19年　国土交通省","operator":"日本郵便","operator:en":"Japan Post","operator:ja":"日本郵便","operator:wikidata":"Q11509260","operator:wikipedia":"ja:日本郵便","short_name:en":"JP","source":"KSJ2","source_ref":"http://nlftp.mlit.go.jp/ksj/jpgis/datalist/KsjTmplt-P02-v2_0.html"},"type":"node","ver":2},{"id":9528774490,"lat":35.3284062,"lon":139.3476203,"tags":{"amenity":"post_office","name":"紅谷町郵便局","operator":"日本郵便","operator:en":"Japan Post","operator:ja":"日本郵便","operator:wikidata":"Q11509260","operator:wikipedia":"ja:日本郵便","short_name:en":"JP"},"type":"node","ver":2},{"id":11204126165,"lat":35.3298937,"lon":139.34898,"tags":{"amenity":"post_box","colour":"red","post_box:type":"lamp","stroller":"yes","wheelchair":"yes"},"type":"node","ver":1},{"id":12466604150,"lat":35.3283862,"lon":139.3476556,"tags":{"amenity":"post_box"},"type":"node","ver":1},{"id":1420822286,"lat":35.327211,"lon":139.350776,"tags":{"amenity":"post_office","name":"平塚駅前郵便局","note":"National-Land Numerical Information (Public Facility) 2006, MLIT Japan","note:ja":"国土数値情報（公共施設データ）平成19年　国土交通省","operator":"日本郵便","operator:en":"Japan Post","operator:ja":"日本郵便","operator:wikidata":"Q11509260","operator:wikipedia":"ja:日本郵便","short_name":"郵便局","short_name:en":"JP","short_name:ja":"郵便局","source":"KSJ2","source_ref":"http://nlftp.mlit.go.jp/ksj/jpgis/datalist/KsjTmplt-P02-v2_0.html"},"type":"node","ver":3},{"id":11187146064,"lat":35.3285449,"lon":139.3501183,"tags":{"addr:block_number":"1","addr:city":"平塚市","addr:housenumber":"1","addr:neighbourhood":"宝町","addr:postcode":"254-0034","amenity":"post_box","collection_times":"Mo-Fr 10:15, 14:00, 17:25; Sa 10:10, 14:40; Su, PH 08:10, 12:40","colour":"red","operator":"日本郵便","operator:en":"Japan Post","operator:ja":"日本郵便","operator:wikidata":"Q11509260","ref":"254102","short_name":"郵便局","short_name:en":"JP","short_name:ja":"郵便局","stroller":"yes","wheelchair":"yes"},"type":"node","ver":1},{"id":11204126160,"lat":35.3304625,"lon":139.3538253,"tags":{"amenity":"post_box","colour":"red","post_box:type":"lamp","stroller":"y平塚宮松町店","wheelchair":"yes"},"type":"node","ver":1},{"id":11204126163,"lat":35.329059,"lon":139.3511179,"tags":{"amenity":"post_box","colour":"red","post_box:type":"lamp","stroller":"yes","wheelchair":"yes"},"type":"node","ver":1},{"id":1420822126,"lat":35.339524,"lon":139.3517988,"tags":{"addr:block_number":"2","addr:city":"平塚市","addr:housenumber":"2","addr:neighbourhood":"1丁目","addr:postcode":"254-0016","addr:province":"神奈川県","addr:quarter":"東八幡","amenity":"post_office","level":"0","name":"平塚八幡郵便局","name:ja":"平塚八幡郵便局","note":"National-Land Numerical Information (Public Facility) 2006, MLIT Japan","note:ja":"国土数値情報（公共施設データ）平成19年　国土交通省","source":"KSJ2;survey","source_ref":"http://nlftp.mlit.go.jp/ksj/jpgis/datalist/KsjTmplt-P02-v2_0.html","website":"https://map.japanpost.jp/p/search/dtl/300102505000/"},"type":"node","ver":2},{"id":9842274868,"lat":35.3347907,"lon":139.3505004,"tags":{"amenity":"post_box","colour":"red","operator":"日本郵便","operator:en":"Japan Post","operator:ja":"日本郵便","operator:wikidata":"Q11509260","short_name:en":"JP","source":"survey","support":"pole"},"type":"node","ver":1},{"id":9842274880,"lat":35.3395214,"lon":139.3517516,"tags":{"amenity":"post_box","colour":"red","operator":"日本郵便","operator:en":"Japan Post","operator:ja":"日本郵便","operator:wikidata":"Q11509260","short_name:en":"JP","source":"survey","support":"pole"},"type":"node","ver":1},{"id":1420822224,"lat":35.352188,"lon":139.340726,"tags":{"KSJ2:ADS":"東中原1-3-53","KSJ2:AdminArea":"神奈川県平塚市","amenity":"post_office","name":"平塚東中原郵便局","note":"National-Land Numerical Information (Public Facility) 2006, MLIT Japan","note:ja":"国土数値情報（公共施設データ）平成19年　国土交通省","operator":"日本郵便","operator:en":"Japan Post","operator:ja":"日本郵便","operator:short":"郵便局","operator:short:en":"JP","operator:short:ja":"郵便局","operator:wikidata":"Q11509260","source":"KSJ2","source_ref":"http://nlftp.mlit.go.jp/ksj/jpgis/datalist/KsjTmplt-P02-v2_0.html"},"type":"node","ver":2},{"id":1420822216,"lat":35.321805,"lon":139.361754,"tags":{"amenity":"post_office","name":"平塚幸町郵便局","note":"National-Land Numerical Information (Public Facility) 2006, MLIT Japan","note:ja":"国土数値情報（公共施設データ）平成19年　国土交通省","operator":"日本郵便","operator:en":"Japan Post","operator:ja":"日本郵便","operator:wikidata":"Q11509260","operator:wikipedia":"ja:日本郵便","short_name":"郵便局","short_name:en":"JP","short_name:ja":"郵便局","source":"KSJ2","source_ref":"http://nlftp.mlit.go.jp/ksj/jpgis/datalist/KsjTmplt-P02-v2_0.html"},"type":"node","ver":3},{"id":2052183043,"lat":35.3220776,"lon":139.3836462,"tags":{"amenity":"post_box"},"type":"node","ver":2},{"id":1420832595,"lat":35.3227967,"lon":139.3885824,"tags":{"addr:city":"茅ヶ崎市","addr:housenumber":"11-1","addr:postcode":"253-0065","addr:street":"浜見平","amenity":"post_office","name":"茅ヶ崎浜見平郵便局","note":"National-Land Numerical Information (Public Facility) 2006, MLIT Japan","note:ja":"国土数値情報（公共施設データ）平成19年　国土交通省","operator":"日本郵便","operator:en":"Japan Post","operator:ja":"日本郵便","operator:wikidata":"Q11509260","operator:wikipedia":"ja:日本郵便","short_name:en":"JP","source":"KSJ2","source_ref":"http://nlftp.mlit.go.jp/ksj/jpgis/datalist/KsjTmplt-P02-v2_0.html"},"type":"node","ver":3},{"id":1420832458,"lat":35.325128,"lon":139.3966349,"tags":{"amenity":"post_office","name":"茅ヶ崎南湖郵便局","note":"National-Land Numerical Information (Public Facility) 2006, MLIT Japan","note:ja":"国土数値情報（公共施設データ）平成19年　国土交通省","source":"KSJ2","source_ref":"http://nlftp.mlit.go.jp/ksj/jpgis/datalist/KsjTmplt-P02-v2_0.html"},"type":"node","ver":2},{"id":1420832596,"lat":35.327055,"lon":139.407777,"tags":{"KSJ2:ADS":"東海岸北1-5-2","KSJ2:AdminArea":"神奈川県茅ヶ崎市","amenity":"post_office","name":"茅ヶ崎海岸郵便局","note":"National-Land Numerical Information (Public Facility) 2006, MLIT Japan","note:ja":"国土数値情報（公共施設データ）平成19年　国土交通省","operator":"日本郵便","operator:en":"Japan Post","operator:ja":"日本郵便","operator:short":"郵便局","operator:short:en":"JP","operator:short:ja":"郵便局","operator:wikidata":"Q11509260","source":"KSJ2","source_ref":"http://nlftp.mlit.go.jp/ksj/jpgis/datalist/KsjTmplt-P02-v2_0.html"},"type":"node","ver":2},{"id":1420822124,"lat":35.332663,"lon":139.356364,"tags":{"amenity":"post_office","name":"平塚八千代郵便局","note":"National-Land Numerical Information (Public Facility) 2006, MLIT Japan","note:ja":"国土数値情報（公共施設データ）平成19年　国土交通省","operator":"日本郵便","operator:en":"Japan Post","operator:ja":"日本郵便","operator:wikidata":"Q11509260","operator:wikipedia":"ja:日本郵便","short_name:en":"JP","source":"KSJ2","source_ref":"http://nlftp.mlit.go.jp/ksj/jpgis/datalist/KsjTmplt-P02-v2_0.html"},"type":"node","ver":2},{"id":11187279525,"lat":35.3326818,"lon":139.3564016,"tags":{"amenity":"post_box","colour":"red"},"type":"node","ver":1},{"id":11204126152,"lat":35.3314025,"lon":139.3609307,"tags":{"amenity":"post_box","colour":"red","post_box:type":"lamp","stroller":"yes","wheelchair":"yes"},"type":"node","ver":1},{"id":11204126155,"lat":35.3310748,"lon":139.3576709,"tags":{"amenity":"post_box","colour":"red","post_box:type":"lamp","stroller":"yes","wheelchair":"yes"},"type":"node","ver":2},{"id":11187146123,"lat":35.3392,"lon":139.3609762,"tags":{"amenity":"post_box","collection_times":"Mo-Fr 11:40, 15:30; Sa 11:20, 15:50; Su, PH 08:20, 13:50","colour":"red","stroller":"yes","wheelchair":"yes"},"type":"node","ver":1},{"id":10859356268,"lat":35.3383152,"lon":139.3778472,"tags":{"amenity":"post_box"},"type":"node","ver":1},{"id":1420822130,"lat":35.349581,"lon":139.357485,"tags":{"KSJ2:ADS":"四之宮3-1-33","KSJ2:AdminArea":"神奈川県平塚市","amenity":"post_office","name":"平塚四之宮郵便局","note":"National-Land Numerical Information (Public Facility) 2006, MLIT Japan","note:ja":"国土数値情報（公共施設データ）平成19年　国土交通省","operator":"日本郵便","operator:en":"Japan Post","operator:ja":"日本郵便","operator:short":"郵便局","operator:short:en":"JP","operator:short:ja":"郵便局","operator:wikidata":"Q11509260","source":"KSJ2","source_ref":"http://nlftp.mlit.go.jp/ksj/jpgis/datalist/KsjTmplt-P02-v2_0.html"},"type":"node","ver":2},{"id":10858982393,"lat":35.3528777,"lon":139.359524,"tags":{"amenity":"post_box"},"type":"node","ver":1},{"id":6451496162,"lat":35.3508472,"lon":139.366292,"tags":{"amenity":"post_box"},"type":"node","ver":1},{"id":1420832601,"lat":35.329082,"lon":139.393972,"tags":{"KSJ2:ADS":"南湖1-9-8","KSJ2:AdminArea":"神奈川県茅ヶ崎市","amenity":"post_office","name":"茅ヶ崎茶屋町郵便局","note":"National-Land Numerical Information (Public Facility) 2006, MLIT Japan","note:ja":"国土数値情報（公共施設データ）平成19年　国土交通省","operator":"日本郵便","operator:en":"Japan Post","operator:ja":"日本郵便","operator:short":"郵便局","operator:short:en":"JP","operator:short:ja":"郵便局","operator:wikidata":"Q11509260","source":"KSJ2","source_ref":"http://nlftp.mlit.go.jp/ksj/jpgis/datalist/KsjTmplt-P02-v2_0.html"},"type":"node","ver":2},{"id":1420832456,"lat":35.3358233,"lon":139.3829779,"tags":{"addr:city":"茅ヶ崎市","addr:housenumber":"352-1","addr:postcode":"253-0072","addr:street":"萩園通り","amenity":"post_office","name":"茅ヶ崎今宿郵便局","note":"National-Land Numerical Information (Public Facility) 2006, MLIT Japan","note:ja":"国土数値情報（公共施設データ）平成19年　国土交通省","source":"KSJ2","source_ref":"http://nlftp.mlit.go.jp/ksj/jpgis/datalist/KsjTmplt-P02-v2_0.html"},"type":"node","ver":2},{"id":1420832635,"lat":35.332137,"lon":139.40311,"tags":{"KSJ2:ADS":"新栄町13-20","KSJ2:AdminArea":"神奈川県茅ヶ崎市","amenity":"post_office","name":"茅ヶ崎郵便局","note":"National-Land Numerical Information (Public Facility) 2006, MLIT Japan","note:ja":"国土数値情報（公共施設データ）平成19年　国土交通省","operator":"日本郵便","operator:en":"Japan Post","operator:ja":"日本郵便","operator:short":"郵便局","operator:short:en":"JP","operator:short:ja":"郵便局","operator:wikidata":"Q11509260","source":"KSJ2","source_ref":"http://nlftp.mlit.go.jp/ksj/jpgis/datalist/KsjTmplt-P02-v2_0.html","wheelchair":"yes","wikidata":"Q11617176","wikipedia":"ja:茅ヶ崎郵便局"},"type":"node","ver":4},{"id":2686251836,"lat":35.3315034,"lon":139.4061829,"tags":{"amenity":"post_box","source":"survey"},"type":"node","ver":1},{"id":4547313267,"lat":35.3272298,"lon":139.4035583,"tags":{"amenity":"post_box","collection_times":"Mo-Fr 10:50, Sa 11:20, Mo-Su,PH 14:50, Su,PH 11:00","post_box:type":"pillar"},"type":"node","ver":2},{"id":2686214030,"lat":35.333858,"lon":139.4052552,"tags":{"amenity":"post_box","source":"survey"},"type":"node","ver":1},{"id":1420832597,"lat":35.342274,"lon":139.398248,"tags":{"KSJ2:ADS":"矢畑円蔵前3-7","KSJ2:AdminArea":"神奈川県茅ヶ崎市","amenity":"post_office","name":"茅ヶ崎矢畑郵便局","note":"National-Land Numerical Information (Public Facility) 2006, MLIT Japan","note:ja":"国土数値情報（公共施設データ）平成19年　国土交通省","operator":"日本郵便","operator:en":"Japan Post","operator:ja":"日本郵便","operator:short":"郵便局","operator:short:en":"JP","operator:short:ja":"郵便局","operator:wikidata":"Q11509260","source":"KSJ2","source_ref":"http://nlftp.mlit.go.jp/ksj/jpgis/datalist/KsjTmplt-P02-v2_0.html"},"type":"node","ver":2},{"id":1420832640,"lat":35.348357,"lon":139.407331,"tags":{"KSJ2:ADS":"鶴が台10-6-101","KSJ2:AdminArea":"神奈川県茅ヶ崎市","amenity":"post_office","name":"茅ヶ崎鶴が台郵便局","note":"National-Land Numerical Information (Public Facility) 2006, MLIT Japan","note:ja":"国土数値情報（公共施設データ）平成19年　国土交通省","operator":"日本郵便","operator:en":"Japan Post","operator:ja":"日本郵便","operator:short":"郵便局","operator:short:en":"JP","operator:short:ja":"郵便局","operator:wikidata":"Q11509260","source":"KSJ2","source_ref":"http://nlftp.mlit.go.jp/ksj/jpgis/datalist/KsjTmplt-P02-v2_0.html"},"type":"node","ver":2},{"id":9240006897,"lat":35.3506241,"lon":139.4079285,"tags":{"amenity":"post_box","operator":"日本郵便","operator:en":"Japan Post","operator:ja":"日本郵便","operator:wikidata":"Q11509260","operator:wikipedia":"ja:日本郵便","short_name:en":"JP"},"type":"node","ver":1},{"id":5901300819,"lat":35.3248183,"lon":139.4111398,"tags":{"amenity":"post_box","collection_times":"Mo-Fr 11:20,15:40; Sa 11:20,15:40; Su,PH 11:20,15:40","drive_through":"no"},"type":"node","ver":1},{"id":5901300821,"lat":35.3248364,"lon":139.4148696,"tags":{"amenity":"post_box","collection_times":"Mo-Fr 9:50,14:20; Sa 9:50,14:20; Su,PH 9:50,14:20","drive_through":"no"},"type":"node","ver":1},{"id":5901228227,"lat":35.3251693,"lon":139.4222614,"tags":{"amenity":"post_box","collection_times":"Mo-Fr 11:10,15:40; Sa 11:10,15:40; Su,PH 11:10,15:40"},"type":"node","ver":1},{"id":5901228231,"lat":35.3257398,"lon":139.4340094,"tags":{"amenity":"post_box","collection_times":"Mo-Fr 10:50,15:20; Sa 10:50,15:20; Su,PH 10:50,15:20","drive_through":"no"},"type":"node","ver":2},{"id":5901228232,"lat":35.3254958,"lon":139.4286458,"tags":{"amenity":"post_box","collection_times":"Mo-Fr 11:10,15:30; Sa 11:10,15:30; Su,PH 11:10,15:30","drive_through":"no"},"type":"node","ver":1},{"id":1420832833,"lat":35.324695,"lon":139.44347,"tags":{"KSJ2:ADS":"辻堂西海岸2-10-3-10","KSJ2:AdminArea":"神奈川県藤沢市","amenity":"post_office","name":"藤沢西海岸郵便局","note":"National-Land Numerical Information (Public Facility) 2006, MLIT Japan","note:ja":"国土数値情報（公共施設データ）平成19年　国土交通省","operator":"日本郵便","operator:en":"Japan Post","operator:ja":"日本郵便","operator:short":"郵便局","operator:short:en":"JP","operator:short:ja":"郵便局","operator:wikidata":"Q11509260","source":"KSJ2","source_ref":"http://nlftp.mlit.go.jp/ksj/jpgis/datalist/KsjTmplt-P02-v2_0.html"},"type":"node","ver":2},{"id":1420832818,"lat":35.324418,"lon":139.453469,"tags":{"KSJ2:ADS":"辻堂西海岸1-8-15","KSJ2:AdminArea":"神奈川県藤沢市","amenity":"post_office","name":"藤沢東海岸郵便局","note":"National-Land Numerical Information (Public Facility) 2006, MLIT Japan","note:ja":"国土数値情報（公共施設データ）平成19年　国土交通省","operator":"日本郵便","operator:en":"Japan Post","operator:ja":"日本郵便","operator:short":"郵便局","operator:short:en":"JP","operator:short:ja":"郵便局","operator:wikidata":"Q11509260","source":"KSJ2","source_ref":"http://nlftp.mlit.go.jp/ksj/jpgis/datalist/KsjTmplt-P02-v2_0.html"},"type":"node","ver":2},{"id":5406794244,"lat":35.3245938,"lon":139.4538014,"tags":{"amenity":"post_box","collection_times":"Mo-Fr 10:10,14:10; Sa 10:40,14:50; Su,PH 10:40,14:10"},"type":"node","ver":1},{"id":5406794245,"lat":35.3213778,"lon":139.4538302,"tags":{"amenity":"post_box","collection_times":"Mo-Fr 10:10,14:10; Sa 10:40,14:50; Su,PH 10:40,14:50","post_box:type":"lamp"},"type":"node","ver":1},{"id":5848037433,"lat":35.3262315,"lon":139.4475376,"tags":{"amenity":"post_box","collection_times":"Mo-Fr 10:30,14:30; Sa 10:50,15:00; Su,PH 10:50,15:00","drive_through":"no"},"type":"node","ver":1},{"id":5466820537,"lat":35.3310723,"lon":139.4123358,"tags":{"amenity":"post_box","collection_times":"Mo-Fr 9:40,14:00; Sa 9:40,14:00; Su,PH 9:40,14:00","post_box:type":"lamp"},"type":"node","ver":1},{"id":1420832587,"lat":35.328333,"lon":139.420749,"tags":{"KSJ2:ADS":"松が丘1-1-74","KSJ2:AdminArea":"神奈川県茅ヶ崎市","amenity":"post_office","name":"茅ヶ崎松が丘郵便局","note":"National-Land Numerical Information (Public Facility) 2006, MLIT Japan","note:ja":"国土数値情報（公共施設データ）平成19年　国土交通省","operator":"日本郵便","operator:en":"Japan Post","operator:ja":"日本郵便","operator:short":"郵便局","operator:short:en":"JP","operator:short:ja":"郵便局","operator:wikidata":"Q11509260","source":"KSJ2","source_ref":"http://nlftp.mlit.go.jp/ksj/jpgis/datalist/KsjTmplt-P02-v2_0.html"},"type":"node","ver":2},{"id":1420832598,"lat":35.332832,"lon":139.417832,"tags":{"KSJ2:ADS":"若松町6-26","KSJ2:AdminArea":"神奈川県茅ヶ崎市","amenity":"post_office","name":"茅ヶ崎若松郵便局","note":"National-Land Numerical Information (Public Facility) 2006, MLIT Japan","note:ja":"国土数値情報（公共施設データ）平成19年　国土交通省","operator":"日本郵便","operator:en":"Japan Post","operator:ja":"日本郵便","operator:short":"郵便局","operator:short:en":"JP","operator:short:ja":"郵便局","operator:wikidata":"Q11509260","source":"KSJ2","source_ref":"http://nlftp.mlit.go.jp/ksj/jpgis/datalist/KsjTmplt-P02-v2_0.html"},"type":"node","ver":2},{"id":4559608137,"lat":35.3340076,"lon":139.4082085,"tags":{"amenity":"post_box","source":"survey"},"type":"node","ver":1},{"id":4559608138,"lat":35.3358938,"lon":139.4128548,"tags":{"amenity":"post_box","source":"survey"},"type":"node","ver":1},{"id":1420832589,"lat":35.3395376,"lon":139.422336,"tags":{"amenity":"post_office","name":"茅ヶ崎松林郵便局","note":"National-Land Numerical Information (Public Facility) 2006, MLIT Japan","note:ja":"国土数値情報（公共施設データ）平成19年　国土交通省","source":"KSJ2","source_ref":"http://nlftp.mlit.go.jp/ksj/jpgis/datalist/KsjTmplt-P02-v2_0.html"},"type":"node","ver":2},{"id":5466729584,"lat":35.3376815,"lon":139.4248617,"tags":{"amenity":"post_box","post_box:type":"pillar"},"type":"node","ver":1},{"id":3608612187,"lat":35.3371851,"lon":139.4303056,"tags":{"amenity":"post_box","source":"survey"},"type":"node","ver":1},{"id":1420832639,"lat":35.3430416,"lon":139.4125108,"tags":{"amenity":"post_office","name":"茅ヶ崎高田郵便局","note":"National-Land Numerical Information (Public Facility) 2006, MLIT Japan","note:ja":"国土数値情報（公共施設データ）平成19年　国土交通省","source":"KSJ2","source_ref":"http://nlftp.mlit.go.jp/ksj/jpgis/datalist/KsjTmplt-P02-v2_0.html"},"type":"node","ver":2},{"id":2686214034,"lat":35.3502806,"lon":139.4147824,"tags":{"amenity":"post_box","source":"survey"},"type":"node","ver":1},{"id":1420832470,"lat":35.327244,"lon":139.4375917,"tags":{"KSJ2:ADS":"富士見町16-8","KSJ2:AdminArea":"神奈川県茅ヶ崎市","amenity":"post_office","name":"茅ヶ崎富士見郵便局","note":"National-Land Numerical Information (Public Facility) 2006, MLIT Japan","note:ja":"国土数値情報（公共施設データ）平成19年　国土交通省","operator":"日本郵便","operator:en":"Japan Post","operator:ja":"日本郵便","operator:short":"郵便局","operator:short:en":"JP","operator:short:ja":"郵便局","operator:wikidata":"Q11509260","source":"KSJ2","source_ref":"http://nlftp.mlit.go.jp/ksj/jpgis/datalist/KsjTmplt-P02-v2_0.html","wheelchair":"limited"},"type":"node","ver":4},{"id":5513384237,"lat":35.3328058,"lon":139.4385993,"tags":{"amenity":"post_box","collection_times":"Mo-Fr 10:30,15:00; Sa 10:30,15:00; Su,PH 10:30,15:00","post_box:type":"lamp"},"type":"node","ver":1},{"id":5901228237,"lat":35.3304997,"lon":139.438375,"tags":{"amenity":"post_box","collection_times":"Mo-Fr 10:40,15:10; Sa 10:40,15:10; Su,PH 10:40,15:10","drive_through":"no"},"type":"node","ver":1},{"id":6158402297,"lat":35.3329016,"lon":139.4445512,"tags":{"amenity":"post_box","drive_through":"no"},"type":"node","ver":1},{"id":1420832592,"lat":35.3352151,"lon":139.4406815,"tags":{"KSJ2:ADS":"浜竹2-2-6","KSJ2:AdminArea":"神奈川県茅ヶ崎市","amenity":"post_office","name":"茅ヶ崎浜竹郵便局","note":"National-Land Numerical Information (Public Facility) 2006, MLIT Japan","note:ja":"国土数値情報（公共施設データ）平成19年　国土交通省","operator":"日本郵便","operator:en":"Japan Post","operator:ja":"日本郵便","operator:short":"郵便局","operator:short:en":"JP","operator:short:ja":"郵便局","operator:wikidata":"Q11509260","source":"KSJ2","source_ref":"http://nlftp.mlit.go.jp/ksj/jpgis/datalist/KsjTmplt-P02-v2_0.html"},"type":"node","ver":3},{"id":4559608151,"lat":35.3371455,"lon":139.4433308,"tags":{"amenity":"post_box","collection_times":"Mo-Fr 10:50,14:40; Sa 10:40,14:30; Su,PH 10:30,14:40","source":"survey"},"type":"node","ver":3},{"id":5382906806,"lat":35.3367767,"lon":139.4474512,"tags":{"amenity":"post_box","collection_times":"Mo-Fr 11:20,15:20; Sa 11:10,15:20; Su,PH 11:10,15:20","post_box:type":"lamp","ref":"251331"},"type":"node","ver":2},{"id":5446872333,"lat":35.3365328,"lon":139.4454302,"tags":{"amenity":"post_box","collection_times":"Mo-Fr 11:00,15:00; Sa 11:10,15:20; Su,PH 11:10,15:20","operator":"日本郵便","operator:en":"Japan Post","operator:ja":"日本郵便","operator:short":"郵便局","operator:short:en":"JP","operator:short:ja":"郵便局","operator:wikidata":"Q11509260","post_box:type":"lamp","ref":"251330"},"type":"node","ver":2},{"id":5513359022,"lat":35.3362888,"lon":139.4431785,"tags":{"amenity":"post_box","collection_times":"Mo-Fr 10:45,14:45; Sa 10:45,14:45; Su,PH 10:45,14:45","post_box:type":"lamp"},"type":"node","ver":1},{"id":5539267825,"lat":35.331757,"lon":139.451091,"tags":{"amenity":"post_box","collection_times":"Mo-Fr 10:40,14:40; Sa 11:00,15:10; Su,PH 11:00,15:10","post_box:type":"lamp","ref":"251326"},"type":"node","ver":2},{"id":5406817877,"lat":35.3297746,"lon":139.4571877,"tags":{"amenity":"post_box","collection_times":"Mo-Fr 11:20,15:20; Sa 11:20,15:30; Su,PH 11:20,15:30","post_box:type":"lamp","source":"survey"},"type":"node","ver":1},{"id":1420833440,"lat":35.3361106,"lon":139.4481961,"tags":{"amenity":"post_office","name":"辻堂郵便局","wheelchair":"yes"},"type":"node","ver":3},{"id":2733198710,"lat":35.3377353,"lon":139.4480844,"tags":{"amenity":"post_box","operator":"日本郵便","operator:en":"Japan Post","operator:ja":"日本郵便","operator:short":"郵便局","operator:short:en":"JP","operator:short:ja":"郵便局","operator:wikidata":"Q11509260"},"type":"node","ver":2},{"id":5320149437,"lat":35.339189,"lon":139.4511326,"tags":{"amenity":"post_box","collection_times":"Mo-Fr 10:30,14:30; Sa 10:40,15:00; Su,PH 10:40,14:30","post_box:type":"lamp","ref":"251416"},"type":"node","ver":2},{"id":5454063547,"lat":35.3373467,"lon":139.4525354,"tags":{"amenity":"post_box","collection_times":"Mo-Fr 10:20,14:20; Sa 10:30,14:50; Su,PH 10:20,14:50","post_box:type":"lamp","ref":"251412"},"type":"node","ver":1},{"id":5539243023,"lat":35.3361479,"lon":139.4481539,"tags":{"amenity":"post_box","collection_times":"Mo-Fr 11:00,15:00,17:20; Sa 11:10,15:20; Su,PH 11:10,15:20","post_box:type":"lamp","ref":"251812"},"type":"node","ver":2},{"id":5539254721,"lat":35.3363076,"lon":139.4491586,"tags":{"amenity":"post_box","collection_times":"Mo-Fr 10:40,14:40; Sa 11:00,15:10; Su,PH 10:40,15:10","post_box:type":"lamp","ref":"251327"},"type":"node","ver":2},{"id":5848129281,"lat":35.3399362,"lon":139.4477063,"tags":{"amenity":"post_box","collection_times":"Mo-Fr 10:30,14:30; Sa 10:40,15:00; Su,PH 10:40,15:00","drive_through":"no","operator":"日本郵便","operator:en":"Japan Post","operator:ja":"日本郵便","operator:short":"郵便局","operator:short:en":"JP","operator:short:ja":"郵便局","operator:wikidata":"Q11509260","ref":"251806"},"type":"node","ver":2},{"id":4559608161,"lat":35.3375468,"lon":139.4574519,"tags":{"amenity":"post_box","source":"survey"},"type":"node","ver":1},{"id":5311901640,"lat":35.345563,"lon":139.4425168,"tags":{"amenity":"post_box","collection_times":"Mo-Fr 15:30; Sa 15:30; Su,PH 10:30","post_box:type":"lamp"},"type":"node","ver":3},{"id":5446859655,"lat":35.3409274,"lon":139.4457963,"tags":{"amenity":"post_box","collection_times":"Mo-Fr 12:00,17:30; Sa 12:00,17:30; Su,PH 12:00,17:30","ref":"251812"},"type":"node","ver":1},{"id":5890134569,"lat":35.3420886,"lon":139.4410036,"tags":{"amenity":"post_box","collection_times":"Mo-Fr 10:50,14:40; Sa 10:40,14:30; Su,PH 10:40,14:30","drive_through":"no","name":"公務員社宅前差出箱"},"type":"node","ver":2},{"id":6072544226,"lat":35.3410446,"lon":139.4438664,"tags":{"amenity":"post_box","collection_times":"Mo-Fr 10:50,14:40; Sa 10:40,14:30; Su,PH 10:40,14:30","drive_through":"no","operator":"茅ヶ崎郵便局"},"type":"node","ver":2},{"id":1420832899,"lat":35.341573,"lon":139.452998,"tags":{"KSJ2:ADS":"辻堂新町1-19-10","KSJ2:AdminArea":"神奈川県藤沢市","amenity":"post_office","name":"藤沢辻堂新町郵便局","note":"National-Land Numerical Information (Public Facility) 2006, MLIT Japan","note:ja":"国土数値情報（公共施設データ）平成19年　国土交通省","operator":"日本郵便","operator:en":"Japan Post","operator:ja":"日本郵便","operator:short":"郵便局","operator:short:en":"JP","operator:short:ja":"郵便局","operator:wikidata":"Q11509260","source":"KSJ2","source_ref":"http://nlftp.mlit.go.jp/ksj/jpgis/datalist/KsjTmplt-P02-v2_0.html"},"type":"node","ver":2},{"id":2925791533,"lat":35.3452751,"lon":139.448759,"tags":{"amenity":"post_box","source":"survey"},"type":"node","ver":1},{"id":5320273398,"lat":35.342419,"lon":139.4489016,"tags":{"amenity":"post_box","post_box:type":"lamp"},"type":"node","ver":1},{"id":5325488429,"lat":35.3461039,"lon":139.4515537,"tags":{"amenity":"post_box","collection_times":"Mo-Fr 10:50,14:50; Sa 10:50,15:10; Su,PH 10:50,15:10"},"type":"node","ver":2},{"id":5610645721,"lat":35.3413391,"lon":139.4593229,"tags":{"amenity":"post_box","collection_times":"Mo-Fr 10:10,14:10; Sa 10:20,14:40; Su,PH 10:20,14:10","post_box:type":"lamp","ref":"251409"},"type":"node","ver":2},{"id":5616458922,"lat":35.3452233,"lon":139.4554345,"tags":{"amenity":"post_box","collection_times":"Mo-Fr 11:10,15:10; Sa 11:00,15:20; Su,PH 11:00,15:20","post_box:type":"lamp","ref":"251423"},"type":"node","ver":2},{"id":3294179561,"lat":35.3474681,"lon":139.4605363,"tags":{"amenity":"post_box","collection_times":"Mo-Fr 11:10,15:10; Sa 11:00,15:20; Su,PH 11:10,15:20","source":"survey"},"type":"node","ver":2},{"id":1726058298,"lat":35.3606713,"lon":139.2553633,"tags":{"amenity":"post_box","source":"survey 2012-04-21"},"type":"node","ver":1},{"id":1420830949,"lat":35.3604122,"lon":139.2625388,"tags":{"amenity":"post_office","name":"秦野下大槻郵便局","note":"National-Land Numerical Information (Public Facility) 2006, MLIT Japan","note:ja":"国土数値情報（公共施設データ）平成19年　国土交通省","source":"KSJ2","source_ref":"http://nlftp.mlit.go.jp/ksj/jpgis/datalist/KsjTmplt-P02-v2_0.html"},"type":"node","ver":2},{"id":5553749998,"lat":35.3582398,"lon":139.2768306,"tags":{"amenity":"post_box"},"type":"node","ver":1},{"id":1420831012,"lat":35.365742,"lon":139.270796,"tags":{"amenity":"post_office","name":"秦野東海大学前郵便局","note":"National-Land Numerical Information (Public Facility) 2006, MLIT Japan","source":"KSJ2","source_ref":"http://nlftp.mlit.go.jp/ksj/jpgis/datalist/KsjTmplt-P02-v2_0.html"},"type":"node","ver":2},{"id":10058918983,"lat":35.3601807,"lon":139.273221,"tags":{"amenity":"post_box","operator":"日本郵便","operator:en":"Japan Post","operator:ja":"日本郵便","operator:wikidata":"Q11509260","short_name:en":"JP"},"type":"node","ver":1},{"id":5469157950,"lat":35.3721761,"lon":139.2696644,"tags":{"amenity":"post_box"},"type":"node","ver":1},{"id":9471787068,"lat":35.3718688,"lon":139.2677456,"tags":{"amenity":"post_box","source":"survey 2022-01-29"},"type":"node","ver":1},{"id":9480855371,"lat":35.371193,"lon":139.2669171,"tags":{"amenity":"post_box"},"type":"node","ver":1},{"id":10055104241,"lat":35.3739329,"lon":139.2713025,"tags":{"amenity":"post_box","collection_times":"Mo-Sa 14:00; PH,Su 14:00"},"type":"node","ver":2},{"id":1726097261,"lat":35.3646365,"lon":139.2981264,"tags":{"amenity":"post_office","name":"平塚西郵便局","note":"National-Land Numerical Information (Public Facility) 2006, MLIT Japan","source":"KSJ2","source_ref":"http://nlftp.mlit.go.jp/ksj/jpgis/datalist/KsjTmplt-P02-v2_0.html"},"type":"node","ver":2},{"id":5553741906,"lat":35.3645482,"lon":139.2982614,"tags":{"amenity":"post_box"},"type":"node","ver":1},{"id":1420822148,"lat":35.378074,"lon":139.302952,"tags":{"amenity":"post_office","name":"平塚岡崎郵便局","note":"National-Land Numerical Information (Public Facility) 2006, MLIT Japan","source":"KSJ2","source_ref":"http://nlftp.mlit.go.jp/ksj/jpgis/datalist/KsjTmplt-P02-v2_0.html"},"type":"node","ver":2},{"id":1420834645,"lat":35.3802804,"lon":139.2776372,"tags":{"addr:block_number":"1","addr:city":"秦野市","addr:housenumber":"3","addr:neighbourhood":"1丁目","addr:postcode":"257-0002","addr:province":"神奈川県","addr:quarter":"鶴巻南","amenity":"post_office","name":"鶴巻郵便局","note":"National-Land Numerical Information (Public Facility) 2006, MLIT Japan","opening_hours":"Mo-Fr 09:00-17:00; Sa-Su, PH off","phone":"0463-77-1906","source":"KSJ2;survey","source_ref":"http://nlftp.mlit.go.jp/ksj/jpgis/datalist/KsjTmplt-P02-v2_0.html","website":"https://map.japanpost.jp/p/search/dtl/300102357000/"},"type":"node","ver":4},{"id":5445762289,"lat":35.3818643,"lon":139.2809464,"tags":{"amenity":"post_box"},"type":"node","ver":1},{"id":6728721718,"lat":35.3812915,"lon":139.2780357,"tags":{"amenity":"post_box"},"type":"node","ver":1},{"id":6728721723,"lat":35.3803221,"lon":139.2777572,"tags":{"amenity":"post_box"},"type":"node","ver":2},{"id":13433763492,"lat":35.3863211,"lon":139.2805411,"tags":{"amenity":"post_box"},"type":"node","ver":1},{"id":13335435250,"lat":35.3944983,"lon":139.3023253,"tags":{"amenity":"post_box","operator":"日本郵便","operator:en":"Japan Post","operator:ja":"日本郵便","operator:short":"郵便局","operator:short:en":"JP","operator:short:ja":"郵便局","operator:wikidata":"Q11509260"},"type":"node","ver":1},{"id":12869888298,"lat":35.4023959,"lon":139.2963466,"tags":{"amenity":"post_box"},"type":"node","ver":1},{"id":12757447599,"lat":35.4056647,"lon":139.3001911,"tags":{"amenity":"post_box"},"type":"node","ver":1},{"id":12817282024,"lat":35.4051312,"lon":139.2985136,"tags":{"amenity":"post_box","operator":"日本郵便","operator:en":"Japan Post","operator:ja":"日本郵便","operator:short":"郵便局","operator:short:en":"JP","operator:short:ja":"郵便局","operator:wikidata":"Q11509260"},"type":"node","ver":1},{"id":1420822281,"lat":35.3575221,"lon":139.3272821,"tags":{"amenity":"post_office","name":"平塚豊田郵便局","note":"National-Land Numerical Information (Public Facility) 2006, MLIT Japan","note:ja":"国土数値情報（公共施設データ）平成19年　国土交通省","source":"KSJ2","source_ref":"http://nlftp.mlit.go.jp/ksj/jpgis/datalist/KsjTmplt-P02-v2_0.html"},"type":"node","ver":2},{"id":1420822226,"lat":35.366354,"lon":139.34892,"tags":{"KSJ2:ADS":"横内3785-5","KSJ2:AdminArea":"神奈川県平塚市","amenity":"post_office","name":"平塚横内郵便局","note":"National-Land Numerical Information (Public Facility) 2006, MLIT Japan","note:ja":"国土数値情報（公共施設データ）平成19年　国土交通省","operator":"日本郵便","operator:en":"Japan Post","operator:ja":"日本郵便","operator:short":"郵便局","operator:short:en":"JP","operator:short:ja":"郵便局","operator:wikidata":"Q11509260","source":"KSJ2","source_ref":"http://nlftp.mlit.go.jp/ksj/jpgis/datalist/KsjTmplt-P02-v2_0.html"},"type":"node","ver":2},{"id":12857627081,"lat":35.3974096,"lon":139.3093371,"tags":{"amenity":"post_box"},"type":"node","ver":1},{"id":13232064758,"lat":35.3979757,"lon":139.305521,"tags":{"amenity":"post_box","operator":"日本郵便","operator:en":"Japan Post","operator:ja":"日本郵便","operator:short":"郵便局","operator:short:en":"JP","operator:short:ja":"郵便局","operator:wikidata":"Q11509260"},"type":"node","ver":1},{"id":10833349403,"lat":35.3959574,"lon":139.3130564,"tags":{"amenity":"post_box"},"type":"node","ver":1},{"id":12760873287,"lat":35.4033954,"lon":139.3033585,"tags":{"amenity":"post_box"},"type":"node","ver":1},{"id":12866152109,"lat":35.4026679,"lon":139.3133831,"tags":{"amenity":"post_box"},"type":"node","ver":1},{"id":13300788863,"lat":35.402987,"lon":139.3144644,"tags":{"amenity":"post_box","operator":"日本郵便","operator:en":"Japan Post","operator:ja":"日本郵便","operator:short":"郵便局","operator:short:en":"JP","operator:short:ja":"郵便局","operator:wikidata":"Q11509260"},"type":"node","ver":1},{"id":13436923218,"lat":35.4001426,"lon":139.3099268,"tags":{"amenity":"post_box"},"type":"node","ver":1},{"id":1437697687,"lat":35.3977828,"lon":139.3196941,"tags":{"amenity":"post_box"},"type":"node","ver":1},{"id":13323390640,"lat":35.3994918,"lon":139.3164996,"tags":{"amenity":"post_box"},"type":"node","ver":1},{"id":13366361329,"lat":35.4028915,"lon":139.3168334,"tags":{"amenity":"post_box","operator":"日本郵便","operator:en":"Japan Post","operator:ja":"日本郵便","operator:short":"郵便局","operator:short:en":"JP","operator:short:ja":"郵便局","operator:wikidata":"Q11509260"},"type":"node","ver":1},{"id":13710129575,"lat":35.3925486,"lon":139.3315664,"tags":{"amenity":"post_box"},"type":"node","ver":1},{"id":13657453646,"lat":35.4203207,"lon":139.2562435,"tags":{"amenity":"post_box"},"type":"node","ver":1},{"id":13318482566,"lat":35.4155921,"lon":139.2875012,"tags":{"amenity":"post_box"},"type":"node","ver":1},{"id":12851457670,"lat":35.4084279,"lon":139.2920811,"tags":{"amenity":"post_box"},"type":"node","ver":1},{"id":13296673544,"lat":35.4227484,"lon":139.2944462,"tags":{"amenity":"post_box"},"type":"node","ver":1},{"id":6447098448,"lat":35.4451462,"lon":139.2965979,"tags":{"amenity":"post_box","colour":"red","operator":"日本郵便","operator:en":"Japan Post","operator:ja":"日本郵便","operator:short":"郵便局","operator:short:en":"JP","operator:short:ja":"郵便局","operator:wikidata":"Q11509260","post_box:type":"lamp","source":"survey","support":"pole"},"type":"node","ver":2},{"id":8175884625,"lat":35.4396423,"lon":139.2961014,"tags":{"amenity":"post_box","operator":"日本郵便","operator:en":"Japan Post","operator:ja":"日本郵便","operator:short":"郵便局","operator:short:en":"JP","operator:short:ja":"郵便局","operator:wikidata":"Q11509260"},"type":"node","ver":2},{"id":1420813502,"lat":35.442121,"lon":139.298508,"tags":{"amenity":"post_office","name":"七沢郵便局","name:ja":"七沢郵便局","note":"National-Land Numerical Information (Public Facility) 2006, MLIT Japan","note:ja":"国土数値情報（公共施設データ）平成19年　国土交通省","operator":"日本郵便","operator:en":"Japan Post","operator:ja":"日本郵便","operator:short":"郵便局","operator:short:en":"JP","operator:short:ja":"郵便局","operator:wikidata":"Q11509260","source":"KSJ2","source_ref":"http://nlftp.mlit.go.jp/ksj/jpgis/datalist/KsjTmplt-P02-v2_0.html"},"type":"node","ver":2},{"id":6447098443,"lat":35.4420544,"lon":139.298603,"tags":{"amenity":"post_box","operator":"日本郵便","operator:en":"Japan Post","operator:ja":"日本郵便","operator:short":"郵便局","operator:short:en":"JP","operator:short:ja":"郵便局","operator:wikidata":"Q11509260"},"type":"node","ver":2},{"id":1420823169,"lat":35.4066269,"lon":139.3155095,"tags":{"addr:block_number":"143","addr:city":"伊勢原市","addr:neighbourhood":"下糟屋","addr:postcode":"259-1143","addr:province":"神奈川県","amenity":"post_office","level":"-1","name":"東海大学病院内簡易郵便局","name:ja":"東海大学病院内簡易郵便局","name:ja-Hira":"とうかいだいがくびょういんないかんいゆうびんきょく","opening_hours":"Mo-Fr 09:00-15:30; Sa 09:00-11:30; Su,PH off"},"type":"node","ver":5},{"id":12815919644,"lat":35.406967,"lon":139.314037,"tags":{"amenity":"post_box"},"type":"node","ver":1},{"id":12869899789,"lat":35.4060333,"lon":139.3234455,"tags":{"amenity":"post_box"},"type":"node","ver":1},{"id":13768059290,"lat":35.4102034,"lon":139.3420041,"tags":{"amenity":"post_box","operator":"日本郵便","operator:en":"Japan Post","operator:ja":"日本郵便","operator:short":"郵便局","operator:short:en":"JP","operator:short:ja":"郵便局","operator:wikidata":"Q11509260"},"type":"node","ver":1},{"id":13322121596,"lat":35.4148205,"lon":139.3350377,"tags":{"amenity":"post_box"},"type":"node","ver":1},{"id":13322121599,"lat":35.4162752,"lon":139.3347692,"tags":{"amenity":"post_box"},"type":"node","ver":1},{"id":5443750533,"lat":35.4160701,"lon":139.3421162,"tags":{"amenity":"post_box","operator":"日本郵便","operator:en":"Japan Post","operator:ja":"日本郵便","operator:short":"郵便局","operator:short:en":"JP","operator:short:ja":"郵便局","operator:wikidata":"Q11509260"},"type":"node","ver":2},{"id":3446318821,"lat":35.4173885,"lon":139.3439734,"tags":{"amenity":"post_box","colour":"red","operator":"日本郵便","operator:en":"Japan Post","operator:ja":"日本郵便","operator:short":"郵便局","operator:short:en":"JP","operator:short:ja":"郵便局","operator:wikidata":"Q11509260","post_box:type":"lamp","source":"GSImaps/seamlessphoto;survey","support":"pole"},"type":"node","ver":2},{"id":11772637137,"lat":35.4236571,"lon":139.3311755,"tags":{"amenity":"post_box","colour":"red","operator":"日本郵便","operator:en":"Japan Post","operator:ja":"日本郵便","operator:short":"郵便局","operator:short:en":"JP","operator:short:ja":"郵便局","operator:wikidata":"Q11509260","post_box:type":"lamp","source":"GSImaps/seamlessphoto;survey"},"type":"node","ver":1},{"id":13333074662,"lat":35.4196211,"lon":139.3295451,"tags":{"amenity":"post_box","operator":"日本郵便","operator:en":"Japan Post","operator:ja":"日本郵便","operator:short":"郵便局","operator:short:en":"JP","operator:short:ja":"郵便局","operator:wikidata":"Q11509260"},"type":"node","ver":1},{"id":1420815369,"lat":35.4260745,"lon":139.3313726,"tags":{"addr:block_number":"17","addr:city":"厚木市","addr:housenumber":"14","addr:neighbourhood":"3丁目","addr:postcode":"243-0028","addr:province":"神奈川県","addr:quarter":"愛甲西","amenity":"post_office","name":"厚木愛甲郵便局","name:ja":"厚木愛甲郵便局","note":"National-Land Numerical Information (Public Facility) 2006, MLIT Japan","operator":"日本郵便","operator:en":"Japan Post","operator:ja":"日本郵便","operator:short":"郵便局","operator:short:en":"JP","operator:short:ja":"郵便局","operator:wikidata":"Q11509260","source":"KSJ2;survey","source_ref":"http://nlftp.mlit.go.jp/ksj/jpgis/datalist/KsjTmplt-P02-v2_0.html","website":"https://map.japanpost.jp/p/search/dtl/300102577000/"},"type":"node","ver":5},{"id":11773301641,"lat":35.4260715,"lon":139.3312288,"tags":{"amenity":"post_box","colour":"red","operator":"日本郵便","operator:en":"Japan Post","operator:ja":"日本郵便","operator:short":"郵便局","operator:short:en":"JP","operator:short:ja":"郵便局","operator:wikidata":"Q11509260","post_box:type":"lamp","source":"Bing;survey","support":"pole"},"type":"node","ver":1},{"id":5226547866,"lat":35.4314618,"lon":139.3526325,"tags":{"amenity":"post_box","operator":"日本郵便","operator:en":"Japan Post","operator:ja":"日本郵便","operator:short":"郵便局","operator:short:en":"JP","operator:short:ja":"郵便局","operator:wikidata":"Q11509260"},"type":"node","ver":2},{"id":6447061462,"lat":35.43514,"lon":139.3081604,"tags":{"amenity":"post_box","colour":"red","operator":"日本郵便","operator:en":"Japan Post","operator:ja":"日本郵便","operator:short":"郵便局","operator:short:en":"JP","operator:short:ja":"郵便局","operator:wikidata":"Q11509260","post_box:type":"lamp","source":"survey","support":"pole"},"type":"node","ver":2},{"id":8326533834,"lat":35.4334035,"lon":139.3142666,"tags":{"amenity":"post_office","brand":"ヤマト運輸","brand:en":"Yamato Transport","brand:ja":"ヤマト運輸","brand:wikidata":"Q6584353","brand:wikipedia":"ja:ヤマト運輸","name":"ヤマト運輸","name:en":"Yamato Transport","name:ja":"ヤマト運輸"},"type":"node","ver":1},{"id":5999770166,"lat":35.4343068,"lon":139.3243139,"tags":{"amenity":"post_box","colour":"red","operator":"日本郵便","operator:en":"Japan Post","operator:ja":"日本郵便","operator:short":"郵便局","operator:short:en":"JP","operator:short:ja":"郵便局","operator:wikidata":"Q11509260","post_box:type":"lamp","source":"survey","support":"pole"},"type":"node","ver":2},{"id":518700584,"lat":35.443487,"lon":139.3168088,"tags":{"amenity":"post_box","colour":"red","operator":"日本郵便","operator:en":"Japan Post","operator:ja":"日本郵便","operator:short":"郵便局","operator:short:en":"JP","operator:short:ja":"郵便局","operator:wikidata":"Q11509260","post_box:type":"lamp","source":"GSImaps/seamlessphoto;survey","support":"pole"},"type":"node","ver":2},{"id":1420815393,"lat":35.4455371,"lon":139.3091596,"tags":{"addr:block_number":"34","addr:city":"厚木市","addr:housenumber":"3","addr:neighbourhood":"1丁目","addr:postcode":"243-0122","addr:province":"神奈川県","addr:quarter":"森の里","amenity":"post_office","name":"厚木森の里郵便局","name:ja":"厚木森の里郵便局","note":"National-Land Numerical Information (Public Facility) 2006, MLIT Japan","note:ja":"国土数値情報（公共施設データ）平成19年　国土交通省","operator":"日本郵便","operator:en":"Japan Post","operator:ja":"日本郵便","operator:short":"郵便局","operator:short:en":"JP","operator:short:ja":"郵便局","operator:wikidata":"Q11509260","source":"KSJ2;survey","source_ref":"http://nlftp.mlit.go.jp/ksj/jpgis/datalist/KsjTmplt-P02-v2_0.html","website":"https://map.japanpost.jp/p/search/dtl/300102295000/"},"type":"node","ver":4},{"id":11456468695,"lat":35.4529926,"lon":139.3052298,"tags":{"amenity":"post_box","colour":"red","operator":"日本郵便","operator:en":"Japan Post","operator:ja":"日本郵便","operator:short":"郵便局","operator:short:en":"JP","operator:short:ja":"郵便局","operator:wikidata":"Q11509260","post_box:type":"lamp","source":"survey","support":"pole"},"type":"node","ver":1},{"id":12054107902,"lat":35.4399728,"lon":139.3299057,"tags":{"amenity":"post_box","colour":"red","operator":"日本郵便","operator:en":"Japan Post","operator:ja":"日本郵便","operator:short":"郵便局","operator:short:en":"JP","operator:short:ja":"郵便局","operator:wikidata":"Q11509260","post_box:type":"lamp","source":"Bing;survey","support":"pole"},"type":"node","ver":1},{"id":5982840109,"lat":35.4413439,"lon":139.3361529,"tags":{"amenity":"post_box","colour":"red","operator":"日本郵便","operator:en":"Japan Post","operator:ja":"日本郵便","operator:short":"郵便局","operator:short:en":"JP","operator:short:ja":"郵便局","operator:wikidata":"Q11509260","post_box:type":"lamp","source":"survey"},"type":"node","ver":2},{"id":11946190043,"lat":35.4406178,"lon":139.3538652,"tags":{"amenity":"post_box","colour":"red","operator":"日本郵便","operator:en":"Japan Post","operator:ja":"日本郵便","operator:short":"郵便局","operator:short:en":"JP","operator:short:ja":"郵便局","operator:wikidata":"Q11509260","source":"Bing;survey"},"type":"node","ver":1},{"id":1734658652,"lat":35.4486101,"lon":139.3399199,"tags":{"amenity":"post_box","colour":"red","operator":"日本郵便","operator:en":"Japan Post","operator:ja":"日本郵便","operator:short":"郵便局","operator:short:en":"JP","operator:short:ja":"郵便局","operator:wikidata":"Q11509260","source":"survey"},"type":"node","ver":2},{"id":1420815450,"lat":35.4532838,"lon":139.3421873,"tags":{"amenity":"post_office","name":"厚木緑ヶ丘郵便局","name:ja":"厚木緑ヶ丘郵便局","note":"National-Land Numerical Information (Public Facility) 2006, MLIT Japan","note:ja":"国土数値情報（公共施設データ）平成19年　国土交通省","operator":"日本郵便","operator:en":"Japan Post","operator:ja":"日本郵便","operator:short":"郵便局","operator:short:en":"JP","operator:short:ja":"郵便局","operator:wikidata":"Q11509260","source":"KSJ2","source_ref":"http://nlftp.mlit.go.jp/ksj/jpgis/datalist/KsjTmplt-P02-v2_0.html"},"type":"node","ver":3},{"id":11524917175,"lat":35.4531712,"lon":139.3421832,"tags":{"amenity":"post_box","colour":"red","operator":"日本郵便","operator:en":"Japan Post","operator:ja":"日本郵便","operator:short":"郵便局","operator:short:en":"JP","operator:short:ja":"郵便局","operator:wikidata":"Q11509260","post_box:type":"lamp","source":"survey","support":"pole"},"type":"node","ver":1},{"id":11728255873,"lat":35.4559227,"lon":139.3512921,"tags":{"amenity":"post_box","colour":"red","operator":"日本郵便","operator:en":"Japan Post","operator:ja":"日本郵便","operator:short":"郵便局","operator:short:en":"JP","operator:short:ja":"郵便局","operator:wikidata":"Q11509260","post_box:type":"lamp","source":"GSImaps/seamlessphoto;survey","support":"pole"},"type":"node","ver":1},{"id":4520258581,"lat":35.3551734,"lon":139.3615136,"tags":{"amenity":"post_box","source":"survey"},"type":"node","ver":1},{"id":10858982378,"lat":35.3583542,"lon":139.3620997,"tags":{"amenity":"post_box"},"type":"node","ver":1},{"id":5488509771,"lat":35.3704078,"lon":139.363953,"tags":{"amenity":"post_box","drive_through":"no"},"type":"node","ver":2},{"id":1420822227,"lat":35.378004,"lon":139.364718,"tags":{"KSJ2:ADS":"田村6-12-31","KSJ2:AdminArea":"神奈川県平塚市","amenity":"post_office","name":"平塚田村郵便局","note":"National-Land Numerical Information (Public Facility) 2006, MLIT Japan","note:ja":"国土数値情報（公共施設データ）平成19年　国土交通省","operator":"日本郵便","operator:en":"Japan Post","operator:ja":"日本郵便","operator:short":"郵便局","operator:short:en":"JP","operator:short:ja":"郵便局","operator:wikidata":"Q11509260","source":"KSJ2","source_ref":"http://nlftp.mlit.go.jp/ksj/jpgis/datalist/KsjTmplt-P02-v2_0.html"},"type":"node","ver":2},{"id":10858982385,"lat":35.3779613,"lon":139.364811,"tags":{"amenity":"post_box"},"type":"node","ver":1},{"id":1420816841,"lat":35.3732004,"lon":139.381676,"tags":{"amenity":"post_office","name":"寒川郵便局","note":"National-Land Numerical Information (Public Facility) 2006, MLIT Japan","note:ja":"国土数値情報（公共施設データ）平成19年　国土交通省","source":"KSJ2","source_ref":"http://nlftp.mlit.go.jp/ksj/jpgis/datalist/KsjTmplt-P02-v2_0.html","wikidata":"Q11457398","wikipedia":"ja:寒川郵便局"},"type":"node","ver":3},{"id":12849876068,"lat":35.3566065,"lon":139.3944381,"tags":{"amenity":"post_box","operator":"日本郵便","operator:en":"Japan Post","operator:ja":"日本郵便","operator:short":"郵便局","operator:short:en":"JP","operator:short:ja":"郵便局","operator:wikidata":"Q11509260"},"type":"node","ver":1},{"id":10926087977,"lat":35.3563725,"lon":139.3995525,"tags":{"amenity":"post_box","mapillary":"3281981278780111"},"type":"node","ver":1},{"id":10926087990,"lat":35.3564832,"lon":139.4003233,"tags":{"amenity":"post_box","mapillary":"570237944995579"},"type":"node","ver":1},{"id":9855779778,"lat":35.3678798,"lon":139.3874664,"tags":{"amenity":"post_box","colour":"red","operator":"日本郵便","operator:en":"Japan Post","operator:ja":"日本郵便","operator:wikidata":"Q11509260","short_name:en":"JP","source":"survey","support":"pole"},"type":"node","ver":1},{"id":8128067610,"lat":35.3711224,"lon":139.3958251,"tags":{"amenity":"post_box"},"type":"node","ver":1},{"id":5962607925,"lat":35.3840219,"lon":139.3656557,"tags":{"addr:city":"平塚市","addr:postcode":"254-0012","addr:province":"神奈川県","addr:quarter":"大神","amenity":"post_box","drive_through":"no"},"type":"node","ver":1},{"id":10858982377,"lat":35.3799631,"lon":139.3647749,"tags":{"amenity":"post_box"},"type":"node","ver":1},{"id":4520258587,"lat":35.3868671,"lon":139.3667332,"tags":{"amenity":"post_box","drive_through":"no","source":"survey"},"type":"node","ver":2},{"id":10838659994,"lat":35.3911002,"lon":139.3633545,"tags":{"amenity":"post_box"},"type":"node","ver":2},{"id":10838659995,"lat":35.3926665,"lon":139.3650379,"tags":{"amenity":"post_office","name":"ジアウトレット湘南平塚内郵便局"},"type":"node","ver":2},{"id":1420816827,"lat":35.3970051,"lon":139.3794465,"tags":{"addr:block_number":"3783","addr:city":"寒川町","addr:county":"高座郡","addr:housenumber":"12","addr:postcode":"253-0101","addr:province":"神奈川県","addr:quarter":"倉見","amenity":"post_office","mapillary":"228353459930156","name":"寒川倉見郵便局","name:en":"Samukawa Kurami Post Office","name:ja":"寒川倉見郵便局","note":"National-Land Numerical Information (Public Facility) 2006, MLIT Japan","note:ja":"国土数値情報（公共施設データ）平成19年　国土交通省","operator":"日本郵便","operator:en":"Japan Post","operator:ja":"日本郵便","operator:wikidata":"Q11509260","phone":"+81-467-74-2727","short_name":"郵便局","short_name:en":"JP","short_name:ja":"郵便局","source":"KSJ2;survey","source_ref":"http://nlftp.mlit.go.jp/ksj/jpgis/datalist/KsjTmplt-P02-v2_0.html","website":"https://map.japanpost.jp/p/search/dtl/300102674000/"},"type":"node","ver":5},{"id":7876967851,"lat":35.3970812,"lon":139.3795021,"tags":{"amenity":"post_box","colour":"red","operator":"日本郵便","operator:en":"Japan Post","operator:ja":"日本郵便","operator:wikidata":"Q11509260","post_box:type":"lamp","short_name":"郵便局","short_name:en":"JP","short_name:ja":"郵便局","source":"survey","support":"pole"},"type":"node","ver":2},{"id":10929007861,"lat":35.3954612,"lon":139.3790515,"tags":{"amenity":"post_box","colour":"red","operator":"日本郵便","operator:en":"Japan Post","operator:ja":"日本郵便","operator:short":"郵便局","operator:short:en":"JP","operator:short:ja":"郵便局","operator:wikidata":"Q11509260","post_box:type":"lamp","source":"survey","support":"pole"},"type":"node","ver":2},{"id":12030132408,"lat":35.4044362,"lon":139.3768311,"tags":{"amenity":"post_box","colour":"red","operator":"日本郵便","operator:en":"Japan Post","operator:ja":"日本郵便","operator:short":"郵便局","operator:short:en":"JP","operator:short:ja":"郵便局","operator:wikidata":"Q11509260","post_box:type":"lamp","source":"survey","support":"pole"},"type":"node","ver":1},{"id":12282893367,"lat":35.4052567,"lon":139.3945179,"tags":{"amenity":"post_box","colour":"red","operator":"日本郵便","operator:en":"Japan Post","operator:ja":"日本郵便","operator:short":"郵便局","operator:short:en":"JP","operator:short:ja":"郵便局","operator:wikidata":"Q11509260","post_box:type":"lamp","source":"Bing;survey","support":"pole"},"type":"node","ver":1},{"id":3062858729,"lat":35.3936436,"lon":139.4059078,"tags":{"amenity":"post_box","source":"survey"},"type":"node","ver":1},{"id":1420816893,"lat":35.3704209,"lon":139.4264141,"tags":{"amenity":"post_office","name":"小出郵便局","note":"National-Land Numerical Information (Public Facility) 2006, MLIT Japan","note:ja":"国土数値情報（公共施設データ）平成19年　国土交通省","source":"KSJ2","source_ref":"http://nlftp.mlit.go.jp/ksj/jpgis/datalist/KsjTmplt-P02-v2_0.html"},"type":"node","ver":2},{"id":2736676786,"lat":35.370519,"lon":139.4261845,"tags":{"amenity":"post_box","source":"survey"},"type":"node","ver":1},{"id":1420832761,"lat":35.35883,"lon":139.444359,"tags":{"KSJ2:ADS":"大庭5061-21","KSJ2:AdminArea":"神奈川県藤沢市","amenity":"post_office","name":"藤沢大庭郵便局","note":"National-Land Numerical Information (Public Facility) 2006, MLIT Japan","note:ja":"国土数値情報（公共施設データ）平成19年　国土交通省","operator":"日本郵便","operator:en":"Japan Post","operator:ja":"日本郵便","operator:short":"郵便局","operator:short:en":"JP","operator:short:ja":"郵便局","operator:wikidata":"Q11509260","source":"KSJ2","source_ref":"http://nlftp.mlit.go.jp/ksj/jpgis/datalist/KsjTmplt-P02-v2_0.html"},"type":"node","ver":2},{"id":6310893617,"lat":35.3595353,"lon":139.4438225,"tags":{"amenity":"post_box","collection_times":"Mo-Fr 10:50,14:50; Sa 10:30,14:40; Su,PH 10:30,14:50","drive_through":"no","operator":"藤沢郵便局","ref":"251508"},"type":"node","ver":1},{"id":5585936554,"lat":35.3650185,"lon":139.4462349,"tags":{"amenity":"post_box","collection_times":"Mo-Fr 10:30,14:30; Sa 10:50,15:00; Su,PH 10:50,14:30","post_box:type":"lamp"},"type":"node","ver":1},{"id":6062901314,"lat":35.3647504,"lon":139.4537356,"tags":{"amenity":"post_box","collection_times":"Mo-Fr 10:10,14:10; Sa 10:20, 14:30; Su,PH 10:20,14:10","drive_through":"no","operator":"藤沢郵便局","post_box:type":"lamp","ref":"251505"},"type":"node","ver":2},{"id":1420832820,"lat":35.370745,"lon":139.441859,"tags":{"KSJ2:ADS":"大庭5681-30","KSJ2:AdminArea":"神奈川県藤沢市","amenity":"post_office","name":"藤沢湘南ライフタウン郵便局","note":"National-Land Numerical Information (Public Facility) 2006, MLIT Japan","note:ja":"国土数値情報（公共施設データ）平成19年　国土交通省","operator":"日本郵便","operator:en":"Japan Post","operator:ja":"日本郵便","operator:short":"郵便局","operator:short:en":"JP","operator:short:ja":"郵便局","operator:wikidata":"Q11509260","source":"KSJ2","source_ref":"http://nlftp.mlit.go.jp/ksj/jpgis/datalist/KsjTmplt-P02-v2_0.html"},"type":"node","ver":2},{"id":2686213989,"lat":35.3746256,"lon":139.4345201,"tags":{"amenity":"post_box","source":"survey;Bing 2012"},"type":"node","ver":1},{"id":6292210427,"lat":35.3731541,"lon":139.4365953,"tags":{"amenity":"post_box","drive_through":"no","operator":"藤沢北郵便局"},"type":"node","ver":1},{"id":3062858727,"lat":35.3859248,"lon":139.4122754,"tags":{"amenity":"post_box","colour":"red","operator":"日本郵便","operator:en":"Japan Post","operator:ja":"日本郵便","operator:short":"郵便局","operator:short:en":"JP","operator:short:ja":"郵便局","operator:wikidata":"Q11509260","post_box:type":"lamp","source":"survey","support":"pole"},"type":"node","ver":2},{"id":3062858723,"lat":35.3896782,"lon":139.432526,"tags":{"amenity":"post_box","source":"survey"},"type":"node","ver":1},{"id":1420822424,"lat":35.4041034,"lon":139.4142387,"tags":{"addr:block_number":"617","addr:city":"藤沢市","addr:postcode":"252-0821","addr:province":"神奈川県","addr:quarter":"用田","amenity":"post_office","name":"御所見郵便局","name:en":"Goshomi Post Office","name:ja":"御所見郵便局","name:ja-Hira":"ごしょみゆうびんきょく","name:ja-Latn":"Goshomi Yūbinkyoku","note":"National-Land Numerical Information (Public Facility) 2006, MLIT Japan","note:ja":"国土数値情報（公共施設データ）平成19年　国土交通省","operator":"日本郵便","operator:en":"Japan Post","operator:ja":"日本郵便","operator:short":"郵便局","operator:short:en":"JP","operator:short:ja":"郵便局","operator:wikidata":"Q11509260","phone":"+81-466-48-0020","source":"KSJ2;survey","source_ref":"http://nlftp.mlit.go.jp/ksj/jpgis/datalist/KsjTmplt-P02-v2_0.html","website":"https://map.japanpost.jp/p/search/dtl/300102168000/"},"type":"node","ver":3},{"id":10739759808,"lat":35.4049814,"lon":139.409591,"tags":{"amenity":"post_box","colour":"red","operator":"日本郵便","operator:en":"Japan Post","operator:ja":"日本郵便","operator:wikidata":"Q11509260","post_box:type":"lamp","short_name":"郵便局","short_name:en":"JP","short_name:ja":"郵便局","source":"survey"},"type":"node","ver":1},{"id":12662085189,"lat":35.4040741,"lon":139.4142992,"tags":{"amenity":"post_box","colour":"#f2d58a","description":"東京オリンピックゴールドメダリスト記念ゴールドポスト","operator":"日本郵便","operator:en":"Japan Post","operator:ja":"日本郵便","operator:short":"郵便局","operator:short:en":"JP","operator:short:ja":"郵便局","operator:wikidata":"Q11509260","post_box:type":"lamp","source":"survey","support":"pole"},"type":"node","ver":1},{"id":3008363293,"lat":35.402957,"lon":139.4212734,"tags":{"amenity":"post_box","colour":"red","operator":"日本郵便","operator:en":"Japan Post","operator:ja":"日本郵便","operator:short":"郵便局","operator:short:en":"JP","operator:short:ja":"郵便局","operator:wikidata":"Q11509260","post_box:type":"lamp","source":"survey","support":"pole"},"type":"node","ver":2},{"id":4538982801,"lat":35.4015288,"lon":139.4159777,"tags":{"amenity":"post_box","collection_times":"Mo-Fr 10:14,14:19; Sa 10:14,14:15; PH,Su 10:14,14:15","colour":"red","operator":"日本郵便","operator:en":"Japan Post","operator:ja":"日本郵便","operator:short":"郵便局","operator:short:en":"JP","operator:short:ja":"郵便局","operator:wikidata":"Q11509260","post_box:type":"lamp","source":"survey","support":"pole"},"type":"node","ver":3},{"id":1420832907,"lat":35.3893854,"lon":139.4397873,"tags":{"amenity":"post_office","name":"藤沢遠藤郵便局","name:ja":"藤沢遠藤郵便局","name:ja_rm":"Fujisawa Endō Yūbinkyoku","note":"National-Land Numerical Information (Public Facility) 2006, MLIT Japan","note:ja":"国土数値情報（公共施設データ）平成19年　国土交通省","source":"KSJ2","source_ref":"http://nlftp.mlit.go.jp/ksj/jpgis/datalist/KsjTmplt-P02-v2_0.html"},"type":"node","ver":3},{"id":12963907101,"lat":35.3888648,"lon":139.4575654,"tags":{"amenity":"post_box"},"type":"node","ver":2},{"id":3294178858,"lat":35.3929966,"lon":139.4466434,"tags":{"amenity":"post_box","colour":"red","operator":"日本郵便","operator:en":"Japan Post","operator:ja":"日本郵便","operator:short":"郵便局","operator:short:en":"JP","operator:short:ja":"郵便局","operator:wikidata":"Q11509260","post_box:type":"lamp","source":"Bing;survey","support":"pole"},"type":"node","ver":2},{"id":3008363297,"lat":35.4035748,"lon":139.4370667,"tags":{"amenity":"post_box","colour":"red","operator":"日本郵便","operator:en":"Japan Post","operator:ja":"日本郵便","operator:short":"郵便局","operator:short:en":"JP","operator:short:ja":"郵便局","operator:wikidata":"Q11509260","post_box:type":"lamp","source":"survey","support":"pole"},"type":"node","ver":2},{"id":3062858714,"lat":35.395818,"lon":139.4580312,"tags":{"amenity":"post_box","colour":"red","operator":"日本郵便","operator:en":"Japan Post","operator:ja":"日本郵便","operator:short":"郵便局","operator:short:en":"JP","operator:short:ja":"郵便局","operator:wikidata":"Q11509260","source":"survey"},"type":"node","ver":2},{"id":12822563947,"lat":35.4034801,"lon":139.4564331,"tags":{"amenity":"post_box","colour":"red","operator":"日本郵便","operator:en":"Japan Post","operator:ja":"日本郵便","operator:short":"郵便局","operator:short:en":"JP","operator:short:ja":"郵便局","operator:wikidata":"Q11509260","post_box:type":"lamp","source":"Bing;survey","support":"pole"},"type":"node","ver":1},{"id":12704466774,"lat":35.4126867,"lon":139.3648859,"tags":{"addr:block_number":"2542","addr:city":"厚木市","addr:neighbourhood":"酒井","addr:postcode":"243-0022","addr:province":"神奈川県","amenity":"post_office","name":"相川郵便局","name:ja-Hira":"あいかわゆうびんきょく"},"type":"node","ver":1},{"id":10896655498,"lat":35.4064388,"lon":139.3798218,"tags":{"amenity":"post_box","colour":"red","operator":"日本郵便","operator:en":"Japan Post","operator:ja":"日本郵便","operator:short":"郵便局","operator:short:en":"JP","operator:short:ja":"郵便局","operator:wikidata":"Q11509260","post_box:type":"lamp","short_name":"郵便局","short_name:en":"JP","short_name:ja":"郵便局","source":"survey","support":"pole"},"type":"node","ver":2},{"id":11026120774,"lat":35.4134399,"lon":139.3750272,"tags":{"amenity":"post_box","colour":"red","operator":"日本郵便","operator:en":"Japan Post","operator:ja":"日本郵便","operator:wikidata":"Q11509260","post_box:type":"lamp","short_name":"郵便局","short_name:en":"JP","short_name:ja":"郵便局","source":"survey","support":"pole"},"type":"node","ver":1},{"id":13580247210,"lat":35.4132282,"lon":139.3818674,"tags":{"amenity":"post_box","colour":"red","operator":"日本郵便","operator:en":"Japan Post","operator:ja":"日本郵便","operator:short":"郵便局","operator:short:en":"JP","operator:short:ja":"郵便局","operator:wikidata":"Q11509260","post_box:type":"lamp","support":"pole"},"type":"node","ver":1},{"id":4569996795,"lat":35.4233899,"lon":139.3602331,"tags":{"amenity":"post_box","colour":"red","operator":"日本郵便","operator:en":"Japan Post","operator:ja":"日本郵便","operator:short":"郵便局","operator:short:en":"JP","operator:short:ja":"郵便局","operator:wikidata":"Q11509260","post_box:type":"lamp","ref":"220","source":"survey"},"type":"node","ver":3},{"id":5255460169,"lat":35.4244134,"lon":139.365514,"tags":{"amenity":"post_box","colour":"red","operator":"日本郵便","operator:en":"Japan Post","operator:ja":"日本郵便","operator:short":"郵便局","operator:short:en":"JP","operator:short:ja":"郵便局","operator:wikidata":"Q11509260","post_box:type":"lamp","source":"survey"},"type":"node","ver":2},{"id":1867205212,"lat":35.4310931,"lon":139.3579058,"tags":{"amenity":"post_box","colour":"red","operator":"日本郵便","operator:en":"Japan Post","operator:ja":"日本郵便","operator:short":"郵便局","operator:short:en":"JP","operator:short:ja":"郵便局","operator:wikidata":"Q11509260","post_box:type":"lamp","source":"survey"},"type":"node","ver":2},{"id":11422322524,"lat":35.4312648,"lon":139.3633445,"tags":{"amenity":"post_box","colour":"red","operator":"日本郵便","operator:en":"Japan Post","operator:ja":"日本郵便","operator:short":"郵便局","operator:short:en":"JP","operator:short:ja":"郵便局","operator:wikidata":"Q11509260","post_box:type":"lamp","source":"survey","support":"pole"},"type":"node","ver":1},{"id":538928323,"lat":35.4286572,"lon":139.3690789,"tags":{"amenity":"post_box","colour":"red","operator":"日本郵便","operator:en":"Japan Post","operator:ja":"日本郵便","operator:short":"郵便局","operator:short:en":"JP","operator:short:ja":"郵便局","operator:wikidata":"Q11509260","post_box:type":"lamp","source":"survey","support":"pole"},"type":"node","ver":2},{"id":12903777532,"lat":35.4157972,"lon":139.3922452,"tags":{"amenity":"post_box","colour":"red","operator":"日本郵便","operator:en":"Japan Post","operator:ja":"日本郵便","operator:short":"郵便局","operator:short:en":"JP","operator:short:ja":"郵便局","operator:wikidata":"Q11509260","post_box:type":"lamp","support":"pole"},"type":"node","ver":1},