{"prefectureCode":45,"data":[{"id":1423859077,"lat":32.049558,"lon":130.744912,"tags":{"KSJ2:ADS":"岡松983-65","KSJ2:AdminArea":"宮崎県えびの市","amenity":"post_office","name":"えびの岡松簡易郵便局","note":"National-Land Numerical Information (Public Facility) 2006, MLIT Japan","note:ja":"国土数値情報（公共施設データ）平成19年　国土交通省","operator":"日本郵便","operator:en":"Japan Post","operator:ja":"日本郵便","operator:short":"郵便局","operator:short:en":"JP","operator:short:ja":"郵便局","operator:wikidata":"Q11509260","source":"KSJ2","source_ref":"http://nlftp.mlit.go.jp/ksj/jpgis/datalist/KsjTmplt-P02-v2_0.html"},"type":"node","ver":2},{"id":1423882684,"lat":32.0462139,"lon":130.7645591,"tags":{"amenity":"post_office","name":"真幸郵便局","note":"National-Land Numerical Information (Public Facility) 2006, MLIT Japan","note:ja":"国土数値情報（公共施設データ）平成19年　国土交通省","operator":"日本郵便","operator:en":"Japan Post","operator:ja":"日本郵便","operator:wikidata":"Q11509260","operator:wikipedia":"ja:日本郵便","short_name:en":"JP","source":"KSJ2","source_ref":"http://nlftp.mlit.go.jp/ksj/jpgis/datalist/KsjTmplt-P02-v2_0.html"},"type":"node","ver":2},{"id":1423866179,"lat":32.0409512,"lon":130.789841,"tags":{"amenity":"post_office","name":"大溝原簡易郵便局","note":"National-Land Numerical Information (Public Facility) 2006, MLIT Japan","note:ja":"国土数値情報（公共施設データ）平成19年　国土交通省","operator":"日本郵便","operator:en":"Japan Post","operator:ja":"日本郵便","operator:wikidata":"Q11509260","short_name:en":"JP","source":"KSJ2","source_ref":"http://nlftp.mlit.go.jp/ksj/jpgis/datalist/KsjTmplt-P02-v2_0.html"},"type":"node","ver":2},{"id":9933580714,"lat":32.0376574,"lon":130.8137073,"tags":{"amenity":"post_office","name":"栗下簡易郵便局","operator":"日本郵便","operator:en":"Japan Post","operator:ja":"日本郵便","operator:wikidata":"Q11509260","short_name:en":"JP"},"type":"node","ver":1},{"id":1423866166,"lat":32.0496063,"lon":130.8326582,"tags":{"amenity":"post_office","name":"大明司簡易郵便局","note":"National-Land Numerical Information (Public Facility) 2006, MLIT Japan","note:ja":"国土数値情報（公共施設データ）平成19年　国土交通省","operator":"日本郵便","operator:en":"Japan Post","operator:ja":"日本郵便","operator:wikidata":"Q11509260","operator:wikipedia":"ja:日本郵便","short_name":"郵便局","short_name:en":"JP","short_name:ja":"郵便局","source":"KSJ2","source_ref":"http://nlftp.mlit.go.jp/ksj/jpgis/datalist/KsjTmplt-P02-v2_0.html"},"type":"node","ver":3},{"id":1423859060,"lat":32.030505,"lon":130.851485,"tags":{"KSJ2:ADS":"上江1132-5","KSJ2:AdminArea":"宮崎県えびの市","amenity":"post_office","name":"えびの上江簡易郵便局","note":"National-Land Numerical Information (Public Facility) 2006, MLIT Japan","note:ja":"国土数値情報（公共施設データ）平成19年　国土交通省","operator":"日本郵便","operator:en":"Japan Post","operator:ja":"日本郵便","operator:short":"郵便局","operator:short:en":"JP","operator:short:ja":"郵便局","operator:wikidata":"Q11509260","source":"KSJ2","source_ref":"http://nlftp.mlit.go.jp/ksj/jpgis/datalist/KsjTmplt-P02-v2_0.html"},"type":"node","ver":2},{"id":1423861717,"lat":31.454823,"lon":131.208338,"tags":{"KSJ2:ADS":"西方14783-11","KSJ2:AdminArea":"宮崎県串間市","amenity":"post_office","name":"串間今町郵便局","note":"National-Land Numerical Information (Public Facility) 2006, MLIT Japan","note:ja":"国土数値情報（公共施設データ）平成19年　国土交通省","operator":"日本郵便","operator:en":"Japan Post","operator:ja":"日本郵便","operator:short":"郵便局","operator:short:en":"JP","operator:short:ja":"郵便局","operator:wikidata":"Q11509260","source":"KSJ2","source_ref":"http://nlftp.mlit.go.jp/ksj/jpgis/datalist/KsjTmplt-P02-v2_0.html"},"type":"node","ver":2},{"id":13026388197,"lat":31.4645537,"lon":131.218088,"tags":{"amenity":"post_box","operator":"日本郵便","operator:en":"Japan Post","operator:ja":"日本郵便","operator:short":"郵便局","operator:short:en":"JP","operator:short:ja":"郵便局","operator:wikidata":"Q11509260"},"type":"node","ver":1},{"id":1423861757,"lat":31.4637126,"lon":131.2276294,"tags":{"amenity":"post_office","name":"串間郵便局","note":"National-Land Numerical Information (Public Facility) 2006, MLIT Japan","note:ja":"国土数値情報（公共施設データ）平成19年　国土交通省","source":"KSJ2","source_ref":"http://nlftp.mlit.go.jp/ksj/jpgis/datalist/KsjTmplt-P02-v2_0.html","wikidata":"Q11367922"},"type":"node","ver":4},{"id":13026388193,"lat":31.4616248,"lon":131.2275197,"tags":{"amenity":"post_box","operator":"日本郵便","operator:en":"Japan Post","operator:ja":"日本郵便","operator:short":"郵便局","operator:short:en":"JP","operator:short:ja":"郵便局","operator:wikidata":"Q11509260"},"type":"node","ver":1},{"id":13026388194,"lat":31.4636071,"lon":131.2276202,"tags":{"amenity":"post_box","operator":"日本郵便","operator:en":"Japan Post","operator:ja":"日本郵便","operator:short":"郵便局","operator:short:en":"JP","operator:short:ja":"郵便局","operator:wikidata":"Q11509260"},"type":"node","ver":1},{"id":13026388195,"lat":31.4643328,"lon":131.2287983,"tags":{"amenity":"post_box","operator":"日本郵便","operator:en":"Japan Post","operator:ja":"日本郵便","operator:short":"郵便局","operator:short:en":"JP","operator:short:ja":"郵便局","operator:wikidata":"Q11509260"},"type":"node","ver":1},{"id":1423870559,"lat":31.43138,"lon":131.26364,"tags":{"KSJ2:ADS":"本城7640","KSJ2:AdminArea":"宮崎県串間市","amenity":"post_office","name":"本城平郵便局","note":"National-Land Numerical Information (Public Facility) 2006, MLIT Japan","note:ja":"国土数値情報（公共施設データ）平成19年　国土交通省","operator":"日本郵便","operator:en":"Japan Post","operator:ja":"日本郵便","operator:short":"郵便局","operator:short:en":"JP","operator:short:ja":"郵便局","operator:wikidata":"Q11509260","source":"KSJ2","source_ref":"http://nlftp.mlit.go.jp/ksj/jpgis/datalist/KsjTmplt-P02-v2_0.html"},"type":"node","ver":2},{"id":1423884268,"lat":31.3967719,"lon":131.3054543,"tags":{"amenity":"post_office","name":"都井郵便局","note":"National-Land Numerical Information (Public Facility) 2006, MLIT Japan","note:ja":"国土数値情報（公共施設データ）平成19年　国土交通省","source":"KSJ2","source_ref":"http://nlftp.mlit.go.jp/ksj/jpgis/datalist/KsjTmplt-P02-v2_0.html"},"type":"node","ver":2},{"id":1423867415,"lat":31.464628,"lon":131.346189,"tags":{"KSJ2:ADS":"市木7375イ-3-1","KSJ2:AdminArea":"宮崎県串間市","amenity":"post_office","name":"市木郵便局","note":"National-Land Numerical Information (Public Facility) 2006, MLIT Japan","note:ja":"国土数値情報（公共施設データ）平成19年　国土交通省","operator":"日本郵便","operator:en":"Japan Post","operator:ja":"日本郵便","operator:short":"郵便局","operator:short:en":"JP","operator:short:ja":"郵便局","operator:wikidata":"Q11509260","source":"KSJ2","source_ref":"http://nlftp.mlit.go.jp/ksj/jpgis/datalist/KsjTmplt-P02-v2_0.html"},"type":"node","ver":2},{"id":1423870791,"lat":31.677378,"lon":131.059065,"tags":{"KSJ2:ADS":"梅北町12082-1","KSJ2:AdminArea":"宮崎県都城市","amenity":"post_office","name":"梅北郵便局","note":"National-Land Numerical Information (Public Facility) 2006, MLIT Japan","note:ja":"国土数値情報（公共施設データ）平成19年　国土交通省","operator":"日本郵便","operator:en":"Japan Post","operator:ja":"日本郵便","operator:short":"郵便局","operator:short:en":"JP","operator:short:ja":"郵便局","operator:wikidata":"Q11509260","source":"KSJ2","source_ref":"http://nlftp.mlit.go.jp/ksj/jpgis/datalist/KsjTmplt-P02-v2_0.html"},"type":"node","ver":2},{"id":12944123737,"lat":31.6828637,"lon":131.0599402,"tags":{"amenity":"post_box","operator":"日本郵便","operator:en":"Japan Post","operator:ja":"日本郵便","operator:short":"郵便局","operator:short:en":"JP","operator:short:ja":"郵便局","operator:wikidata":"Q11509260","source":"survey"},"type":"node","ver":1},{"id":1423861716,"lat":31.480292,"lon":131.241613,"tags":{"KSJ2:ADS":"西方3082-2","KSJ2:AdminArea":"宮崎県串間市","amenity":"post_office","name":"串間上町郵便局","note":"National-Land Numerical Information (Public Facility) 2006, MLIT Japan","note:ja":"国土数値情報（公共施設データ）平成19年　国土交通省","operator":"日本郵便","operator:en":"Japan Post","operator:ja":"日本郵便","operator:short":"郵便局","operator:short:en":"JP","operator:short:ja":"郵便局","operator:wikidata":"Q11509260","source":"KSJ2","source_ref":"http://nlftp.mlit.go.jp/ksj/jpgis/datalist/KsjTmplt-P02-v2_0.html"},"type":"node","ver":2},{"id":1423866169,"lat":31.51015,"lon":131.246945,"tags":{"KSJ2:ADS":"奈留5273-1","KSJ2:AdminArea":"宮崎県串間市","amenity":"post_office","name":"大束郵便局","note":"National-Land Numerical Information (Public Facility) 2006, MLIT Japan","note:ja":"国土数値情報（公共施設データ）平成19年　国土交通省","operator":"日本郵便","operator:en":"Japan Post","operator:ja":"日本郵便","operator:short":"郵便局","operator:short:en":"JP","operator:short:ja":"郵便局","operator:wikidata":"Q11509260","source":"KSJ2","source_ref":"http://nlftp.mlit.go.jp/ksj/jpgis/datalist/KsjTmplt-P02-v2_0.html"},"type":"node","ver":2},{"id":1423866160,"lat":31.556757,"lon":131.24736,"tags":{"KSJ2:ADS":"大字大平3306","KSJ2:AdminArea":"宮崎県串間市","amenity":"post_office","name":"大平簡易郵便局","note":"National-Land Numerical Information (Public Facility) 2006, MLIT Japan","note:ja":"国土数値情報（公共施設データ）平成19年　国土交通省","operator":"日本郵便","operator:en":"Japan Post","operator:ja":"日本郵便","operator:short":"郵便局","operator:short:en":"JP","operator:short:ja":"郵便局","operator:wikidata":"Q11509260","source":"KSJ2","source_ref":"http://nlftp.mlit.go.jp/ksj/jpgis/datalist/KsjTmplt-P02-v2_0.html"},"type":"node","ver":2},{"id":1423871065,"lat":31.637153,"lon":131.253645,"tags":{"KSJ2:ADS":"酒谷3381-2","KSJ2:AdminArea":"宮崎県日南市","amenity":"post_office","name":"深瀬簡易郵便局","note":"National-Land Numerical Information (Public Facility) 2006, MLIT Japan","note:ja":"国土数値情報（公共施設データ）平成19年　国土交通省","operator":"日本郵便","operator:en":"Japan Post","operator:ja":"日本郵便","operator:short":"郵便局","operator:short:en":"JP","operator:short:ja":"郵便局","operator:wikidata":"Q11509260","source":"KSJ2","source_ref":"http://nlftp.mlit.go.jp/ksj/jpgis/datalist/KsjTmplt-P02-v2_0.html"},"type":"node","ver":2},{"id":1423884274,"lat":31.689923,"lon":131.03598,"tags":{"KSJ2:ADS":"今町8411-2","KSJ2:AdminArea":"宮崎県都城市","amenity":"post_office","name":"都城今町郵便局","note":"National-Land Numerical Information (Public Facility) 2006, MLIT Japan","note:ja":"国土数値情報（公共施設データ）平成19年　国土交通省","operator":"日本郵便","operator:en":"Japan Post","operator:ja":"日本郵便","operator:short":"郵便局","operator:short:en":"JP","operator:short:ja":"郵便局","operator:wikidata":"Q11509260","source":"KSJ2","source_ref":"http://nlftp.mlit.go.jp/ksj/jpgis/datalist/KsjTmplt-P02-v2_0.html"},"type":"node","ver":2},{"id":12782573183,"lat":31.7032879,"lon":131.0236191,"tags":{"amenity":"post_box","operator":"日本郵便","operator:en":"Japan Post","operator:ja":"日本郵便","operator:short":"郵便局","operator:short:en":"JP","operator:short:ja":"郵便局","operator:wikidata":"Q11509260","ref":"113860(885116)","source":"survey"},"type":"node","ver":2},{"id":12944112133,"lat":31.704928,"lon":131.0631689,"tags":{"amenity":"post_box","operator":"日本郵便","operator:en":"Japan Post","operator:ja":"日本郵便","operator:short":"郵便局","operator:short:en":"JP","operator:short:ja":"郵便局","operator:wikidata":"Q11509260","source":"survey"},"type":"node","ver":1},{"id":1423861855,"lat":31.71915,"lon":131.034094,"tags":{"KSJ2:ADS":"久保原町4-39","KSJ2:AdminArea":"宮崎県都城市","amenity":"post_office","name":"五十市駅前簡易郵便局","note":"National-Land Numerical Information (Public Facility) 2006, MLIT Japan","note:ja":"国土数値情報（公共施設データ）平成19年　国土交通省","operator":"日本郵便","operator:en":"Japan Post","operator:ja":"日本郵便","operator:short":"郵便局","operator:short:en":"JP","operator:short:ja":"郵便局","operator:wikidata":"Q11509260","source":"KSJ2","source_ref":"http://nlftp.mlit.go.jp/ksj/jpgis/datalist/KsjTmplt-P02-v2_0.html"},"type":"node","ver":2},{"id":1423884345,"lat":31.7265275,"lon":131.0391826,"tags":{"amenity":"post_office","name":"都城榎原簡易郵便局","note":"National-Land Numerical Information (Public Facility) 2006, MLIT Japan","note:ja":"国土数値情報（公共施設データ）平成19年 国土交通省","operator":"日本郵便","operator:en":"Japan Post","operator:ja":"日本郵便","operator:short":"郵便局","operator:short:en":"JP","operator:short:ja":"郵便局","operator:wikidata":"Q11509260","operator:wikipedia":"ja:日本郵便","short_name:en":"JP","source":"KSJ2","source_ref":"http://nlftp.mlit.go.jp/ksj/jpgis/datalist/KsjTmplt-P02-v2_0.html"},"type":"node","ver":4},{"id":1423884343,"lat":31.722614,"lon":131.05841,"tags":{"KSJ2:ADS":"松元町3-24","KSJ2:AdminArea":"宮崎県都城市","amenity":"post_office","name":"都城松元郵便局","note":"National-Land Numerical Information (Public Facility) 2006, MLIT Japan","note:ja":"国土数値情報（公共施設データ）平成19年　国土交通省","operator":"日本郵便","operator:en":"Japan Post","operator:ja":"日本郵便","operator:short":"郵便局","operator:short:en":"JP","operator:short:ja":"郵便局","operator:wikidata":"Q11509260","source":"KSJ2","source_ref":"http://nlftp.mlit.go.jp/ksj/jpgis/datalist/KsjTmplt-P02-v2_0.html"},"type":"node","ver":2},{"id":12762578758,"lat":31.7200355,"lon":131.05703,"tags":{"amenity":"post_box","operator":"日本郵便","operator:en":"Japan Post","operator:ja":"日本郵便","operator:short":"郵便局","operator:short:en":"JP","operator:short:ja":"郵便局","operator:wikidata":"Q11509260","source":"survey"},"type":"node","ver":1},{"id":12704522828,"lat":31.719513,"lon":131.0633587,"tags":{"amenity":"post_box","operator":"日本郵便","operator:en":"Japan Post","operator:ja":"日本郵便","operator:short":"郵便局","operator:short:en":"JP","operator:short:ja":"郵便局","operator:wikidata":"Q11509260","source":"survey"},"type":"node","ver":1},{"id":12704522832,"lat":31.7197559,"lon":131.0617427,"tags":{"amenity":"post_box","operator":"日本郵便","operator:en":"Japan Post","operator:ja":"日本郵便","operator:short":"郵便局","operator:short:en":"JP","operator:short:ja":"郵便局","operator:wikidata":"Q11509260","ref":"113824","source":"survey"},"type":"node","ver":3},{"id":12782842953,"lat":31.7173397,"lon":131.0606993,"tags":{"amenity":"post_box","operator":"日本郵便","operator:en":"Japan Post","operator:ja":"日本郵便","operator:short":"郵便局","operator:short:en":"JP","operator:short:ja":"郵便局","operator:wikidata":"Q11509260","ref":"113827","source":"survey"},"type":"node","ver":2},{"id":12782983870,"lat":31.7205451,"lon":131.0610521,"tags":{"amenity":"post_box","operator":"日本郵便","operator:en":"Japan Post","operator:ja":"日本郵便","operator:short":"郵便局","operator:short:en":"JP","operator:short:ja":"郵便局","operator:wikidata":"Q11509260","ref":"113828","source":"survey"},"type":"node","ver":2},{"id":13004627217,"lat":31.7217717,"lon":131.0637604,"tags":{"amenity":"post_box","operator":"日本郵便","operator:en":"Japan Post","operator:ja":"日本郵便","operator:short":"郵便局","operator:short:en":"JP","operator:short:ja":"郵便局","operator:wikidata":"Q11509260","ref":"113816","source":"survey"},"type":"node","ver":1},{"id":13458315366,"lat":31.718802,"lon":131.0610946,"tags":{"amenity":"post_box","operator":"日本郵便","operator:en":"Japan Post","operator:ja":"日本郵便","operator:short":"郵便局","operator:short:en":"JP","operator:short:ja":"郵便局","operator:wikidata":"Q11509260","source":"survey"},"type":"node","ver":1},{"id":12762579032,"lat":31.7198832,"lon":131.0672969,"tags":{"amenity":"post_box","operator":"日本郵便","operator:en":"Japan Post","operator:ja":"日本郵便","operator:short":"郵便局","operator:short:en":"JP","operator:short:ja":"郵便局","operator:wikidata":"Q11509260","source":"survey"},"type":"node","ver":1},{"id":12762579156,"lat":31.7189163,"lon":131.0692428,"tags":{"amenity":"post_box","operator":"日本郵便","operator:en":"Japan Post","operator:ja":"日本郵便","operator:short":"郵便局","operator:short:en":"JP","operator:short:ja":"郵便局","operator:wikidata":"Q11509260","source":"survey"},"type":"node","ver":1},{"id":12783524387,"lat":31.7235918,"lon":131.0574143,"tags":{"amenity":"post_box","operator":"日本郵便","operator:en":"Japan Post","operator:ja":"日本郵便","operator:short":"郵便局","operator:short:en":"JP","operator:short:ja":"郵便局","operator:wikidata":"Q11509260","source":"survey"},"type":"node","ver":1},{"id":13098353252,"lat":31.725507,"lon":131.0531858,"tags":{"amenity":"post_box","operator":"日本郵便","operator:en":"Japan Post","operator:ja":"日本郵便","operator:short":"郵便局","operator:short:en":"JP","operator:short:ja":"郵便局","operator:wikidata":"Q11509260","source":"survey"},"type":"node","ver":1},{"id":13280036100,"lat":31.7344749,"lon":131.0500863,"tags":{"amenity":"post_box","operator":"日本郵便","operator:en":"Japan Post","operator:ja":"日本郵便","operator:short":"郵便局","operator:short:en":"JP","operator:short:ja":"郵便局","operator:wikidata":"Q11509260","ref":"113845(885101)","source":"survey"},"type":"node","ver":1},{"id":1423884417,"lat":31.726178,"lon":131.06484,"tags":{"addr:city":"都城市","addr:province":"宮崎県","addr:quarter":"中町","amenity":"post_office","name":"都城郵便局","note":"National-Land Numerical Information (Public Facility) 2006, MLIT Japan","note:ja":"国土数値情報（公共施設データ）平成19年 国土交通省","operator":"日本郵便","operator:en":"Japan Post","operator:ja":"日本郵便","operator:short":"郵便局","operator:short:en":"JP","operator:short:ja":"郵便局","operator:wikidata":"Q11509260","operator:wikipedia":"ja:日本郵便","short_name":"郵便局","short_name:en":"JP","short_name:ja":"郵便局","source":"KSJ2","source_ref":"http://nlftp.mlit.go.jp/ksj/jpgis/datalist/KsjTmplt-P02-v2_0.html","wikidata":"Q11643557","wikipedia":"ja:都城郵便局"},"type":"node","ver":6},{"id":12969606427,"lat":31.7261732,"lon":131.0646267,"tags":{"amenity":"post_box","operator":"日本郵便","operator:en":"Japan Post","operator:ja":"日本郵便","operator:short":"郵便局","operator:short:en":"JP","operator:short:ja":"郵便局","operator:wikidata":"Q11509260","source":"survey"},"type":"node","ver":1},{"id":12969606431,"lat":31.7231936,"lon":131.0624561,"tags":{"amenity":"post_box","operator":"日本郵便","operator:en":"Japan Post","operator:ja":"日本郵便","operator:short":"郵便局","operator:short:en":"JP","operator:short:ja":"郵便局","operator:wikidata":"Q11509260","source":"survey"},"type":"node","ver":1},{"id":12704519135,"lat":31.7286508,"lon":131.0688767,"tags":{"amenity":"post_box","operator":"日本郵便","operator:en":"Japan Post","operator:ja":"日本郵便","operator:short":"郵便局","operator:short:en":"JP","operator:short:ja":"郵便局","operator:wikidata":"Q11509260","source":"survey"},"type":"node","ver":1},{"id":12728651912,"lat":31.7236465,"lon":131.0664097,"tags":{"amenity":"post_box","operator":"日本郵便","operator:en":"Japan Post","operator:ja":"日本郵便","operator:short":"郵便局","operator:short:en":"JP","operator:short:ja":"郵便局","operator:wikidata":"Q11509260"},"type":"node","ver":1},{"id":12728651953,"lat":31.734443,"lon":131.0607523,"tags":{"amenity":"post_box","operator":"日本郵便","operator:en":"Japan Post","operator:ja":"日本郵便","operator:short":"郵便局","operator:short:en":"JP","operator:short:ja":"郵便局","operator:wikidata":"Q11509260"},"type":"node","ver":1},{"id":12704519134,"lat":31.7335328,"lon":131.0718499,"tags":{"amenity":"post_box","operator":"日本郵便","operator:en":"Japan Post","operator:ja":"日本郵便","operator:short":"郵便局","operator:short:en":"JP","operator:short:ja":"郵便局","operator:wikidata":"Q11509260","source":"survey"},"type":"node","ver":1},{"id":13009291641,"lat":31.7336719,"lon":131.0684703,"tags":{"amenity":"post_box","operator":"日本郵便","operator:en":"Japan Post","operator:ja":"日本郵便","operator:short":"郵便局","operator:short:en":"JP","operator:short:ja":"郵便局","operator:wikidata":"Q11509260","source":"survey"},"type":"node","ver":1},{"id":13009291642,"lat":31.7309333,"lon":131.0680646,"tags":{"amenity":"post_box","operator":"日本郵便","operator:en":"Japan Post","operator:ja":"日本郵便","operator:short":"郵便局","operator:short:en":"JP","operator:short:ja":"郵便局","operator:wikidata":"Q11509260","source":"survey"},"type":"node","ver":1},{"id":13310792099,"lat":31.7436683,"lon":131.0568101,"tags":{"amenity":"post_box","operator":"日本郵便","operator:en":"Japan Post","operator:ja":"日本郵便","operator:short":"郵便局","operator:short:en":"JP","operator:short:ja":"郵便局","operator:wikidata":"Q11509260","ref":"113939","source":"survey"},"type":"node","ver":1},{"id":1423861775,"lat":31.767346,"lon":131.058839,"tags":{"KSJ2:ADS":"乙房町1707","KSJ2:AdminArea":"宮崎県都城市","amenity":"post_office","name":"乙房簡易郵便局","note":"National-Land Numerical Information (Public Facility) 2006, MLIT Japan","note:ja":"国土数値情報（公共施設データ）平成19年　国土交通省","operator":"日本郵便","operator:en":"Japan Post","operator:ja":"日本郵便","operator:short":"郵便局","operator:short:en":"JP","operator:short:ja":"郵便局","operator:wikidata":"Q11509260","source":"KSJ2","source_ref":"http://nlftp.mlit.go.jp/ksj/jpgis/datalist/KsjTmplt-P02-v2_0.html"},"type":"node","ver":2},{"id":13270522278,"lat":31.7875758,"lon":131.0536961,"tags":{"amenity":"post_box","operator":"日本郵便","operator:en":"Japan Post","operator:ja":"日本郵便","operator:short":"郵便局","operator:short:en":"JP","operator:short:ja":"郵便局","operator:wikidata":"Q11509260","source":"survey"},"type":"node","ver":1},{"id":1423883734,"lat":31.810751,"lon":130.949651,"tags":{"KSJ2:ADS":"高野町3058-1","KSJ2:AdminArea":"宮崎県都城市","amenity":"post_office","name":"西岳郵便局","note":"National-Land Numerical Information (Public Facility) 2006, MLIT Japan","note:ja":"国土数値情報（公共施設データ）平成19年　国土交通省","operator":"日本郵便","operator:en":"Japan Post","operator:ja":"日本郵便","operator:short":"郵便局","operator:short:en":"JP","operator:short:ja":"郵便局","operator:wikidata":"Q11509260","source":"KSJ2","source_ref":"http://nlftp.mlit.go.jp/ksj/jpgis/datalist/KsjTmplt-P02-v2_0.html"},"type":"node","ver":2},{"id":13988080212,"lat":31.8361958,"lon":130.9727946,"tags":{"amenity":"post_box","operator":"日本郵便","operator:en":"Japan Post","operator:ja":"日本郵便","operator:short":"郵便局","operator:short:en":"JP","operator:short:ja":"郵便局","operator:wikidata":"Q11509260","source":"survey"},"type":"node","ver":1},{"id":1423870452,"lat":31.81728,"lon":131.007897,"tags":{"KSJ2:ADS":"山田町山田955-3","KSJ2:AdminArea":"宮崎県都城市","amenity":"post_office","name":"是位川内簡易郵便局","note":"National-Land Numerical Information (Public Facility) 2006, MLIT Japan","note:ja":"国土数値情報（公共施設データ）平成19年　国土交通省","operator":"日本郵便","operator:en":"Japan Post","operator:ja":"日本郵便","operator:short":"郵便局","operator:short:en":"JP","operator:short:ja":"郵便局","operator:wikidata":"Q11509260","source":"KSJ2","source_ref":"http://nlftp.mlit.go.jp/ksj/jpgis/datalist/KsjTmplt-P02-v2_0.html"},"type":"node","ver":2},{"id":13280005258,"lat":31.8764224,"lon":131.0625933,"tags":{"amenity":"post_box","operator":"日本郵便","operator:en":"Japan Post","operator:ja":"日本郵便","operator:short":"郵便局","operator:short:en":"JP","operator:short:ja":"郵便局","operator:wikidata":"Q11509260","ref":"115422","source":"survey"},"type":"node","ver":1},{"id":1423861712,"lat":31.6881371,"lon":131.0825076,"tags":{"amenity":"post_office","name":"中郷郵便局","note":"National-Land Numerical Information (Public Facility) 2006, MLIT Japan","note:ja":"国土数値情報（公共施設データ）平成19年　国土交通省","source":"KSJ2","source_ref":"http://nlftp.mlit.go.jp/ksj/jpgis/datalist/KsjTmplt-P02-v2_0.html"},"type":"node","ver":2},{"id":1423866970,"lat":31.708487,"lon":131.121504,"tags":{"KSJ2:ADS":"宮村1569-1","KSJ2:AdminArea":"宮崎県北諸県郡三股町","amenity":"post_office","name":"宮村郵便局","note":"National-Land Numerical Information (Public Facility) 2006, MLIT Japan","note:ja":"国土数値情報（公共施設データ）平成19年　国土交通省","operator":"日本郵便","operator:en":"Japan Post","operator:ja":"日本郵便","operator:short":"郵便局","operator:short:en":"JP","operator:short:ja":"郵便局","operator:wikidata":"Q11509260","source":"KSJ2","source_ref":"http://nlftp.mlit.go.jp/ksj/jpgis/datalist/KsjTmplt-P02-v2_0.html"},"type":"node","ver":2},{"id":5223830922,"lat":31.7198071,"lon":131.0739059,"tags":{"amenity":"post_box","operator":"日本郵便","operator:en":"Japan Post","operator:ja":"日本郵便","operator:short":"郵便局","operator:short:en":"JP","operator:short:ja":"郵便局","operator:wikidata":"Q11509260"},"type":"node","ver":2},{"id":1423884358,"lat":31.719157,"lon":131.080754,"tags":{"KSJ2:ADS":"若葉町72-2","KSJ2:AdminArea":"宮崎県都城市","amenity":"post_office","name":"都城若葉簡易郵便局","note":"National-Land Numerical Information (Public Facility) 2006, MLIT Japan","note:ja":"国土数値情報（公共施設データ）平成19年　国土交通省","operator":"日本郵便","operator:en":"Japan Post","operator:ja":"日本郵便","operator:short":"郵便局","operator:short:en":"JP","operator:short:ja":"郵便局","operator:wikidata":"Q11509260","source":"KSJ2","source_ref":"http://nlftp.mlit.go.jp/ksj/jpgis/datalist/KsjTmplt-P02-v2_0.html"},"type":"node","ver":2},{"id":1423884273,"lat":31.722096,"lon":131.089866,"tags":{"KSJ2:ADS":"一万城町9-3","KSJ2:AdminArea":"宮崎県都城市","amenity":"post_office","name":"都城一万城郵便局","note":"National-Land Numerical Information (Public Facility) 2006, MLIT Japan","note:ja":"国土数値情報（公共施設データ）平成19年　国土交通省","operator":"日本郵便","operator:en":"Japan Post","operator:ja":"日本郵便","operator:short":"郵便局","operator:short:en":"JP","operator:short:ja":"郵便局","operator:wikidata":"Q11509260","source":"KSJ2","source_ref":"http://nlftp.mlit.go.jp/ksj/jpgis/datalist/KsjTmplt-P02-v2_0.html"},"type":"node","ver":2},{"id":1423884341,"lat":31.723549,"lon":131.07379,"tags":{"KSJ2:ADS":"上東町2街区15","KSJ2:AdminArea":"宮崎県都城市","amenity":"post_office","name":"都城東町郵便局","note":"National-Land Numerical Information (Public Facility) 2006, MLIT Japan","note:ja":"国土数値情報（公共施設データ）平成19年　国土交通省","operator":"日本郵便","operator:en":"Japan Post","operator:ja":"日本郵便","operator:short":"郵便局","operator:short:en":"JP","operator:short:ja":"郵便局","operator:wikidata":"Q11509260","source":"KSJ2","source_ref":"http://nlftp.mlit.go.jp/ksj/jpgis/datalist/KsjTmplt-P02-v2_0.html","toilets:wheelchair":"no","wheelchair":"yes"},"type":"node","ver":4},{"id":1423883697,"lat":31.728388,"lon":131.083016,"tags":{"KSJ2:ADS":"菖蒲原町14街区8","KSJ2:AdminArea":"宮崎県都城市","amenity":"post_office","name":"菖蒲原簡易郵便局","note":"National-Land Numerical Information (Public Facility) 2006, MLIT Japan","note:ja":"国土数値情報（公共施設データ）平成19年　国土交通省","operator":"日本郵便","operator:en":"Japan Post","operator:ja":"日本郵便","operator:short":"郵便局","operator:short:en":"JP","operator:short:ja":"郵便局","operator:wikidata":"Q11509260","source":"KSJ2","source_ref":"http://nlftp.mlit.go.jp/ksj/jpgis/datalist/KsjTmplt-P02-v2_0.html"},"type":"node","ver":2},{"id":5222746822,"lat":31.734443,"lon":131.0731507,"tags":{"amenity":"post_box"},"type":"node","ver":2},{"id":12704519127,"lat":31.7302249,"lon":131.0740507,"tags":{"amenity":"post_box","operator":"日本郵便","operator:en":"Japan Post","operator:ja":"日本郵便","operator:short":"郵便局","operator:short:en":"JP","operator:short:ja":"郵便局","operator:wikidata":"Q11509260","source":"survey"},"type":"node","ver":1},{"id":9160392247,"lat":31.7350497,"lon":131.0794651,"tags":{"amenity":"post_office","name":"イオンモール都城駅前内郵便局","operator":"日本郵便","operator:en":"Japan Post","operator:ja":"日本郵便","operator:short":"郵便局","operator:short:en":"JP","operator:short:ja":"郵便局","operator:wikidata":"Q11509260","operator:wikipedia":"ja:日本郵便","short_name:en":"JP"},"type":"node","ver":2},{"id":13537181801,"lat":31.7284979,"lon":131.0903189,"tags":{"amenity":"post_box","operator":"日本郵便","operator:en":"Japan Post","operator:ja":"日本郵便","operator:short":"郵便局","operator:short:en":"JP","operator:short:ja":"郵便局","operator:wikidata":"Q11509260","source":"survey"},"type":"node","ver":1},{"id":5017059767,"lat":31.7348585,"lon":131.0948401,"tags":{"amenity":"post_box","name":"早水簡易郵便局ポスト"},"type":"node","ver":1},{"id":1423870808,"lat":31.726983,"lon":131.10731,"tags":{"KSJ2:ADS":"樺山字古堀1987","KSJ2:AdminArea":"宮崎県北諸県郡三股町","amenity":"post_office","name":"植木簡易郵便局","note":"National-Land Numerical Information (Public Facility) 2006, MLIT Japan","note:ja":"国土数値情報（公共施設データ）平成19年　国土交通省","operator":"日本郵便","operator:en":"Japan Post","operator:ja":"日本郵便","operator:short":"郵便局","operator:short:en":"JP","operator:short:ja":"郵便局","operator:wikidata":"Q11509260","source":"KSJ2","source_ref":"http://nlftp.mlit.go.jp/ksj/jpgis/datalist/KsjTmplt-P02-v2_0.html"},"type":"node","ver":2},{"id":5222667122,"lat":31.7360983,"lon":131.0748942,"tags":{"amenity":"post_box"},"type":"node","ver":1},{"id":1423884280,"lat":31.7439023,"lon":131.0757418,"tags":{"amenity":"post_office","name":"都城川東郵便局","note":"National-Land Numerical Information (Public Facility) 2006, MLIT Japan","note:ja":"国土数値情報（公共施設データ）平成19年　国土交通省","operator":"日本郵便","operator:en":"Japan Post","operator:ja":"日本郵便","operator:short":"郵便局","operator:short:en":"JP","operator:short:ja":"郵便局","operator:wikidata":"Q11509260","operator:wikipedia":"ja:日本郵便","short_name:en":"JP","source":"KSJ2","source_ref":"http://nlftp.mlit.go.jp/ksj/jpgis/datalist/KsjTmplt-P02-v2_0.html"},"type":"node","ver":3},{"id":13009291644,"lat":31.7439357,"lon":131.0756654,"tags":{"amenity":"post_box","operator":"日本郵便","operator:en":"Japan Post","operator:ja":"日本郵便","operator:short":"郵便局","operator:short:en":"JP","operator:short:ja":"郵便局","operator:wikidata":"Q11509260","source":"survey"},"type":"node","ver":1},{"id":1423884415,"lat":31.742139,"lon":131.088843,"tags":{"addr:city":"都城市","addr:neighbourhood":"1-3-24","addr:postcode":"885-0018","addr:province":"宮崎県","addr:quarter":"郡元町","amenity":"post_office","name":"都城郡元郵便局","note":"National-Land Numerical Information (Public Facility) 2006, MLIT Japan","note:ja":"国土数値情報（公共施設データ）平成19年　国土交通省","source":"KSJ2","source_ref":"http://nlftp.mlit.go.jp/ksj/jpgis/datalist/KsjTmplt-P02-v2_0.html"},"type":"node","ver":2},{"id":1423884419,"lat":31.7620322,"lon":131.088844,"tags":{"addr:city":"都城市","addr:province":"宮崎県","addr:quarter":"都北町","amenity":"post_office","name":"都城都北簡易郵便局","note":"National-Land Numerical Information (Public Facility) 2006, MLIT Japan","note:ja":"国土数値情報（公共施設データ）平成19年 国土交通省","operator":"日本郵便","operator:en":"Japan Post","operator:ja":"日本郵便","operator:short":"郵便局","operator:short:en":"JP","operator:short:ja":"郵便局","operator:wikidata":"Q11509260","operator:wikipedia":"ja:日本郵便","short_name":"郵便局","short_name:en":"JP","short_name:ja":"郵便局","source":"KSJ2","source_ref":"http://nlftp.mlit.go.jp/ksj/jpgis/datalist/KsjTmplt-P02-v2_0.html"},"type":"node","ver":5},{"id":1423883711,"lat":31.75665,"lon":131.118502,"tags":{"KSJ2:ADS":"蓼池2300-2","KSJ2:AdminArea":"宮崎県北諸県郡三股町","amenity":"post_office","name":"蓼池郵便局","note":"National-Land Numerical Information (Public Facility) 2006, MLIT Japan","note:ja":"国土数値情報（公共施設データ）平成19年　国土交通省","operator":"日本郵便","operator:en":"Japan Post","operator:ja":"日本郵便","operator:short":"郵便局","operator:short:en":"JP","operator:short:ja":"郵便局","operator:wikidata":"Q11509260","source":"KSJ2","source_ref":"http://nlftp.mlit.go.jp/ksj/jpgis/datalist/KsjTmplt-P02-v2_0.html"},"type":"node","ver":2},{"id":1423884428,"lat":31.77098,"lon":131.080199,"tags":{"KSJ2:ADS":"金田町2245-1","KSJ2:AdminArea":"宮崎県都城市","amenity":"post_office","name":"都城金田郵便局","note":"National-Land Numerical Information (Public Facility) 2006, MLIT Japan","note:ja":"国土数値情報（公共施設データ）平成19年　国土交通省","operator":"日本郵便","operator:en":"Japan Post","operator:ja":"日本郵便","operator:short":"郵便局","operator:short:en":"JP","operator:short:ja":"郵便局","operator:wikidata":"Q11509260","source":"KSJ2","source_ref":"http://nlftp.mlit.go.jp/ksj/jpgis/datalist/KsjTmplt-P02-v2_0.html"},"type":"node","ver":2},{"id":1423884500,"lat":31.784258,"lon":131.072858,"tags":{"KSJ2:ADS":"野々美谷町1561-ロ","KSJ2:AdminArea":"宮崎県都城市","amenity":"post_office","name":"野々美谷簡易郵便局","note":"National-Land Numerical Information (Public Facility) 2006, MLIT Japan","note:ja":"国土数値情報（公共施設データ）平成19年　国土交通省","operator":"日本郵便","operator:en":"Japan Post","operator:ja":"日本郵便","operator:short":"郵便局","operator:short:en":"JP","operator:short:ja":"郵便局","operator:wikidata":"Q11509260","source":"KSJ2","source_ref":"http://nlftp.mlit.go.jp/ksj/jpgis/datalist/KsjTmplt-P02-v2_0.html"},"type":"node","ver":2},{"id":1423867216,"lat":31.7761306,"lon":131.0912078,"tags":{"amenity":"post_office","name":"山野原簡易郵便局","note":"National-Land Numerical Information (Public Facility) 2006, MLIT Japan","note:ja":"国土数値情報（公共施設データ）平成19年　国土交通省","operator":"日本郵便","operator:en":"Japan Post","operator:ja":"日本郵便","operator:short":"郵便局","operator:short:en":"JP","operator:short:ja":"郵便局","operator:wikidata":"Q11509260","operator:wikipedia":"ja:日本郵便","short_name:en":"JP","source":"KSJ2","source_ref":"http://nlftp.mlit.go.jp/ksj/jpgis/datalist/KsjTmplt-P02-v2_0.html"},"type":"node","ver":3},{"id":1423884448,"lat":31.7854751,"lon":131.1073359,"tags":{"amenity":"post_office","name":"都城高木郵便局","note":"National-Land Numerical Information (Public Facility) 2006, MLIT Japan","note:ja":"国土数値情報（公共施設データ）平成19年　国土交通省","source":"KSJ2","source_ref":"http://nlftp.mlit.go.jp/ksj/jpgis/datalist/KsjTmplt-P02-v2_0.html"},"type":"node","ver":3},{"id":13227928699,"lat":31.7799512,"lon":131.1532791,"tags":{"amenity":"post_box","operator":"日本郵便","operator:en":"Japan Post","operator:ja":"日本郵便","operator:short":"郵便局","operator:short:en":"JP","operator:short:ja":"郵便局","operator:wikidata":"Q11509260","ref":"115363","source":"survey"},"type":"node","ver":1},{"id":1423867185,"lat":31.782621,"lon":131.153166,"tags":{"KSJ2:ADS":"山之口町花木2035-15","KSJ2:AdminArea":"宮崎県都城市","amenity":"post_office","name":"山之口郵便局","note":"National-Land Numerical Information (Public Facility) 2006, MLIT Japan","note:ja":"国土数値情報（公共施設データ）平成19年　国土交通省","operator":"日本郵便","operator:en":"Japan Post","operator:ja":"日本郵便","operator:short":"郵便局","operator:short:en":"JP","operator:short:ja":"郵便局","operator:wikidata":"Q11509260","source":"KSJ2","source_ref":"http://nlftp.mlit.go.jp/ksj/jpgis/datalist/KsjTmplt-P02-v2_0.html"},"type":"node","ver":2},{"id":1423884748,"lat":31.736578,"lon":131.18735,"tags":{"KSJ2:ADS":"長田6174","KSJ2:AdminArea":"宮崎県北諸県郡三股町","amenity":"post_office","name":"長田簡易郵便局","note":"National-Land Numerical Information (Public Facility) 2006, MLIT Japan","note:ja":"国土数値情報（公共施設データ）平成19年　国土交通省","operator":"日本郵便","operator:en":"Japan Post","operator:ja":"日本郵便","operator:short":"郵便局","operator:short:en":"JP","operator:short:ja":"郵便局","operator:wikidata":"Q11509260","source":"KSJ2","source_ref":"http://nlftp.mlit.go.jp/ksj/jpgis/datalist/KsjTmplt-P02-v2_0.html"},"type":"node","ver":2},{"id":1423869752,"lat":31.8116232,"lon":131.0966504,"tags":{"amenity":"post_office","name":"志和池郵便局","note":"National-Land Numerical Information (Public Facility) 2006, MLIT Japan","note:ja":"国土数値情報（公共施設データ）平成19年　国土交通省","operator":"日本郵便","operator:en":"Japan Post","operator:ja":"日本郵便","operator:short":"郵便局","operator:short:en":"JP","operator:short:ja":"郵便局","operator:wikidata":"Q11509260","operator:wikipedia":"ja:日本郵便","short_name:en":"JP","source":"KSJ2","source_ref":"http://nlftp.mlit.go.jp/ksj/jpgis/datalist/KsjTmplt-P02-v2_0.html"},"type":"node","ver":3},{"id":5222553521,"lat":31.8113463,"lon":131.0966037,"tags":{"amenity":"post_box"},"type":"node","ver":1},{"id":1423861208,"lat":31.817949,"lon":131.108168,"tags":{"KSJ2:ADS":"下水流町3036","KSJ2:AdminArea":"宮崎県都城市","amenity":"post_office","name":"下水流簡易郵便局","note":"National-Land Numerical Information (Public Facility) 2006, MLIT Japan","note:ja":"国土数値情報（公共施設データ）平成19年　国土交通省","operator":"日本郵便","operator:en":"Japan Post","operator:ja":"日本郵便","operator:short":"郵便局","operator:short:en":"JP","operator:short:ja":"郵便局","operator:wikidata":"Q11509260","source":"KSJ2","source_ref":"http://nlftp.mlit.go.jp/ksj/jpgis/datalist/KsjTmplt-P02-v2_0.html"},"type":"node","ver":2},{"id":13537180466,"lat":31.7905459,"lon":131.1266313,"tags":{"amenity":"post_box","operator":"日本郵便","operator:en":"Japan Post","operator:ja":"日本郵便","operator:short":"郵便局","operator:short:en":"JP","operator:short:ja":"郵便局","operator:wikidata":"Q11509260","source":"survey"},"type":"node","ver":1},{"id":1423885382,"lat":31.800397,"lon":131.131325,"tags":{"KSJ2:ADS":"高城町高城2855-3","KSJ2:AdminArea":"宮崎県都城市","amenity":"post_office","name":"高城町郵便局","note":"National-Land Numerical Information (Public Facility) 2006, MLIT Japan","note:ja":"国土数値情報（公共施設データ）平成19年　国土交通省","operator":"日本郵便","operator:en":"Japan Post","operator:ja":"日本郵便","operator:short":"郵便局","operator:short:en":"JP","operator:short:ja":"郵便局","operator:wikidata":"Q11509260","source":"KSJ2","source_ref":"http://nlftp.mlit.go.jp/ksj/jpgis/datalist/KsjTmplt-P02-v2_0.html"},"type":"node","ver":2},{"id":1423867186,"lat":31.80098,"lon":131.164636,"tags":{"KSJ2:ADS":"山之口町山之口3100-1","KSJ2:AdminArea":"宮崎県都城市","amenity":"post_office","name":"山之口麓簡易郵便局","note":"National-Land Numerical Information (Public Facility) 2006, MLIT Japan","note:ja":"国土数値情報（公共施設データ）平成19年　国土交通省","operator":"日本郵便","operator:en":"Japan Post","operator:ja":"日本郵便","operator:short":"郵便局","operator:short:en":"JP","operator:short:ja":"郵便局","operator:wikidata":"Q11509260","source":"KSJ2","source_ref":"http://nlftp.mlit.go.jp/ksj/jpgis/datalist/KsjTmplt-P02-v2_0.html"},"type":"node","ver":2},{"id":1423882852,"lat":31.834753,"lon":131.126527,"tags":{"KSJ2:ADS":"高城町石山1116-3","KSJ2:AdminArea":"宮崎県都城市","amenity":"post_office","name":"石山簡易郵便局","note":"National-Land Numerical Information (Public Facility) 2006, MLIT Japan","note:ja":"国土数値情報（公共施設データ）平成19年　国土交通省","operator":"日本郵便","operator:en":"Japan Post","operator:ja":"日本郵便","operator:short":"郵便局","operator:short:en":"JP","operator:short:ja":"郵便局","operator:wikidata":"Q11509260","source":"KSJ2","source_ref":"http://nlftp.mlit.go.jp/ksj/jpgis/datalist/KsjTmplt-P02-v2_0.html"},"type":"node","ver":2},{"id":1423883536,"lat":31.854417,"lon":131.086418,"tags":{"amenity":"post_office","name":"縄瀬郵便局","note":"National-Land Numerical Information (Public Facility) 2006, MLIT Japan","note:ja":"国土数値情報（公共施設データ）平成19年　国土交通省","operator":"日本郵便","operator:en":"Japan Post","operator:ja":"日本郵便","operator:short":"郵便局","operator:short:en":"JP","operator:short:ja":"郵便局","operator:wikidata":"Q11509260","operator:wikipedia":"ja:日本郵便","short_name:en":"JP","source":"KSJ2","source_ref":"http://nlftp.mlit.go.jp/ksj/jpgis/datalist/KsjTmplt-P02-v2_0.html"},"type":"node","ver":3},{"id":1423885438,"lat":31.889303,"lon":131.091194,"tags":{"addr:block_number":"713","addr:city":"都城市","addr:housenumber":"11","addr:neighbourhood":"高崎町江平","addr:province":"宮崎県","amenity":"post_office","name":"高崎江平郵便局","note":"National-Land Numerical Information (Public Facility) 2006, MLIT Japan","note:ja":"国土数値情報（公共施設データ）平成19年　国土交通省","source":"KSJ2","source_ref":"http://nlftp.mlit.go.jp/ksj/jpgis/datalist/KsjTmplt-P02-v2_0.html"},"type":"node","ver":2},{"id":13275587747,"lat":31.8423102,"lon":131.1288053,"tags":{"amenity":"post_box","operator":"日本郵便","operator:en":"Japan Post","operator:ja":"日本郵便","operator:short":"郵便局","operator:short:en":"JP","operator:short:ja":"郵便局","operator:wikidata":"Q11509260","source":"survey"},"type":"node","ver":1},{"id":1423870470,"lat":31.854863,"lon":131.140192,"tags":{"KSJ2:ADS":"高城町有水98-9","KSJ2:AdminArea":"宮崎県都城市","amenity":"post_office","name":"有水郵便局","note":"National-Land Numerical Information (Public Facility) 2006, MLIT Japan","note:ja":"国土数値情報（公共施設データ）平成19年　国土交通省","operator":"日本郵便","operator:en":"Japan Post","operator:ja":"日本郵便","operator:short":"郵便局","operator:short:en":"JP","operator:short:ja":"郵便局","operator:wikidata":"Q11509260","source":"KSJ2","source_ref":"http://nlftp.mlit.go.jp/ksj/jpgis/datalist/KsjTmplt-P02-v2_0.html"},"type":"node","ver":2},{"id":1423865499,"lat":31.518319,"lon":131.3711,"tags":{"KSJ2:ADS":"大字潟上134-127","KSJ2:AdminArea":"宮崎県南那珂郡南郷町","amenity":"post_office","name":"外浦郵便局","note":"National-Land Numerical Information (Public Facility) 2006, MLIT Japan","note:ja":"国土数値情報（公共施設データ）平成19年　国土交通省","operator":"日本郵便","operator:en":"Japan Post","operator:ja":"日本郵便","operator:short":"郵便局","operator:short:en":"JP","operator:short:ja":"郵便局","operator:wikidata":"Q11509260","source":"KSJ2","source_ref":"http://nlftp.mlit.go.jp/ksj/jpgis/datalist/KsjTmplt-P02-v2_0.html"},"type":"node","ver":2},{"id":1423870758,"lat":31.52512,"lon":131.377001,"tags":{"KSJ2:ADS":"中村乙3715-8","KSJ2:AdminArea":"宮崎県南那珂郡南郷町","amenity":"post_office","name":"栄松簡易郵便局","note":"National-Land Numerical Information (Public Facility) 2006, MLIT Japan","note:ja":"国土数値情報（公共施設データ）平成19年　国土交通省","operator":"日本郵便","operator:en":"Japan Post","operator:ja":"日本郵便","operator:short":"郵便局","operator:short:en":"JP","operator:short:ja":"郵便局","operator:wikidata":"Q11509260","source":"KSJ2","source_ref":"http://nlftp.mlit.go.jp/ksj/jpgis/datalist/KsjTmplt-P02-v2_0.html"},"type":"node","ver":2},{"id":1423870822,"lat":31.535315,"lon":131.306718,"tags":{"KSJ2:ADS":"榎原甲120-2","KSJ2:AdminArea":"宮崎県南那珂郡南郷町","amenity":"post_office","name":"榎原郵便局","note":"National-Land Numerical Information (Public Facility) 2006, MLIT Japan","note:ja":"国土数値情報（公共施設データ）平成19年　国土交通省","operator":"日本郵便","operator:en":"Japan Post","operator:ja":"日本郵便","operator:short":"郵便局","operator:short:en":"JP","operator:short:ja":"郵便局","operator:wikidata":"Q11509260","source":"KSJ2","source_ref":"http://nlftp.mlit.go.jp/ksj/jpgis/datalist/KsjTmplt-P02-v2_0.html"},"type":"node","ver":2},{"id":1423866207,"lat":31.577422,"lon":131.303133,"tags":{"KSJ2:ADS":"大窪2684-2","KSJ2:AdminArea":"宮崎県日南市","amenity":"post_office","name":"大窪簡易郵便局","note":"National-Land Numerical Information (Public Facility) 2006, MLIT Japan","note:ja":"国土数値情報（公共施設データ）平成19年　国土交通省","operator":"日本郵便","operator:en":"Japan Post","operator:ja":"日本郵便","operator:short":"郵便局","operator:short:en":"JP","operator:short:ja":"郵便局","operator:wikidata":"Q11509260","source":"KSJ2","source_ref":"http://nlftp.mlit.go.jp/ksj/jpgis/datalist/KsjTmplt-P02-v2_0.html"},"type":"node","ver":2},{"id":1423863565,"lat":31.532621,"lon":131.371657,"tags":{"KSJ2:ADS":"南町11-3","KSJ2:AdminArea":"宮崎県南那珂郡南郷町","amenity":"post_office","name":"南郷郵便局","note":"National-Land Numerical Information (Public Facility) 2006, MLIT Japan","note:ja":"国土数値情報（公共施設データ）平成19年　国土交通省","operator":"日本郵便","operator:en":"Japan Post","operator:ja":"日本郵便","operator:short":"郵便局","operator:short:en":"JP","operator:short:ja":"郵便局","operator:wikidata":"Q11509260","source":"KSJ2","source_ref":"http://nlftp.mlit.go.jp/ksj/jpgis/datalist/KsjTmplt-P02-v2_0.html"},"type":"node","ver":2},{"id":1423882460,"lat":31.5411569,"lon":131.3817839,"tags":{"KSJ2:ADS":"中村乙2481","KSJ2:AdminArea":"宮崎県南那珂郡南郷町","amenity":"post_office","name":"目井津簡易郵便局","note":"National-Land Numerical Information (Public Facility) 2006, MLIT Japan","note:ja":"国土数値情報（公共施設データ）平成19年　国土交通省","operator":"日本郵便","operator:en":"Japan Post","operator:ja":"日本郵便","operator:short":"郵便局","operator:short:en":"JP","operator:short:ja":"郵便局","operator:wikidata":"Q11509260","source":"KSJ2","source_ref":"http://nlftp.mlit.go.jp/ksj/jpgis/datalist/KsjTmplt-P02-v2_0.html"},"type":"node","ver":3},{"id":1423883699,"lat":31.564979,"lon":131.344241,"tags":{"KSJ2:ADS":"毛吉田1026-1","KSJ2:AdminArea":"宮崎県日南市","amenity":"post_office","name":"萩之嶺郵便局","note":"National-Land Numerical Information (Public Facility) 2006, MLIT Japan","note:ja":"国土数値情報（公共施設データ）平成19年　国土交通省","operator":"日本郵便","operator:en":"Japan Post","operator:ja":"日本郵便","operator:short":"郵便局","operator:short:en":"JP","operator:short:ja":"郵便局","operator:wikidata":"Q11509260","source":"KSJ2","source_ref":"http://nlftp.mlit.go.jp/ksj/jpgis/datalist/KsjTmplt-P02-v2_0.html"},"type":"node","ver":2},{"id":1423866133,"lat":31.55598,"lon":131.380712,"tags":{"KSJ2:ADS":"大堂津3-10-13","KSJ2:AdminArea":"宮崎県日南市","amenity":"post_office","name":"大堂津郵便局","note":"National-Land Numerical Information (Public Facility) 2006, MLIT Japan","note:ja":"国土数値情報（公共施設データ）平成19年　国土交通省","operator":"日本郵便","operator:en":"Japan Post","operator:ja":"日本郵便","operator:short":"郵便局","operator:short:en":"JP","operator:short:ja":"郵便局","operator:wikidata":"Q11509260","source":"KSJ2","source_ref":"http://nlftp.mlit.go.jp/ksj/jpgis/datalist/KsjTmplt-P02-v2_0.html"},"type":"node","ver":2},{"id":1423884489,"lat":31.617556,"lon":131.306854,"tags":{"KSJ2:ADS":"酒谷乙4960-1","KSJ2:AdminArea":"宮崎県日南市","amenity":"post_office","name":"酒谷郵便局","note":"National-Land Numerical Information (Public Facility) 2006, MLIT Japan","note:ja":"国土数値情報（公共施設データ）平成19年　国土交通省","operator":"日本郵便","operator:en":"Japan Post","operator:ja":"日本郵便","operator:short":"郵便局","operator:short:en":"JP","operator:short:ja":"郵便局","operator:wikidata":"Q11509260","source":"KSJ2","source_ref":"http://nlftp.mlit.go.jp/ksj/jpgis/datalist/KsjTmplt-P02-v2_0.html"},"type":"node","ver":2},{"id":5923146720,"lat":31.6002211,"lon":131.3774524,"tags":{"amenity":"post_box"},"type":"node","ver":1},{"id":5923146712,"lat":31.6024403,"lon":131.3802998,"tags":{"amenity":"post_office","name":"吾田郵便局","note":"National-Land Numerical Information (Public Facility) 2006, MLIT Japan","note:ja":"国土数値情報（公共施設データ）平成19年 国土交通省","operator":"日本郵便","operator:en":"Japan Post","operator:ja":"日本郵便","operator:short":"郵便局","operator:short:en":"JP","operator:short:ja":"郵便局","operator:wikidata":"Q11509260","operator:wikipedia":"ja:日本郵便","short_name:en":"JP","source":"KSJ2","source_ref":"http://nlftp.mlit.go.jp/ksj/jpgis/datalist/KsjTmplt-P02-v2_0.html"},"type":"node","ver":2},{"id":5923151742,"lat":31.6028568,"lon":131.3811396,"tags":{"amenity":"post_box"},"type":"node","ver":1},{"id":5919722744,"lat":31.6262651,"lon":131.3523277,"tags":{"amenity":"post_box"},"type":"node","ver":1},{"id":1423885258,"lat":31.625168,"lon":131.356017,"tags":{"addr:block_number":"4","addr:city":"日南市","addr:housenumber":"30","addr:neighbourhood":"飫肥一丁目","addr:province":"宮崎県","amenity":"post_office","name":"飫肥郵便局","note":"National-Land Numerical Information (Public Facility) 2006, MLIT Japan","note:ja":"国土数値情報（公共施設データ）平成19年　国土交通省","operator":"日本郵便","operator:en":"Japan Post","operator:ja":"日本郵便","operator:short":"郵便局","operator:short:en":"JP","operator:short:ja":"郵便局","operator:wikidata":"Q11509260","source":"KSJ2","source_ref":"http://nlftp.mlit.go.jp/ksj/jpgis/datalist/KsjTmplt-P02-v2_0.html","wikidata":"Q11666109","wikipedia":"ja:飫肥郵便局"},"type":"node","ver":4},{"id":5919966907,"lat":31.6293246,"lon":131.3590252,"tags":{"amenity":"post_box"},"type":"node","ver":1},{"id":1423865304,"lat":31.610537,"lon":131.380564,"tags":{"KSJ2:ADS":"星倉坊主田3991-1","KSJ2:AdminArea":"宮崎県日南市","amenity":"post_office","name":"坊主田簡易郵便局","note":"National-Land Numerical Information (Public Facility) 2006, MLIT Japan","note:ja":"国土数値情報（公共施設データ）平成19年　国土交通省","operator":"日本郵便","operator:en":"Japan Post","operator:ja":"日本郵便","operator:short":"郵便局","operator:short:en":"JP","operator:short:ja":"郵便局","operator:wikidata":"Q11509260","source":"KSJ2","source_ref":"http://nlftp.mlit.go.jp/ksj/jpgis/datalist/KsjTmplt-P02-v2_0.html"},"type":"node","ver":2},{"id":1423870043,"lat":31.624728,"lon":131.368114,"tags":{"KSJ2:ADS":"星倉5959のイ","KSJ2:AdminArea":"宮崎県日南市","amenity":"post_office","name":"日南星倉簡易郵便局","note":"National-Land Numerical Information (Public Facility) 2006, MLIT Japan","note:ja":"国土数値情報（公共施設データ）平成19年　国土交通省","operator":"日本郵便","operator:en":"Japan Post","operator:ja":"日本郵便","operator:short":"郵便局","operator:short:en":"JP","operator:short:ja":"郵便局","operator:wikidata":"Q11509260","source":"KSJ2","source_ref":"http://nlftp.mlit.go.jp/ksj/jpgis/datalist/KsjTmplt-P02-v2_0.html"},"type":"node","ver":2},{"id":5919966898,"lat":31.6310446,"lon":131.3628216,"tags":{"amenity":"post_box"},"type":"node","ver":1},{"id":1423863001,"lat":31.6773117,"lon":131.3735866,"tags":{"amenity":"post_office","name":"北郷郵便局","note":"National-Land Numerical Information (Public Facility) 2006, MLIT Japan","note:ja":"国土数値情報（公共施設データ）平成19年 国土交通省","operator":"日本郵便","operator:en":"Japan Post","operator:ja":"日本郵便","operator:short":"郵便局","operator:short:en":"JP","operator:short:ja":"郵便局","operator:wikidata":"Q11509260","operator:wikipedia":"ja:日本郵便","short_name:en":"JP","source":"KSJ2","source_ref":"http://nlftp.mlit.go.jp/ksj/jpgis/datalist/KsjTmplt-P02-v2_0.html"},"type":"node","ver":2},{"id":1423870938,"lat":31.582867,"lon":131.404071,"tags":{"KSJ2:ADS":"油津2-5-18","KSJ2:AdminArea":"宮崎県日南市","amenity":"post_office","name":"油津郵便局","note":"National-Land Numerical Information (Public Facility) 2006, MLIT Japan","note:ja":"国土数値情報（公共施設データ）平成19年　国土交通省","operator":"日本郵便","operator:en":"Japan Post","operator:ja":"日本郵便","operator:short":"郵便局","operator:short:en":"JP","operator:short:ja":"郵便局","operator:wikidata":"Q11509260","source":"KSJ2","source_ref":"http://nlftp.mlit.go.jp/ksj/jpgis/datalist/KsjTmplt-P02-v2_0.html"},"type":"node","ver":2},{"id":1423870044,"lat":31.624836,"lon":131.392181,"tags":{"KSJ2:ADS":"東弁分甲811","KSJ2:AdminArea":"宮崎県日南市","amenity":"post_office","name":"日南東郷郵便局","note":"National-Land Numerical Information (Public Facility) 2006, MLIT Japan","note:ja":"国土数値情報（公共施設データ）平成19年　国土交通省","operator":"日本郵便","operator:en":"Japan Post","operator:ja":"日本郵便","operator:short":"郵便局","operator:short:en":"JP","operator:short:ja":"郵便局","operator:wikidata":"Q11509260","source":"KSJ2","source_ref":"http://nlftp.mlit.go.jp/ksj/jpgis/datalist/KsjTmplt-P02-v2_0.html"},"type":"node","ver":2},{"id":1423885247,"lat":31.609365,"lon":131.41893,"tags":{"KSJ2:ADS":"風田3604-2","KSJ2:AdminArea":"宮崎県日南市","amenity":"post_office","name":"風田簡易郵便局","note":"National-Land Numerical Information (Public Facility) 2006, MLIT Japan","note:ja":"国土数値情報（公共施設データ）平成19年　国土交通省","operator":"日本郵便","operator:en":"Japan Post","operator:ja":"日本郵便","operator:short":"郵便局","operator:short:en":"JP","operator:short:ja":"郵便局","operator:wikidata":"Q11509260","source":"KSJ2","source_ref":"http://nlftp.mlit.go.jp/ksj/jpgis/datalist/KsjTmplt-P02-v2_0.html"},"type":"node","ver":2},{"id":1423885605,"lat":31.645337,"lon":131.455482,"tags":{"KSJ2:ADS":"宮浦4788","KSJ2:AdminArea":"宮崎県日南市","amenity":"post_office","name":"鵜戸郵便局","note":"National-Land Numerical Information (Public Facility) 2006, MLIT Japan","note:ja":"国土数値情報（公共施設データ）平成19年　国土交通省","operator":"日本郵便","operator:en":"Japan Post","operator:ja":"日本郵便","operator:short":"郵便局","operator:short:en":"JP","operator:short:ja":"郵便局","operator:wikidata":"Q11509260","source":"KSJ2","source_ref":"http://nlftp.mlit.go.jp/ksj/jpgis/datalist/KsjTmplt-P02-v2_0.html"},"type":"node","ver":2},{"id":1423862986,"lat":31.694742,"lon":131.354232,"tags":{"KSJ2:ADS":"北河内55-1","KSJ2:AdminArea":"宮崎県南那珂郡北郷町","amenity":"post_office","name":"北河内郵便局","note":"National-Land Numerical Information (Public Facility) 2006, MLIT Japan","note:ja":"国土数値情報（公共施設データ）平成19年　国土交通省","operator":"日本郵便","operator:en":"Japan Post","operator:ja":"日本郵便","operator:short":"郵便局","operator:short:en":"JP","operator:short:ja":"郵便局","operator:wikidata":"Q11509260","source":"KSJ2","source_ref":"http://nlftp.mlit.go.jp/ksj/jpgis/datalist/KsjTmplt-P02-v2_0.html"},"type":"node","ver":2},{"id":1423862663,"lat":31.760158,"lon":131.472252,"tags":{"KSJ2:ADS":"内海959-7","KSJ2:AdminArea":"宮崎県宮崎市","amenity":"post_office","name":"内海郵便局","note":"National-Land Numerical Information (Public Facility) 2006, MLIT Japan","note:ja":"国土数値情報（公共施設データ）平成19年　国土交通省","operator":"日本郵便","operator:en":"Japan Post","operator:ja":"日本郵便","operator:short":"郵便局","operator:short:en":"JP","operator:short:ja":"郵便局","operator:wikidata":"Q11509260","source":"KSJ2","source_ref":"http://nlftp.mlit.go.jp/ksj/jpgis/datalist/KsjTmplt-P02-v2_0.html"},"type":"node","ver":2},{"id":1423882166,"lat":31.838396,"lon":131.303429,"tags":{"KSJ2:ADS":"田野町甲2787-5","KSJ2:AdminArea":"宮崎県宮崎市","amenity":"post_office","name":"田野郵便局","note":"National-Land Numerical Information (Public Facility) 2006, MLIT Japan","note:ja":"国土数値情報（公共施設データ）平成19年　国土交通省","operator":"日本郵便","operator:en":"Japan Post","operator:ja":"日本郵便","operator:short":"郵便局","operator:short:en":"JP","operator:short:ja":"郵便局","operator:wikidata":"Q11509260","source":"KSJ2","source_ref":"http://nlftp.mlit.go.jp/ksj/jpgis/datalist/KsjTmplt-P02-v2_0.html"},"type":"node","ver":2},{"id":1423885166,"lat":31.795737,"lon":131.470028,"tags":{"KSJ2:ADS":"青島3-3-36","KSJ2:AdminArea":"宮崎県宮崎市","amenity":"post_office","name":"青島郵便局","note":"National-Land Numerical Information (Public Facility) 2006, MLIT Japan","note:ja":"国土数値情報（公共施設データ）平成19年　国土交通省","operator":"日本郵便","operator:en":"Japan Post","operator:ja":"日本郵便","operator:short":"郵便局","operator:short:en":"JP","operator:short:ja":"郵便局","operator:wikidata":"Q11509260","source":"KSJ2","source_ref":"http://nlftp.mlit.go.jp/ksj/jpgis/datalist/KsjTmplt-P02-v2_0.html"},"type":"node","ver":2},{"id":1423866725,"lat":31.84073,"lon":131.399173,"tags":{"KSJ2:ADS":"木原5200","KSJ2:AdminArea":"宮崎県宮崎郡清武町","amenity":"post_office","name":"宮崎大学医学部内簡易郵便局","note":"National-Land Numerical Information (Public Facility) 2006, MLIT Japan","note:ja":"国土数値情報（公共施設データ）平成19年　国土交通省","operator":"日本郵便","operator:en":"Japan Post","operator:ja":"日本郵便","operator:short":"郵便局","operator:short:en":"JP","operator:short:ja":"郵便局","operator:wikidata":"Q11509260","source":"KSJ2","source_ref":"http://nlftp.mlit.go.jp/ksj/jpgis/datalist/KsjTmplt-P02-v2_0.html"},"type":"node","ver":2},{"id":1423866855,"lat":31.857943,"lon":131.42409,"tags":{"KSJ2:ADS":"希望ヶ丘3-11-1","KSJ2:AdminArea":"宮崎県宮崎市","amenity":"post_office","name":"宮崎希望ケ丘簡易郵便局","note":"National-Land Numerical Information (Public Facility) 2006, MLIT Japan","note:ja":"国土数値情報（公共施設データ）平成19年　国土交通省","operator":"日本郵便","operator:en":"Japan Post","operator:ja":"日本郵便","operator:short":"郵便局","operator:short:en":"JP","operator:short:ja":"郵便局","operator:wikidata":"Q11509260","source":"KSJ2","source_ref":"http://nlftp.mlit.go.jp/ksj/jpgis/datalist/KsjTmplt-P02-v2_0.html"},"type":"node","ver":2},{"id":1423866861,"lat":31.878007,"lon":131.419337,"tags":{"KSJ2:ADS":"月見ヶ丘4-23-3","KSJ2:AdminArea":"宮崎県宮崎市","amenity":"post_office","name":"宮崎月見ケ丘郵便局","note":"National-Land Numerical Information (Public Facility) 2006, MLIT Japan","note:ja":"国土数値情報（公共施設データ）平成19年　国土交通省","operator":"日本郵便","operator:en":"Japan Post","operator:ja":"日本郵便","operator:short":"郵便局","operator:short:en":"JP","operator:short:ja":"郵便局","operator:wikidata":"Q11509260","source":"KSJ2","source_ref":"http://nlftp.mlit.go.jp/ksj/jpgis/datalist/KsjTmplt-P02-v2_0.html"},"type":"node","ver":2},{"id":2910193501,"lat":31.8725566,"lon":131.4411267,"tags":{"amenity":"post_box","ref":"宮崎-142"},"type":"node","ver":3},{"id":1423883503,"lat":31.975625,"lon":130.963616,"tags":{"KSJ2:ADS":"大字細野4373-2","KSJ2:AdminArea":"宮崎県小林市","amenity":"post_office","name":"細野簡易郵便局","note":"National-Land Numerical Information (Public Facility) 2006, MLIT Japan","note:ja":"国土数値情報（公共施設データ）平成19年　国土交通省","operator":"日本郵便","operator:en":"Japan Post","operator:ja":"日本郵便","operator:short":"郵便局","operator:short:en":"JP","operator:short:ja":"郵便局","operator:wikidata":"Q11509260","source":"KSJ2","source_ref":"http://nlftp.mlit.go.jp/ksj/jpgis/datalist/KsjTmplt-P02-v2_0.html"},"type":"node","ver":2},{"id":1423867052,"lat":31.994206,"lon":130.966838,"tags":{"KSJ2:ADS":"細野1196","KSJ2:AdminArea":"宮崎県小林市","amenity":"post_office","name":"小林南町簡易郵便局","note":"National-Land Numerical Information (Public Facility) 2006, MLIT Japan","note:ja":"国土数値情報（公共施設データ）平成19年　国土交通省","operator":"日本郵便","operator:en":"Japan Post","operator:ja":"日本郵便","operator:short":"郵便局","operator:short:en":"JP","operator:short:ja":"郵便局","operator:wikidata":"Q11509260","source":"KSJ2","source_ref":"http://nlftp.mlit.go.jp/ksj/jpgis/datalist/KsjTmplt-P02-v2_0.html"},"type":"node","ver":2},{"id":1423871385,"lat":31.90795,"lon":130.980687,"tags":{"KSJ2:ADS":"蒲牟田5260","KSJ2:AdminArea":"宮崎県西諸県郡高原町","amenity":"post_office","name":"狭野簡易郵便局","note":"National-Land Numerical Information (Public Facility) 2006, MLIT Japan","note:ja":"国土数値情報（公共施設データ）平成19年　国土交通省","operator":"日本郵便","operator:en":"Japan Post","operator:ja":"日本郵便","operator:short":"郵便局","operator:short:en":"JP","operator:short:ja":"郵便局","operator:wikidata":"Q11509260","source":"KSJ2","source_ref":"http://nlftp.mlit.go.jp/ksj/jpgis/datalist/KsjTmplt-P02-v2_0.html"},"type":"node","ver":2},{"id":1423861315,"lat":31.924185,"lon":130.991421,"tags":{"KSJ2:ADS":"西麓8-1","KSJ2:AdminArea":"宮崎県西諸県郡高原町","amenity":"post_office","name":"並木郵便局","note":"National-Land Numerical Information (Public Facility) 2006, MLIT Japan","note:ja":"国土数値情報（公共施設データ）平成19年　国土交通省","operator":"日本郵便","operator:en":"Japan Post","operator:ja":"日本郵便","operator:short":"郵便局","operator:short:en":"JP","operator:short:ja":"郵便局","operator:wikidata":"Q11509260","source":"KSJ2","source_ref":"http://nlftp.mlit.go.jp/ksj/jpgis/datalist/KsjTmplt-P02-v2_0.html"},"type":"node","ver":2},{"id":1423885369,"lat":31.9298378,"lon":131.00776,"tags":{"amenity":"post_office","name":"高原郵便局","note":"National-Land Numerical Information (Public Facility) 2006, MLIT Japan","note:ja":"国土数値情報（公共施設データ）平成19年　国土交通省","operator":"日本郵便","operator:en":"Japan Post","operator:ja":"日本郵便","operator:wikidata":"Q11509260","operator:wikipedia":"ja:日本郵便","short_name:en":"JP","source":"KSJ2","source_ref":"http://nlftp.mlit.go.jp/ksj/jpgis/datalist/KsjTmplt-P02-v2_0.html"},"type":"node","ver":2},{"id":1423862947,"lat":31.909326,"lon":131.038225,"tags":{"KSJ2:ADS":"高崎町前田687-3","KSJ2:AdminArea":"宮崎県都城市","amenity":"post_office","name":"前田郵便局","note":"National-Land Numerical Information (Public Facility) 2006, MLIT Japan","note:ja":"国土数値情報（公共施設データ）平成19年　国土交通省","operator":"日本郵便","operator:en":"Japan Post","operator:ja":"日本郵便","operator:short":"郵便局","operator:short:en":"JP","operator:short:ja":"郵便局","operator:wikidata":"Q11509260","source":"KSJ2","source_ref":"http://nlftp.mlit.go.jp/ksj/jpgis/datalist/KsjTmplt-P02-v2_0.html"},"type":"node","ver":2},{"id":1423869742,"lat":31.924493,"lon":131.069305,"tags":{"KSJ2:ADS":"後川内2669-1","KSJ2:AdminArea":"宮崎県西諸県郡高原町","amenity":"post_office","name":"後川内簡易郵便局","note":"National-Land Numerical Information (Public Facility) 2006, MLIT Japan","note:ja":"国土数値情報（公共施設データ）平成19年　国土交通省","operator":"日本郵便","operator:en":"Japan Post","operator:ja":"日本郵便","operator:short":"郵便局","operator:short:en":"JP","operator:short:ja":"郵便局","operator:wikidata":"Q11509260","source":"KSJ2","source_ref":"http://nlftp.mlit.go.jp/ksj/jpgis/datalist/KsjTmplt-P02-v2_0.html"},"type":"node","ver":2},{"id":1423869523,"lat":31.959099,"lon":130.98867,"tags":{"KSJ2:ADS":"広原2095-4","KSJ2:AdminArea":"宮崎県西諸県郡高原町","amenity":"post_office","name":"広原簡易郵便局","note":"National-Land Numerical Information (Public Facility) 2006, MLIT Japan","note:ja":"国土数値情報（公共施設データ）平成19年　国土交通省","operator":"日本郵便","operator:en":"Japan Post","operator:ja":"日本郵便","operator:short":"郵便局","operator:short:en":"JP","operator:short:ja":"郵便局","operator:wikidata":"Q11509260","source":"KSJ2","source_ref":"http://nlftp.mlit.go.jp/ksj/jpgis/datalist/KsjTmplt-P02-v2_0.html"},"type":"node","ver":2},{"id":1423860735,"lat":31.970175,"lon":131.000839,"tags":{"KSJ2:ADS":"堤3520-17","KSJ2:AdminArea":"宮崎県小林市","amenity":"post_office","name":"三松簡易郵便局","note":"National-Land Numerical Information (Public Facility) 2006, MLIT Japan","note:ja":"国土数値情報（公共施設データ）平成19年　国土交通省","operator":"日本郵便","operator:en":"Japan Post","operator:ja":"日本郵便","operator:short":"郵便局","operator:short:en":"JP","operator:short:ja":"郵便局","operator:wikidata":"Q11509260","source":"KSJ2","source_ref":"http://nlftp.mlit.go.jp/ksj/jpgis/datalist/KsjTmplt-P02-v2_0.html"},"type":"node","ver":2},{"id":1423867053,"lat":31.982298,"lon":130.975093,"tags":{"KSJ2:ADS":"細野1761-14","KSJ2:AdminArea":"宮崎県小林市","amenity":"post_office","name":"小林城山簡易郵便局","note":"National-Land Numerical Information (Public Facility) 2006, MLIT Japan","note:ja":"国土数値情報（公共施設データ）平成19年　国土交通省","operator":"日本郵便","operator:en":"Japan Post","operator:ja":"日本郵便","operator:short":"郵便局","operator:short:en":"JP","operator:short:ja":"郵便局","operator:wikidata":"Q11509260","source":"KSJ2","source_ref":"http://nlftp.mlit.go.jp/ksj/jpgis/datalist/KsjTmplt-P02-v2_0.html"},"type":"node","ver":2},{"id":1423867125,"lat":31.9924678,"lon":130.9747307,"tags":{"amenity":"post_office","name":"小林郵便局","note":"National-Land Numerical Information (Public Facility) 2006, MLIT Japan","note:ja":"国土数値情報（公共施設データ）平成19年　国土交通省","operator":"日本郵便","operator:en":"Japan Post","operator:ja":"日本郵便","operator:wikidata":"Q11509260","operator:wikipedia":"ja:日本郵便","short_name:en":"JP","source":"KSJ2","source_ref":"http://nlftp.mlit.go.jp/ksj/jpgis/datalist/KsjTmplt-P02-v2_0.html","wikidata":"Q11461914"},"type":"node","ver":3},{"id":1423867049,"lat":31.99179,"lon":130.982031,"tags":{"KSJ2:ADS":"細野2170-6","KSJ2:AdminArea":"宮崎県小林市","amenity":"post_office","name":"小林上町郵便局","note":"National-Land Numerical Information (Public Facility) 2006, MLIT Japan","note:ja":"国土数値情報（公共施設データ）平成19年　国土交通省","operator":"日本郵便","operator:en":"Japan Post","operator:ja":"日本郵便","operator:short":"郵便局","operator:short:en":"JP","operator:short:ja":"郵便局","operator:wikidata":"Q11509260","source":"KSJ2","source_ref":"http://nlftp.mlit.go.jp/ksj/jpgis/datalist/KsjTmplt-P02-v2_0.html"},"type":"node","ver":2},{"id":1423870880,"lat":31.984291,"lon":130.997169,"tags":{"KSJ2:ADS":"水流迫648","KSJ2:AdminArea":"宮崎県小林市","amenity":"post_office","name":"水流迫簡易郵便局","note":"National-Land Numerical Information (Public Facility) 2006, MLIT Japan","note:ja":"国土数値情報（公共施設データ）平成19年　国土交通省","operator":"日本郵便","operator:en":"Japan Post","operator:ja":"日本郵便","operator:short":"郵便局","operator:short:en":"JP","operator:short:ja":"郵便局","operator:wikidata":"Q11509260","source":"KSJ2","source_ref":"http://nlftp.mlit.go.jp/ksj/jpgis/datalist/KsjTmplt-P02-v2_0.html"},"type":"node","ver":2},{"id":1423883729,"lat":31.97732,"lon":131.034583,"tags":{"KSJ2:ADS":"三ヶ野山3153-10","KSJ2:AdminArea":"宮崎県西諸県郡野尻町","amenity":"post_office","name":"西原簡易郵便局","note":"National-Land Numerical Information (Public Facility) 2006, MLIT Japan","note:ja":"国土数値情報（公共施設データ）平成19年　国土交通省","operator":"日本郵便","operator:en":"Japan Post","operator:ja":"日本郵便","operator:short":"郵便局","operator:short:en":"JP","operator:short:ja":"郵便局","operator:wikidata":"Q11509260","source":"KSJ2","source_ref":"http://nlftp.mlit.go.jp/ksj/jpgis/datalist/KsjTmplt-P02-v2_0.html"},"type":"node","ver":2},{"id":1423870766,"lat":31.977654,"lon":131.06272,"tags":{"KSJ2:ADS":"三ヶ野山4135","KSJ2:AdminArea":"宮崎県西諸県郡野尻町","amenity":"post_office","name":"栗須郵便局","note":"National-Land Numerical Information (Public Facility) 2006, MLIT Japan","note:ja":"国土数値情報（公共施設データ）平成19年　国土交通省","operator":"日本郵便","operator:en":"Japan Post","operator:ja":"日本郵便","operator:short":"郵便局","operator:short:en":"JP","operator:short:ja":"郵便局","operator:wikidata":"Q11509260","source":"KSJ2","source_ref":"http://nlftp.mlit.go.jp/ksj/jpgis/datalist/KsjTmplt-P02-v2_0.html"},"type":"node","ver":2},{"id":1423885271,"lat":32.0325016,"lon":130.8693712,"tags":{"amenity":"post_office","name":"飯野駅前郵便局","note":"National-Land Numerical Information (Public Facility) 2006, MLIT Japan","note:ja":"国土数値情報（公共施設データ）平成19年　国土交通省","operator":"日本郵便","operator:en":"Japan Post","operator:ja":"日本郵便","operator:wikidata":"Q11509260","short_name":"郵便局","short_name:en":"JP","short_name:ja":"郵便局","source":"KSJ2","source_ref":"http://nlftp.mlit.go.jp/ksj/jpgis/datalist/KsjTmplt-P02-v2_0.html"},"type":"node","ver":2},{"id":1423859118,"lat":32.0448051,"lon":130.8649863,"tags":{"amenity":"post_office","name":"えびの郵便局","note":"National-Land Numerical Information (Public Facility) 2006, MLIT Japan","note:ja":"国土数値情報（公共施設データ）平成19年　国土交通省","operator":"日本郵便","operator:en":"Japan Post","operator:ja":"日本郵便","operator:wikidata":"Q11509260","operator:wikipedia":"ja:日本郵便","short_name":"郵便局","short_name:en":"JP","short_name:ja":"郵便局","source":"KSJ2","source_ref":"http://nlftp.mlit.go.jp/ksj/jpgis/datalist/KsjTmplt-P02-v2_0.html","wikidata":"Q11261062"},"type":"node","ver":4},{"id":1423859066,"lat":32.0445527,"lon":130.8833561,"tags":{"amenity":"post_office","name":"えびの五日市簡易郵便局","note":"National-Land Numerical Information (Public Facility) 2006, MLIT Japan","note:ja":"国土数値情報（公共施設データ）平成19年　国土交通省","operator":"日本郵便","operator:en":"Japan Post","operator:ja":"日本郵便","operator:wikidata":"Q11509260","operator:wikipedia":"ja:日本郵便","short_name":"郵便局","short_name:en":"JP","short_name:ja":"郵便局","source":"KSJ2","source_ref":"http://nlftp.mlit.go.jp/ksj/jpgis/datalist/KsjTmplt-P02-v2_0.html"},"type":"node","ver":3},{"id":1423866174,"lat":32.039634,"lon":130.9056855,"tags":{"amenity":"post_office","name":"大河平簡易郵便局","note":"National-Land Numerical Information (Public Facility) 2006, MLIT Japan","note:ja":"国土数値情報（公共施設データ）平成19年　国土交通省","operator":"日本郵便","operator:en":"Japan Post","operator:ja":"日本郵便","operator:wikidata":"Q11509260","operator:wikipedia":"ja:日本郵便","short_name":"郵便局","short_name:en":"JP","short_name:ja":"郵便局","source":"KSJ2","source_ref":"http://nlftp.mlit.go.jp/ksj/jpgis/datalist/KsjTmplt-P02-v2_0.html"},"type":"node","ver":3},{"id":1423883732,"lat":32.010292,"lon":130.921688,"tags":{"KSJ2:ADS":"大字北西方1292-2","KSJ2:AdminArea":"宮崎県小林市","amenity":"post_office","name":"西小林郵便局","note":"National-Land Numerical Information (Public Facility) 2006, MLIT Japan","note:ja":"国土数値情報（公共施設データ）平成19年　国土交通省","operator":"日本郵便","operator:en":"Japan Post","operator:ja":"日本郵便","operator:short":"郵便局","operator:short:en":"JP","operator:short:ja":"郵便局","operator:wikidata":"Q11509260","source":"KSJ2","source_ref":"http://nlftp.mlit.go.jp/ksj/jpgis/datalist/KsjTmplt-P02-v2_0.html"},"type":"node","ver":2},{"id":1423867068,"lat":31.999927,"lon":130.963421,"tags":{"KSJ2:ADS":"細野645","KSJ2:AdminArea":"宮崎県小林市","amenity":"post_office","name":"小林西町簡易郵便局","note":"National-Land Numerical Information (Public Facility) 2006, MLIT Japan","note:ja":"国土数値情報（公共施設データ）平成19年　国土交通省","operator":"日本郵便","operator:en":"Japan Post","operator:ja":"日本郵便","operator:short":"郵便局","operator:short:en":"JP","operator:short:ja":"郵便局","operator:wikidata":"Q11509260","source":"KSJ2","source_ref":"http://nlftp.mlit.go.jp/ksj/jpgis/datalist/KsjTmplt-P02-v2_0.html"},"type":"node","ver":2},{"id":1423882704,"lat":32.003812,"lon":130.981921,"tags":{"KSJ2:ADS":"真方1555-1","KSJ2:AdminArea":"宮崎県小林市","amenity":"post_office","name":"真方簡易郵便局","note":"National-Land Numerical Information (Public Facility) 2006, MLIT Japan","note:ja":"国土数値情報（公共施設データ）平成19年　国土交通省","operator":"日本郵便","operator:en":"Japan Post","operator:ja":"日本郵便","operator:short":"郵便局","operator:short:en":"JP","operator:short:ja":"郵便局","operator:wikidata":"Q11509260","source":"KSJ2","source_ref":"http://nlftp.mlit.go.jp/ksj/jpgis/datalist/KsjTmplt-P02-v2_0.html"},"type":"node","ver":2},{"id":1423870908,"lat":32.020865,"lon":130.968571,"tags":{"KSJ2:ADS":"北西方4521","KSJ2:AdminArea":"宮崎県小林市","amenity":"post_office","name":"永久津簡易郵便局","note":"National-Land Numerical Information (Public Facility) 2006, MLIT Japan","note:ja":"国土数値情報（公共施設データ）平成19年　国土交通省","operator":"日本郵便","operator:en":"Japan Post","operator:ja":"日本郵便","operator:short":"郵便局","operator:short:en":"JP","operator:short:ja":"郵便局","operator:wikidata":"Q11509260","source":"KSJ2","source_ref":"http://nlftp.mlit.go.jp/ksj/jpgis/datalist/KsjTmplt-P02-v2_0.html"},"type":"node","ver":2},{"id":1423870695,"lat":32.010399,"lon":131.006251,"tags":{"KSJ2:ADS":"東方85-3","KSJ2:AdminArea":"宮崎県小林市","amenity":"post_office","name":"東方郵便局","note":"National-Land Numerical Information (Public Facility) 2006, MLIT Japan","note:ja":"国土数値情報（公共施設データ）平成19年　国土交通省","operator":"日本郵便","operator:en":"Japan Post","operator:ja":"日本郵便","operator:short":"郵便局","operator:short:en":"JP","operator:short:ja":"郵便局","operator:wikidata":"Q11509260","source":"KSJ2","source_ref":"http://nlftp.mlit.go.jp/ksj/jpgis/datalist/KsjTmplt-P02-v2_0.html"},"type":"node","ver":2},{"id":1423883428,"lat":31.930892,"lon":131.119464,"tags":{"KSJ2:ADS":"高崎町笛水941-4","KSJ2:AdminArea":"宮崎県都城市","amenity":"post_office","name":"笛水簡易郵便局","note":"National-Land Numerical Information (Public Facility) 2006, MLIT Japan","note:ja":"国土数値情報（公共施設データ）平成19年　国土交通省","operator":"日本郵便","operator:en":"Japan Post","operator:ja":"日本郵便","operator:short":"郵便局","operator:short:en":"JP","operator:short:ja":"郵便局","operator:wikidata":"Q11509260","source":"KSJ2","source_ref":"http://nlftp.mlit.go.jp/ksj/jpgis/datalist/KsjTmplt-P02-v2_0.html"},"type":"node","ver":2},{"id":1423884554,"lat":31.96024,"lon":131.096746,"tags":{"KSJ2:ADS":"東麓2384-1","KSJ2:AdminArea":"宮崎県西諸県郡野尻町","amenity":"post_office","name":"野尻郵便局","note":"National-Land Numerical Information (Public Facility) 2006, MLIT Japan","note:ja":"国土数値情報（公共施設データ）平成19年　国土交通省","operator":"日本郵便","operator:en":"Japan Post","operator:ja":"日本郵便","operator:short":"郵便局","operator:short:en":"JP","operator:short:ja":"郵便局","operator:wikidata":"Q11509260","source":"KSJ2","source_ref":"http://nlftp.mlit.go.jp/ksj/jpgis/datalist/KsjTmplt-P02-v2_0.html"},"type":"node","ver":2},{"id":1423883463,"lat":31.962131,"lon":131.175156,"tags":{"KSJ2:ADS":"紙屋1951","KSJ2:AdminArea":"宮崎県西諸県郡野尻町","amenity":"post_office","name":"紙屋郵便局","note":"National-Land Numerical Information (Public Facility) 2006, MLIT Japan","note:ja":"国土数値情報（公共施設データ）平成19年　国土交通省","operator":"日本郵便","operator:en":"Japan Post","operator:ja":"日本郵便","operator:short":"郵便局","operator:short:en":"JP","operator:short:ja":"郵便局","operator:wikidata":"Q11509260","source":"KSJ2","source_ref":"http://nlftp.mlit.go.jp/ksj/jpgis/datalist/KsjTmplt-P02-v2_0.html"},"type":"node","ver":2},{"id":1423864509,"lat":31.910135,"lon":131.180658,"tags":{"KSJ2:ADS":"高城町四家1767","KSJ2:AdminArea":"宮崎県都城市","amenity":"post_office","name":"四家簡易郵便局","note":"National-Land Numerical Information (Public Facility) 2006, MLIT Japan","note:ja":"国土数値情報（公共施設データ）平成19年　国土交通省","operator":"日本郵便","operator:en":"Japan Post","operator:ja":"日本郵便","operator:short":"郵便局","operator:short:en":"JP","operator:short:ja":"郵便局","operator:wikidata":"Q11509260","source":"KSJ2","source_ref":"http://nlftp.mlit.go.jp/ksj/jpgis/datalist/KsjTmplt-P02-v2_0.html"},"type":"node","ver":2},{"id":1423867181,"lat":31.920024,"lon":131.234876,"tags":{"KSJ2:ADS":"高岡町内山3308","KSJ2:AdminArea":"宮崎県宮崎市","amenity":"post_office","name":"山下郵便局","note":"National-Land Numerical Information (Public Facility) 2006, MLIT Japan","note:ja":"国土数値情報（公共施設データ）平成19年　国土交通省","operator":"日本郵便","operator:en":"Japan Post","operator:ja":"日本郵便","operator:short":"郵便局","operator:short:en":"JP","operator:short:ja":"郵便局","operator:wikidata":"Q11509260","source":"KSJ2","source_ref":"http://nlftp.mlit.go.jp/ksj/jpgis/datalist/KsjTmplt-P02-v2_0.html"},"type":"node","ver":2},{"id":1423871046,"lat":31.954688,"lon":131.23868,"tags":{"KSJ2:ADS":"高岡町浦之名1707-9","KSJ2:AdminArea":"宮崎県宮崎市","amenity":"post_office","name":"浦之名簡易郵便局","note":"National-Land Numerical Information (Public Facility) 2006, MLIT Japan","note:ja":"国土数値情報（公共施設データ）平成19年　国土交通省","operator":"日本郵便","operator:en":"Japan Post","operator:ja":"日本郵便","operator:short":"郵便局","operator:short:en":"JP","operator:short:ja":"郵便局","operator:wikidata":"Q11509260","source":"KSJ2","source_ref":"http://nlftp.mlit.go.jp/ksj/jpgis/datalist/KsjTmplt-P02-v2_0.html"},"type":"node","ver":2},{"id":1423862654,"lat":31.9638855,"lon":131.2739825,"tags":{"KSJ2:ADS":"高岡町内山254-5","KSJ2:AdminArea":"宮崎県宮崎市","amenity":"post_office","name":"内山簡易郵便局","note":"National-Land Numerical Information (Public Facility) 2006, MLIT Japan","note:ja":"国土数値情報（公共施設データ）平成19年　国土交通省","operator":"日本郵便","operator:en":"Japan Post","operator:ja":"日本郵便","operator:short":"郵便局","operator:short:en":"JP","operator:short:ja":"郵便局","operator:wikidata":"Q11509260","source":"KSJ2","source_ref":"http://nlftp.mlit.go.jp/ksj/jpgis/datalist/KsjTmplt-P02-v2_0.html"},"type":"node","ver":3},{"id":1423885242,"lat":32.072284,"lon":131.075022,"tags":{"KSJ2:ADS":"須木下田1241-3","KSJ2:AdminArea":"宮崎県小林市","amenity":"post_office","name":"須木郵便局","note":"National-Land Numerical Information (Public Facility) 2006, MLIT Japan","note:ja":"国土数値情報（公共施設データ）平成19年　国土交通省","operator":"日本郵便","operator:en":"Japan Post","operator:ja":"日本郵便","operator:short":"郵便局","operator:short:en":"JP","operator:short:ja":"郵便局","operator:wikidata":"Q11509260","source":"KSJ2","source_ref":"http://nlftp.mlit.go.jp/ksj/jpgis/datalist/KsjTmplt-P02-v2_0.html"},"type":"node","ver":2},{"id":1423864564,"lat":31.99804,"lon":131.230807,"tags":{"KSJ2:ADS":"南俣2093-2","KSJ2:AdminArea":"宮崎県東諸県郡綾町","amenity":"post_office","name":"四枝簡易郵便局","note":"National-Land Numerical Information (Public Facility) 2006, MLIT Japan","note:ja":"国土数値情報（公共施設データ）平成19年　国土交通省","operator":"日本郵便","operator:en":"Japan Post","operator:ja":"日本郵便","operator:short":"郵便局","operator:short:en":"JP","operator:short:ja":"郵便局","operator:wikidata":"Q11509260","source":"KSJ2","source_ref":"http://nlftp.mlit.go.jp/ksj/jpgis/datalist/KsjTmplt-P02-v2_0.html"},"type":"node","ver":2},{"id":1423883515,"lat":31.998685,"lon":131.256619,"tags":{"KSJ2:ADS":"南俣313","KSJ2:AdminArea":"宮崎県東諸県郡綾町","amenity":"post_office","name":"綾郵便局","note":"National-Land Numerical Information (Public Facility) 2006, MLIT Japan","note:ja":"国土数値情報（公共施設データ）平成19年　国土交通省","operator":"日本郵便","operator:en":"Japan Post","operator:ja":"日本郵便","operator:short":"郵便局","operator:short:en":"JP","operator:short:ja":"郵便局","operator:wikidata":"Q11509260","source":"KSJ2","source_ref":"http://nlftp.mlit.go.jp/ksj/jpgis/datalist/KsjTmplt-P02-v2_0.html"},"type":"node","ver":2},{"id":1423866511,"lat":32.005824,"lon":131.26909,"tags":{"KSJ2:ADS":"入野4118","KSJ2:AdminArea":"宮崎県東諸県郡綾町","amenity":"post_office","name":"宮原簡易郵便局","note":"National-Land Numerical Information (Public Facility) 2006, MLIT Japan","note:ja":"国土数値情報（公共施設データ）平成19年　国土交通省","operator":"日本郵便","operator:en":"Japan Post","operator:ja":"日本郵便","operator:short":"郵便局","operator:short:en":"JP","operator:short:ja":"郵便局","operator:wikidata":"Q11509260","source":"KSJ2","source_ref":"http://nlftp.mlit.go.jp/ksj/jpgis/datalist/KsjTmplt-P02-v2_0.html"},"type":"node","ver":2},{"id":1423870623,"lat":32.2256281,"lon":131.1549214,"tags":{"amenity":"post_office","name":"村所郵便局","note":"National-Land Numerical Information (Public Facility) 2006, MLIT Japan","note:ja":"国土数値情報（公共施設データ）平成19年　国土交通省","source":"KSJ2","source_ref":"http://nlftp.mlit.go.jp/ksj/jpgis/datalist/KsjTmplt-P02-v2_0.html"},"type":"node","ver":2},{"id":1423884619,"lat":32.265575,"lon":131.252528,"tags":{"KSJ2:ADS":"銀鏡687-1","KSJ2:AdminArea":"宮崎県西都市","amenity":"post_office","name":"銀鏡郵便局","note":"National-Land Numerical Information (Public Facility) 2006, MLIT Japan","note:ja":"国土数値情報（公共施設データ）平成19年　国土交通省","operator":"日本郵便","operator:en":"Japan Post","operator:ja":"日本郵便","operator:short":"郵便局","operator:short:en":"JP","operator:short:ja":"郵便局","operator:wikidata":"Q11509260","source":"KSJ2","source_ref":"http://nlftp.mlit.go.jp/ksj/jpgis/datalist/KsjTmplt-P02-v2_0.html"},"type":"node","ver":2},{"id":1423883667,"lat":31.943386,"lon":131.336895,"tags":{"KSJ2:ADS":"高岡町花見827-1","KSJ2:AdminArea":"宮崎県宮崎市","amenity":"post_office","name":"花見簡易郵便局","note":"National-Land Numerical Information (Public Facility) 2006, MLIT Japan","note:ja":"国土数値情報（公共施設データ）平成19年　国土交通省","operator":"日本郵便","operator:en":"Japan Post","operator:ja":"日本郵便","operator:short":"郵便局","operator:short:en":"JP","operator:short:ja":"郵便局","operator:wikidata":"Q11509260","source":"KSJ2","source_ref":"http://nlftp.mlit.go.jp/ksj/jpgis/datalist/KsjTmplt-P02-v2_0.html"},"type":"node","ver":2},{"id":1423871417,"lat":31.928194,"lon":131.379365,"tags":{"KSJ2:ADS":"浮田3139-1","KSJ2:AdminArea":"宮崎県宮崎市","amenity":"post_office","name":"生目郵便局","note":"National-Land Numerical Information (Public Facility) 2006, MLIT Japan","note:ja":"国土数値情報（公共施設データ）平成19年　国土交通省","operator":"日本郵便","operator:en":"Japan Post","operator:ja":"日本郵便","operator:short":"郵便局","operator:short:en":"JP","operator:short:ja":"郵便局","operator:wikidata":"Q11509260","source":"KSJ2","source_ref":"http://nlftp.mlit.go.jp/ksj/jpgis/datalist/KsjTmplt-P02-v2_0.html"},"type":"node","ver":2},{"id":1423863010,"lat":31.990965,"lon":131.317727,"tags":{"KSJ2:ADS":"本庄6948","KSJ2:AdminArea":"宮崎県東諸県郡国富町","amenity":"post_office","name":"十日町簡易郵便局","note":"National-Land Numerical Information (Public Facility) 2006, MLIT Japan","note:ja":"国土数値情報（公共施設データ）平成19年　国土交通省","operator":"日本郵便","operator:en":"Japan Post","operator:ja":"日本郵便","operator:short":"郵便局","operator:short:en":"JP","operator:short:ja":"郵便局","operator:wikidata":"Q11509260","source":"KSJ2","source_ref":"http://nlftp.mlit.go.jp/ksj/jpgis/datalist/KsjTmplt-P02-v2_0.html"},"type":"node","ver":2},{"id":1423864683,"lat":31.989438,"lon":131.326949,"tags":{"KSJ2:ADS":"大字本庄4497-2","KSJ2:AdminArea":"宮崎県東諸県郡国富町","amenity":"post_office","name":"国富郵便局","note":"National-Land Numerical Information (Public Facility) 2006, MLIT Japan","note:ja":"国土数値情報（公共施設データ）平成19年　国土交通省","operator":"日本郵便","operator:en":"Japan Post","operator:ja":"日本郵便","operator:short":"郵便局","operator:short:en":"JP","operator:short:ja":"郵便局","operator:wikidata":"Q11509260","source":"KSJ2","source_ref":"http://nlftp.mlit.go.jp/ksj/jpgis/datalist/KsjTmplt-P02-v2_0.html"},"type":"node","ver":2},{"id":1423862622,"lat":31.9873924,"lon":131.3326491,"tags":{"amenity":"post_office","name":"六日町簡易郵便局","note":"National-Land Numerical Information (Public Facility) 2006, MLIT Japan","note:ja":"国土数値情報（公共施設データ）平成19年　国土交通省","source":"KSJ2","source_ref":"http://nlftp.mlit.go.jp/ksj/jpgis/datalist/KsjTmplt-P02-v2_0.html"},"type":"node","ver":2},{"id":2907017401,"lat":31.9457127,"lon":131.340474,"tags":{"amenity":"post_box","collection_times":"Mo-Fr 15:00; Sa 15:30; Su 11:00","ref":"高岡-24"},"type":"node","ver":1},{"id":1423866580,"lat":31.959052,"lon":131.369115,"tags":{"KSJ2:ADS":"糸原436-2","KSJ2:AdminArea":"宮崎県宮崎市","amenity":"post_office","name":"宮崎倉岡郵便局","note":"National-Land Numerical Information (Public Facility) 2006, MLIT Japan","note:ja":"国土数値情報（公共施設データ）平成19年　国土交通省","operator":"日本郵便","operator:en":"Japan Post","operator:ja":"日本郵便","operator:short":"郵便局","operator:short:en":"JP","operator:short:ja":"郵便局","operator:wikidata":"Q11509260","source":"KSJ2","source_ref":"http://nlftp.mlit.go.jp/ksj/jpgis/datalist/KsjTmplt-P02-v2_0.html"},"type":"node","ver":2},{"id":1423866975,"lat":31.990744,"lon":131.347893,"tags":{"KSJ2:ADS":"宮王丸703-5","KSJ2:AdminArea":"宮崎県東諸県郡国富町","amenity":"post_office","name":"宮王丸簡易郵便局","note":"National-Land Numerical Information (Public Facility) 2006, MLIT Japan","note:ja":"国土数値情報（公共施設データ）平成19年　国土交通省","operator":"日本郵便","operator:en":"Japan Post","operator:ja":"日本郵便","operator:short":"郵便局","operator:short:en":"JP","operator:short:ja":"郵便局","operator:wikidata":"Q11509260","source":"KSJ2","source_ref":"http://nlftp.mlit.go.jp/ksj/jpgis/datalist/KsjTmplt-P02-v2_0.html"},"type":"node","ver":2},{"id":1423870527,"lat":31.985189,"lon":131.364475,"tags":{"KSJ2:ADS":"木脇5219-1","KSJ2:AdminArea":"宮崎県東諸県郡国富町","amenity":"post_office","name":"木脇郵便局","note":"National-Land Numerical Information (Public Facility) 2006, MLIT Japan","note:ja":"国土数値情報（公共施設データ）平成19年　国土交通省","operator":"日本郵便","operator:en":"Japan Post","operator:ja":"日本郵便","operator:short":"郵便局","operator:short:en":"JP","operator:short:ja":"郵便局","operator:wikidata":"Q11509260","source":"KSJ2","source_ref":"http://nlftp.mlit.go.jp/ksj/jpgis/datalist/KsjTmplt-P02-v2_0.html"},"type":"node","ver":2},{"id":4379463991,"lat":31.8972492,"lon":131.4066868,"tags":{"amenity":"post_office","name":"宮崎京塚簡易","name:ja":"宮崎京塚簡易"},"type":"node","ver":1},{"id":1423866721,"lat":31.913192,"lon":131.400752,"tags":{"KSJ2:ADS":"大塚町流合5087-ロ","KSJ2:AdminArea":"宮崎県宮崎市","amenity":"post_office","name":"宮崎大塚郵便局","note":"National-Land Numerical Information (Public Facility) 2006, MLIT Japan","note:ja":"国土数値情報（公共施設データ）平成19年　国土交通省","operator":"日本郵便","operator:en":"Japan Post","operator:ja":"日本郵便","operator:short":"郵便局","operator:short:en":"JP","operator:short:ja":"郵便局","operator:wikidata":"Q11509260","source":"KSJ2","source_ref":"http://nlftp.mlit.go.jp/ksj/jpgis/datalist/KsjTmplt-P02-v2_0.html"},"type":"node","ver":2},{"id":1423866506,"lat":31.8944467,"lon":131.4196303,"tags":{"amenity":"post_office","level":"0","name":"宮交シティ内郵便局","note":"National-Land Numerical Information (Public Facility) 2006, MLIT Japan","note:ja":"国土数値情報（公共施設データ）平成19年　国土交通省","source":"KSJ2","source_ref":"http://nlftp.mlit.go.jp/ksj/jpgis/datalist/KsjTmplt-P02-v2_0.html"},"type":"node","ver":2},{"id":3889828695,"lat":31.8944118,"lon":131.4196612,"tags":{"amenity":"post_box","level":"0"},"type":"node","ver":2},{"id":7118793782,"lat":31.8952943,"lon":131.4222117,"tags":{"amenity":"post_box"},"type":"node","ver":1},{"id":1423866825,"lat":31.908447,"lon":131.419225,"tags":{"KSJ2:ADS":"松橋1-1-55","KSJ2:AdminArea":"宮崎県宮崎市","amenity":"post_office","name":"宮崎市役所内郵便局","note":"National-Land Numerical Information (Public Facility) 2006, MLIT Japan","note:ja":"国土数値情報（公共施設データ）平成19年　国土交通省","operator":"日本郵便","operator:en":"Japan Post","operator:ja":"日本郵便","operator:short":"郵便局","operator:short:en":"JP","operator:short:ja":"郵便局","operator:wikidata":"Q11509260","source":"KSJ2","source_ref":"http://nlftp.mlit.go.jp/ksj/jpgis/datalist/KsjTmplt-P02-v2_0.html"},"type":"node","ver":2},{"id":6606797238,"lat":31.907916,"lon":131.4215368,"tags":{"amenity":"post_box"},"type":"node","ver":2},{"id":2910995101,"lat":31.915755,"lon":131.423205,"tags":{"amenity":"post_box"},"type":"node","ver":1},{"id":13389695287,"lat":31.9151851,"lon":131.4193502,"tags":{"amenity":"post_box","operator":"日本郵便","operator:en":"Japan Post","operator:ja":"日本郵便","operator:short":"郵便局","operator:short:en":"JP","operator:short:ja":"郵便局","operator:wikidata":"Q11509260","ref":"宮崎-109","source":"survey"},"type":"node","ver":1},{"id":7013140302,"lat":31.9091693,"lon":131.4359769,"tags":{"amenity":"post_box"},"type":"node","ver":1},{"id":5923273530,"lat":31.9153391,"lon":131.4318206,"tags":{"amenity":"post_box"},"type":"node","ver":1},{"id":13057870454,"lat":31.9209627,"lon":131.4084839,"tags":{"amenity":"post_box","operator":"日本郵便","operator:en":"Japan Post","operator:ja":"日本郵便","operator:short":"郵便局","operator:short:en":"JP","operator:short:ja":"郵便局","operator:wikidata":"Q11509260","ref":"宮崎-113","source":"survey"},"type":"node","ver":1},{"id":13057870455,"lat":31.9248352,"lon":131.4111091,"tags":{"amenity":"post_box","operator":"日本郵便","operator:en":"Japan Post","operator:ja":"日本郵便","operator:short":"郵便局","operator:short:en":"JP","operator:short:ja":"郵便局","operator:wikidata":"Q11509260","ref":"95番","source":"survey"},"type":"node","ver":1},{"id":12992450267,"lat":31.9298667,"lon":131.4118005,"tags":{"amenity":"post_box","operator":"日本郵便","operator:en":"Japan Post","operator:ja":"日本郵便","operator:short":"郵便局","operator:short:en":"JP","operator:short:ja":"郵便局","operator:wikidata":"Q11509260","ref":"宮崎-70","source":"survey"},"type":"node","ver":1},{"id":1423866812,"lat":31.934522,"lon":131.402579,"tags":{"KSJ2:ADS":"小松1158-38","KSJ2:AdminArea":"宮崎県宮崎市","amenity":"post_office","name":"宮崎小松簡易郵便局","note":"National-Land Numerical Information (Public Facility) 2006, MLIT Japan","note:ja":"国土数値情報（公共施設データ）平成19年　国土交通省","operator":"日本郵便","operator:en":"Japan Post","operator:ja":"日本郵便","operator:short":"郵便局","operator:short:en":"JP","operator:short:ja":"郵便局","operator:wikidata":"Q11509260","source":"KSJ2","source_ref":"http://nlftp.mlit.go.jp/ksj/jpgis/datalist/KsjTmplt-P02-v2_0.html"},"type":"node","ver":2},{"id":2912645001,"lat":31.920778,"lon":131.424349,"tags":{"amenity":"post_box"},"type":"node","ver":1},{"id":6910656586,"lat":31.90734,"lon":131.4463668,"tags":{"amenity":"post_box"},"type":"node","ver":1},{"id":1423866868,"lat":31.964997,"lon":131.391252,"tags":{"KSJ2:ADS":"瓜生野1926-2","KSJ2:AdminArea":"宮崎県宮崎市","amenity":"post_office","name":"宮崎瓜生野郵便局","note":"National-Land Numerical Information (Public Facility) 2006, MLIT Japan","note:ja":"国土数値情報（公共施設データ）平成19年　国土交通省","operator":"日本郵便","operator:en":"Japan Post","operator:ja":"日本郵便","operator:short":"郵便局","operator:short:en":"JP","operator:short:ja":"郵便局","operator:wikidata":"Q11509260","source":"KSJ2","source_ref":"http://nlftp.mlit.go.jp/ksj/jpgis/datalist/KsjTmplt-P02-v2_0.html"},"type":"node","ver":2},{"id":1423866856,"lat":31.957581,"lon":131.413917,"tags":{"KSJ2:ADS":"平和が丘北町7-8","KSJ2:AdminArea":"宮崎県宮崎市","amenity":"post_office","name":"宮崎平和が丘郵便局","note":"National-Land Numerical Information (Public Facility) 2006, MLIT Japan","note:ja":"国土数値情報（公共施設データ）平成19年　国土交通省","operator":"日本郵便","operator:en":"Japan Post","operator:ja":"日本郵便","operator:short":"郵便局","operator:short:en":"JP","operator:short:ja":"郵便局","operator:wikidata":"Q11509260","source":"KSJ2","source_ref":"http://nlftp.mlit.go.jp/ksj/jpgis/datalist/KsjTmplt-P02-v2_0.html"},"type":"node","ver":2},{"id":1423866959,"lat":31.965783,"lon":131.439712,"tags":{"amenity":"post_office","name":"宮崎芳士郵便局","note":"National-Land Numerical Information (Public Facility) 2006, MLIT Japan","note:ja":"国土数値情報（公共施設データ）平成19年　国土交通省","operator":"日本郵便","operator:en":"Japan Post","operator:ja":"日本郵便","operator:short":"郵便局","operator:short:en":"JP","operator:short:ja":"郵便局","operator:wikidata":"Q11509260","source":"KSJ2","source_ref":"http://nlftp.mlit.go.jp/ksj/jpgis/datalist/KsjTmplt-P02-v2_0.html"},"type":"node","ver":2},{"id":1423883543,"lat":31.997301,"lon":131.439775,"tags":{"KSJ2:ADS":"広原278","KSJ2:AdminArea":"宮崎県宮崎市","amenity":"post_office","name":"羽佐間簡易郵便局","note":"National-Land Numerical Information (Public Facility) 2006, MLIT Japan","note:ja":"国土数値情報（公共施設データ）平成19年　国土交通省","operator":"日本郵便","operator:en":"Japan Post","operator:ja":"日本郵便","operator:short":"郵便局","operator:short:en":"JP","operator:short:ja":"郵便局","operator:wikidata":"Q11509260","source":"KSJ2","source_ref":"http://nlftp.mlit.go.jp/ksj/jpgis/datalist/KsjTmplt-P02-v2_0.html"},"type":"node","ver":2},{"id":1423870805,"lat":31.998242,"lon":131.285034,"tags":{"KSJ2:ADS":"森永1701-2","KSJ2:AdminArea":"宮崎県東諸県郡国富町","amenity":"post_office","name":"森永郵便局","note":"National-Land Numerical Information (Public Facility) 2006, MLIT Japan","note:ja":"国土数値情報（公共施設データ）平成19年　国土交通省","operator":"日本郵便","operator:en":"Japan Post","operator:ja":"日本郵便","operator:short":"郵便局","operator:short:en":"JP","operator:short:ja":"郵便局","operator:wikidata":"Q11509260","source":"KSJ2","source_ref":"http://nlftp.mlit.go.jp/ksj/jpgis/datalist/KsjTmplt-P02-v2_0.html"},"type":"node","ver":2},{"id":1423871062,"lat":32.022422,"lon":131.290447,"tags":{"KSJ2:ADS":"深年5579-1","KSJ2:AdminArea":"宮崎県東諸県郡国富町","amenity":"post_office","name":"深年簡易郵便局","note":"National-Land Numerical Information (Public Facility) 2006, MLIT Japan","note:ja":"国土数値情報（公共施設データ）平成19年　国土交通省","operator":"日本郵便","operator:en":"Japan Post","operator:ja":"日本郵便","operator:short":"郵便局","operator:short:en":"JP","operator:short:ja":"郵便局","operator:wikidata":"Q11509260","source":"KSJ2","source_ref":"http://nlftp.mlit.go.jp/ksj/jpgis/datalist/KsjTmplt-P02-v2_0.html"},"type":"node","ver":2},{"id":1423862583,"lat":32.026934,"lon":131.308003,"tags":{"KSJ2:ADS":"八代南俣2093-3","KSJ2:AdminArea":"宮崎県東諸県郡国富町","amenity":"post_office","name":"八代郵便局","note":"National-Land Numerical Information (Public Facility) 2006, MLIT Japan","note:ja":"国土数値情報（公共施設データ）平成19年　国土交通省","operator":"日本郵便","operator:en":"Japan Post","operator:ja":"日本郵便","operator:short":"郵便局","operator:short:en":"JP","operator:short:ja":"郵便局","operator:wikidata":"Q11509260","source":"KSJ2","source_ref":"http://nlftp.mlit.go.jp/ksj/jpgis/datalist/KsjTmplt-P02-v2_0.html"},"type":"node","ver":2},{"id":1423862970,"lat":32.043156,"lon":131.318585,"tags":{"KSJ2:ADS":"八代北俣2473","KSJ2:AdminArea":"宮崎県東諸県郡国富町","amenity":"post_office","name":"北俣簡易郵便局","note":"National-Land Numerical Information (Public Facility) 2006, MLIT Japan","note:ja":"国土数値情報（公共施設データ）平成19年　国土交通省","operator":"日本郵便","operator:en":"Japan Post","operator:ja":"日本郵便","operator:short":"郵便局","operator:short:en":"JP","operator:short:ja":"郵便局","operator:wikidata":"Q11509260","source":"KSJ2","source_ref":"http://nlftp.mlit.go.jp/ksj/jpgis/datalist/KsjTmplt-P02-v2_0.html"},"type":"node","ver":2},{"id":1423860639,"lat":32.004656,"lon":131.342046,"tags":{"KSJ2:ADS":"0","KSJ2:AdminArea":"宮崎県東諸県郡国富町","amenity":"post_office","name":"三名簡易郵便局（一時閉鎖中）","note":"National-Land Numerical Information (Public Facility) 2006, MLIT Japan","note:ja":"国土数値情報（公共施設データ）平成19年　国土交通省","operator":"日本郵便","operator:en":"Japan Post","operator:ja":"日本郵便","operator:short":"郵便局","operator:short:en":"JP","operator:short:ja":"郵便局","operator:wikidata":"Q11509260","source":"KSJ2","source_ref":"http://nlftp.mlit.go.jp/ksj/jpgis/datalist/KsjTmplt-P02-v2_0.html"},"type":"node","ver":2},{"id":1423860875,"lat":32.076062,"lon":131.316725,"tags":{"KSJ2:ADS":"上三財5438-1","KSJ2:AdminArea":"宮崎県西都市","amenity":"post_office","name":"上三財郵便局","note":"National-Land Numerical Information (Public Facility) 2006, MLIT Japan","note:ja":"国土数値情報（公共施設データ）平成19年　国土交通省","operator":"日本郵便","operator:en":"Japan Post","operator:ja":"日本郵便","operator:short":"郵便局","operator:short:en":"JP","operator:short:ja":"郵便局","operator:wikidata":"Q11509260","source":"KSJ2","source_ref":"http://nlftp.mlit.go.jp/ksj/jpgis/datalist/KsjTmplt-P02-v2_0.html"},"type":"node","ver":2},{"id":1423860820,"lat":32.062127,"lon":131.360221,"tags":{"KSJ2:ADS":"下三財3362-1","KSJ2:AdminArea":"宮崎県西都市","amenity":"post_office","name":"三財郵便局","note":"National-Land Numerical Information (Public Facility) 2006, MLIT Japan","note:ja":"国土数値情報（公共施設データ）平成19年　国土交通省","operator":"日本郵便","operator:en":"Japan Post","operator:ja":"日本郵便","operator:short":"郵便局","operator:short:en":"JP","operator:short:ja":"郵便局","operator:wikidata":"Q11509260","source":"KSJ2","source_ref":"http://nlftp.mlit.go.jp/ksj/jpgis/datalist/KsjTmplt-P02-v2_0.html"},"type":"node","ver":2},{"id":1423884455,"lat":32.055961,"lon":131.378331,"tags":{"KSJ2:ADS":"都於郡町5622","KSJ2:AdminArea":"宮崎県西都市","amenity":"post_office","name":"都於郡郵便局","note":"National-Land Numerical Information (Public Facility) 2006, MLIT Japan","note:ja":"国土数値情報（公共施設データ）平成19年　国土交通省","operator":"日本郵便","operator:en":"Japan Post","operator:ja":"日本郵便","operator:short":"郵便局","operator:short:en":"JP","operator:short:ja":"郵便局","operator:wikidata":"Q11509260","source":"KSJ2","source_ref":"http://nlftp.mlit.go.jp/ksj/jpgis/datalist/KsjTmplt-P02-v2_0.html"},"type":"node","ver":2},{"id":1423862952,"lat":32.082014,"lon":131.338444,"tags":{"KSJ2:ADS":"加勢1250","KSJ2:AdminArea":"宮崎県西都市","amenity":"post_office","name":"加勢簡易郵便局","note":"National-Land Numerical Information (Public Facility) 2006, MLIT Japan","note:ja":"国土数値情報（公共施設データ）平成19年　国土交通省","operator":"日本郵便","operator:en":"Japan Post","operator:ja":"日本郵便","operator:short":"郵便局","operator:short:en":"JP","operator:short:ja":"郵便局","operator:wikidata":"Q11509260","source":"KSJ2","source_ref":"http://nlftp.mlit.go.jp/ksj/jpgis/datalist/KsjTmplt-P02-v2_0.html"},"type":"node","ver":2},{"id":1423866488,"lat":32.090059,"lon":131.373244,"tags":{"KSJ2:ADS":"平郡551-1","KSJ2:AdminArea":"宮崎県西都市","amenity":"post_office","name":"宮ノ下簡易郵便局","note":"National-Land Numerical Information (Public Facility) 2006, MLIT Japan","note:ja":"国土数値情報（公共施設データ）平成19年　国土交通省","operator":"日本郵便","operator:en":"Japan Post","operator:ja":"日本郵便","operator:short":"郵便局","operator:short:en":"JP","operator:short:ja":"郵便局","operator:wikidata":"Q11509260","source":"KSJ2","source_ref":"http://nlftp.mlit.go.jp/ksj/jpgis/datalist/KsjTmplt-P02-v2_0.html"},"type":"node","ver":2},{"id":1423862418,"lat":32.048074,"lon":131.430023,"tags":{"KSJ2:ADS":"佐土原町上田島1636-2","KSJ2:AdminArea":"宮崎県宮崎市","amenity":"post_office","name":"佐土原郵便局","note":"National-Land Numerical Information (Public Facility) 2006, MLIT Japan","note:ja":"国土数値情報（公共施設データ）平成19年　国土交通省","operator":"日本郵便","operator:en":"Japan Post","operator:ja":"日本郵便","operator:short":"郵便局","operator:short:en":"JP","operator:short:ja":"郵便局","operator:wikidata":"Q11509260","source":"KSJ2","source_ref":"http://nlftp.mlit.go.jp/ksj/jpgis/datalist/KsjTmplt-P02-v2_0.html"},"type":"node","ver":2},{"id":1423869533,"lat":32.014301,"lon":131.47441,"tags":{"KSJ2:ADS":"佐土原町下田島20291","KSJ2:AdminArea":"宮崎県宮崎市","amenity":"post_office","name":"広瀬郵便局","note":"National-Land Numerical Information (Public Facility) 2006, MLIT Japan","note:ja":"国土数値情報（公共施設データ）平成19年　国土交通省","operator":"日本郵便","operator:en":"Japan Post","operator:ja":"日本郵便","operator:short":"郵便局","operator:short:en":"JP","operator:short:ja":"郵便局","operator:wikidata":"Q11509260","source":"KSJ2","source_ref":"http://nlftp.mlit.go.jp/ksj/jpgis/datalist/KsjTmplt-P02-v2_0.html"},"type":"node","ver":2},{"id":1423861220,"lat":32.033188,"lon":131.470465,"tags":{"KSJ2:ADS":"佐土原町下田島9152-1","KSJ2:AdminArea":"宮崎県宮崎市","amenity":"post_office","name":"下田島郵便局","note":"National-Land Numerical Information (Public Facility) 2006, MLIT Japan","note:ja":"国土数値情報（公共施設データ）平成19年　国土交通省","operator":"日本郵便","operator:en":"Japan Post","operator:ja":"日本郵便","operator:short":"郵便局","operator:short:en":"JP","operator:short:ja":"郵便局","operator:wikidata":"Q11509260","source":"KSJ2","source_ref":"http://nlftp.mlit.go.jp/ksj/jpgis/datalist/KsjTmplt-P02-v2_0.html"},"type":"node","ver":2},{"id":1423883766,"lat":32.098196,"lon":131.396771,"tags":{"KSJ2:ADS":"大字三宅2484-33","KSJ2:AdminArea":"宮崎県西都市","amenity":"post_office","name":"西都三宅郵便局","note":"National-Land Numerical Information (Public Facility) 2006, MLIT Japan","note:ja":"国土数値情報（公共施設データ）平成19年　国土交通省","operator":"日本郵便","operator:en":"Japan Post","operator:ja":"日本郵便","operator:short":"郵便局","operator:short:en":"JP","operator:short:ja":"郵便局","operator:wikidata":"Q11509260","source":"KSJ2","source_ref":"http://nlftp.mlit.go.jp/ksj/jpgis/datalist/KsjTmplt-P02-v2_0.html"},"type":"node","ver":2},{"id":13957987614,"lat":32.1021988,"lon":131.3948761,"tags":{"amenity":"post_box","operator":"日本郵便","operator:en":"Japan Post","operator:ja":"日本郵便","operator:short":"郵便局","operator:short:en":"JP","operator:short:ja":"郵便局","operator:wikidata":"Q11509260","ref":"西都-18","source":"survey"},"type":"node","ver":1},{"id":13988330831,"lat":32.0797397,"lon":131.4238325,"tags":{"amenity":"post_box","operator":"日本郵便","operator:en":"Japan Post","operator:ja":"日本郵便","operator:short":"郵便局","operator:short:en":"JP","operator:short:ja":"郵便局","operator:wikidata":"Q11509260","source":"survey"},"type":"node","ver":1},{"id":1423860756,"lat":32.113927,"lon":131.349831,"tags":{"KSJ2:ADS":"三納12500-12","KSJ2:AdminArea":"宮崎県西都市","amenity":"post_office","name":"三納郵便局","note":"National-Land Numerical Information (Public Facility) 2006, MLIT Japan","note:ja":"国土数値情報（公共施設データ）平成19年　国土交通省","operator":"日本郵便","operator:en":"Japan Post","operator:ja":"日本郵便","operator:short":"郵便局","operator:short:en":"JP","operator:short:ja":"郵便局","operator:wikidata":"Q11509260","source":"KSJ2","source_ref":"http://nlftp.mlit.go.jp/ksj/jpgis/datalist/KsjTmplt-P02-v2_0.html"},"type":"node","ver":2},{"id":1423870596,"lat":32.146869,"lon":131.37305,"tags":{"KSJ2:ADS":"南方297-5","KSJ2:AdminArea":"宮崎県西都市","amenity":"post_office","name":"杉安郵便局","note":"National-Land Numerical Information (Public Facility) 2006, MLIT Japan","note:ja":"国土数値情報（公共施設データ）平成19年　国土交通省","operator":"日本郵便","operator:en":"Japan Post","operator:ja":"日本郵便","operator:short":"郵便局","operator:short:en":"JP","operator:short:ja":"郵便局","operator:wikidata":"Q11509260","source":"KSJ2","source_ref":"http://nlftp.mlit.go.jp/ksj/jpgis/datalist/KsjTmplt-P02-v2_0.html"},"type":"node","ver":2},{"id":1423883360,"lat":32.1174547,"lon":131.4000416,"tags":{"amenity":"post_office","name":"稚児ケ池簡易郵便局","note":"National-Land Numerical Information (Public Facility) 2006, MLIT Japan","note:ja":"国土数値情報（公共施設データ）平成19年　国土交通省","source":"KSJ2","source_ref":"http://nlftp.mlit.go.jp/ksj/jpgis/datalist/KsjTmplt-P02-v2_0.html"},"type":"node","ver":2},{"id":1423883768,"lat":32.113123,"lon":131.432769,"tags":{"KSJ2:ADS":"大字右松3328-5","KSJ2:AdminArea":"宮崎県西都市","amenity":"post_office","name":"西都大口川簡易郵便局","note":"National-Land Numerical Information (Public Facility) 2006, MLIT Japan","note:ja":"国土数値情報（公共施設データ）平成19年　国土交通省","operator":"日本郵便","operator:en":"Japan Post","operator:ja":"日本郵便","operator:short":"郵便局","operator:short:en":"JP","operator:short:ja":"郵便局","operator:wikidata":"Q11509260","source":"KSJ2","source_ref":"http://nlftp.mlit.go.jp/ksj/jpgis/datalist/KsjTmplt-P02-v2_0.html"},"type":"node","ver":2},{"id":1423861063,"lat":32.13162,"lon":131.393133,"tags":{"KSJ2:ADS":"穂北5872-10","KSJ2:AdminArea":"宮崎県西都市","amenity":"post_office","name":"上穂北郵便局","note":"National-Land Numerical Information (Public Facility) 2006, MLIT Japan","note:ja":"国土数値情報（公共施設データ）平成19年　国土交通省","operator":"日本郵便","operator:en":"Japan Post","operator:ja":"日本郵便","operator:short":"郵便局","operator:short:en":"JP","operator:short:ja":"郵便局","operator:wikidata":"Q11509260","source":"KSJ2","source_ref":"http://nlftp.mlit.go.jp/ksj/jpgis/datalist/KsjTmplt-P02-v2_0.html"},"type":"node","ver":2},{"id":1423871370,"lat":32.134508,"lon":131.484953,"tags":{"KSJ2:ADS":"上江7527-2","KSJ2:AdminArea":"宮崎県児湯郡高鍋町","amenity":"post_office","name":"牛牧簡易郵便局","note":"National-Land Numerical Information (Public Facility) 2006, MLIT Japan","note:ja":"国土数値情報（公共施設データ）平成19年　国土交通省","operator":"日本郵便","operator:en":"Japan Post","operator:ja":"日本郵便","operator:short":"郵便局","operator:short:en":"JP","operator:short:ja":"郵便局","operator:wikidata":"Q11509260","source":"KSJ2","source_ref":"http://nlftp.mlit.go.jp/ksj/jpgis/datalist/KsjTmplt-P02-v2_0.html"},"type":"node","ver":2},{"id":1423871408,"lat":32.2148362,"lon":131.3138189,"tags":{"amenity":"post_office","name":"瓢丹渕郵便局","note":"National-Land Numerical Information (Public Facility) 2006, MLIT Japan","note:ja":"国土数値情報（公共施設データ）平成19年　国土交通省","source":"KSJ2","source_ref":"http://nlftp.mlit.go.jp/ksj/jpgis/datalist/KsjTmplt-P02-v2_0.html"},"type":"node","ver":2},{"id":1423867168,"lat":32.269286,"lon":131.310782,"tags":{"KSJ2:ADS":"0","KSJ2:AdminArea":"宮崎県西都市","amenity":"post_office","name":"尾八重簡易郵便局（一時閉鎖中）","note":"National-Land Numerical Information (Public Facility) 2006, MLIT Japan","note:ja":"国土数値情報（公共施設データ）平成19年　国土交通省","operator":"日本郵便","operator:en":"Japan Post","operator:ja":"日本郵便","operator:short":"郵便局","operator:short:en":"JP","operator:short:ja":"郵便局","operator:wikidata":"Q11509260","source":"KSJ2","source_ref":"http://nlftp.mlit.go.jp/ksj/jpgis/datalist/KsjTmplt-P02-v2_0.html"},"type":"node","ver":2},{"id":1423885550,"lat":32.12293,"lon":131.531899,"tags":{"KSJ2:ADS":"大字蚊口浦17-8","KSJ2:AdminArea":"宮崎県児湯郡高鍋町","amenity":"post_office","name":"高鍋駅前郵便局","note":"National-Land Numerical Information (Public Facility) 2006, MLIT Japan","note:ja":"国土数値情報（公共施設データ）平成19年　国土交通省","operator":"日本郵便","operator:en":"Japan Post","operator:ja":"日本郵便","operator:short":"郵便局","operator:short:en":"JP","operator:short:ja":"郵便局","operator:wikidata":"Q11509260","source":"KSJ2","source_ref":"http://nlftp.mlit.go.jp/ksj/jpgis/datalist/KsjTmplt-P02-v2_0.html"},"type":"node","ver":2},{"id":1423860990,"lat":32.138622,"lon":131.502206,"tags":{"KSJ2:ADS":"上江1985-13","KSJ2:AdminArea":"宮崎県児湯郡高鍋町","amenity":"post_office","name":"上江簡易郵便局","note":"National-Land Numerical Information (Public Facility) 2006, MLIT Japan","note:ja":"国土数値情報（公共施設データ）平成19年　国土交通省","operator":"日本郵便","operator:en":"Japan Post","operator:ja":"日本郵便","operator:short":"郵便局","operator:short:en":"JP","operator:short:ja":"郵便局","operator:wikidata":"Q11509260","source":"KSJ2","source_ref":"http://nlftp.mlit.go.jp/ksj/jpgis/datalist/KsjTmplt-P02-v2_0.html"},"type":"node","ver":2},{"id":1423885490,"lat":32.140094,"lon":131.527093,"tags":{"KSJ2:ADS":"持田3002-4","KSJ2:AdminArea":"宮崎県児湯郡高鍋町","amenity":"post_office","name":"高鍋持田簡易郵便局","note":"National-Land Numerical Information (Public Facility) 2006, MLIT Japan","note:ja":"国土数値情報（公共施設データ）平成19年　国土交通省","operator":"日本郵便","operator:en":"Japan Post","operator:ja":"日本郵便","operator:short":"郵便局","operator:short:en":"JP","operator:short:ja":"郵便局","operator:wikidata":"Q11509260","source":"KSJ2","source_ref":"http://nlftp.mlit.go.jp/ksj/jpgis/datalist/KsjTmplt-P02-v2_0.html"},"type":"node","ver":2},{"id":1423882434,"lat":32.171674,"lon":131.517621,"tags":{"KSJ2:ADS":"川南23535-1","KSJ2:AdminArea":"宮崎県児湯郡川南町","amenity":"post_office","name":"番野地郵便局","note":"National-Land Numerical Information (Public Facility) 2006, MLIT Japan","note:ja":"国土数値情報（公共施設データ）平成19年　国土交通省","operator":"日本郵便","operator:en":"Japan Post","operator:ja":"日本郵便","operator:short":"郵便局","operator:short:en":"JP","operator:short:ja":"郵便局","operator:wikidata":"Q11509260","source":"KSJ2","source_ref":"http://nlftp.mlit.go.jp/ksj/jpgis/datalist/KsjTmplt-P02-v2_0.html"},"type":"node","ver":2},{"id":1423867338,"lat":32.192811,"lon":131.52534,"tags":{"KSJ2:ADS":"大字川南13679-40","KSJ2:AdminArea":"宮崎県児湯郡川南町","amenity":"post_office","name":"川南郵便局","note":"National-Land Numerical Information (Public Facility) 2006, MLIT Japan","note:ja":"国土数値情報（公共施設データ）平成19年　国土交通省","operator":"日本郵便","operator:en":"Japan Post","operator:ja":"日本郵便","operator:short":"郵便局","operator:short:en":"JP","operator:short:ja":"郵便局","operator:wikidata":"Q11509260","source":"KSJ2","source_ref":"http://nlftp.mlit.go.jp/ksj/jpgis/datalist/KsjTmplt-P02-v2_0.html"},"type":"node","ver":2},